NO,시군구,번지,본번,부번,단지명,전용면적(㎡),계약년월,계약일,거래금액(만원),동,층,매수자,매도자,건축년도,도로명,해제사유발생일,거래유형,중개사소재지,등기일자,시군구_구,주소_합치기,latitude,longitude
1,서울특별시 중랑구 면목동,126-1,126,1,킴스아파트,35.75,201812,31,"29,500",-,7,-,-,2018,면목로 429,-,-,-,-,서울특별시 중랑구 ,서울특별시 중랑구  면목로 429,37.5901934659094,127.086826066156
2,서울특별시 성북구 삼선동2가,420,420,0,삼선현대힐스테이트,84.98,201812,31,"51,900",-,3,-,-,2009,낙산길 243-15,-,-,-,-,서울특별시 성북구 ,서울특별시 성북구  낙산길 243-15,37.5826745602455,127.014413798749
3,서울특별시 중랑구 상봉동,1,1,0,건영1,84.96,201812,31,"37,500",-,2,-,-,1997,봉화산로48길 62,-,-,-,-,서울특별시 중랑구 ,서울특별시 중랑구  봉화산로48길 62,37.6034753401116,127.093654269252
4,서울특별시 중랑구 면목동,126-1,126,1,킴스아파트,38.91,201812,31,"29,300",-,8,-,-,2018,면목로 429,-,-,-,-,서울특별시 중랑구 ,서울특별시 중랑구  면목로 429,37.5901934659094,127.086826066156
5,서울특별시 중랑구 면목동,1502,1502,0,현대,84.09,201812,31,"42,400",-,15,-,-,1994,용마산로 252,-,-,-,-,서울특별시 중랑구 ,서울특별시 중랑구  용마산로 252,37.5751759965089,127.089222458333
6,서울특별시 중구 황학동,2015,2015,0,청계리버팰리스B,26.94,201812,31,"27,300",-,10,-,-,2018,난계로17길 58-8,-,-,-,-,서울특별시 중구 ,서울특별시 중구  난계로17길 58-8,37.5698887859066,127.020691630846
7,서울특별시 중랑구 묵동,245-64,245,64,우성,48.91,201812,31,"19,600",-,4,-,-,1975,동일로149길 15,-,-,-,-,서울특별시 중랑구 ,서울특별시 중랑구  동일로149길 15,37.6063801794323,127.077014738388
8,서울특별시 성북구 돈암동,609-1,609,1,한신,68.13,201812,31,"48,000",-,13,-,-,1998,성북로4길 52,-,-,-,-,서울특별시 성북구 ,서울특별시 성북구  성북로4길 52,37.5944725333435,127.012706037821
9,서울특별시 동대문구 전농동,6,6,0,전농우성,59.78,201812,31,"29,600",-,4,-,-,1992,사가정로 191,-,-,-,-,서울특별시 동대문구 ,서울특별시 동대문구  사가정로 191,37.5790127866687,127.065917418489
10,서울특별시 광진구 자양동,227-7,227,7,더샵스타시티,100.32,201812,31,"118,000",-,36,-,-,2007,아차산로 262,-,-,-,-,서울특별시 광진구 ,서울특별시 광진구  아차산로 262,37.5370016363785,127.072962760454
11,서울특별시 광진구 자양동,579,579,0,우성1,59.91,201812,31,"66,300",-,9,-,-,1988,뚝섬로 569,-,-,-,-,서울특별시 광진구 ,서울특별시 광진구  뚝섬로 569,37.5343511422776,127.073577477923
12,서울특별시 용산구 한남동,550,550,0,현대하이페리온II,227.68,201812,31,"263,000",-,7,-,-,2004,서빙고로 417,-,-,-,-,서울특별시 용산구 ,서울특별시 용산구  서빙고로 417,37.5283743260401,127.005937416925
13,서울특별시 용산구 한남동,810,810,0,한남더힐,233.062,201812,31,"421,000",-,3,-,-,2011,독서당로 111,-,-,-,-,서울특별시 용산구 ,서울특별시 용산구  독서당로 111,37.5361228594578,127.007307641122
14,서울특별시 성북구 정릉동,239,239,0,정릉풍림아이원,60.0,201812,31,"41,000",-,12,-,-,2005,솔샘로25길 11-11,-,-,-,-,서울특별시 성북구 ,서울특별시 성북구  솔샘로25길 11-11,37.6160226380573,127.008106043719
15,서울특별시 성북구 정릉동,435,435,0,중앙하이츠빌2단지,84.95,201812,31,"40,700",-,10,-,-,2005,정릉로26길 8,-,-,-,-,서울특별시 성북구 ,서울특별시 성북구  정릉로26길 8,37.6038670811154,127.010847672186
16,서울특별시 중구 신당동,852,852,0,청구e편한세상,118.47,201812,31,"139,000",-,14,-,-,2011,청구로 64,-,-,-,-,서울특별시 중구 ,서울특별시 중구  청구로 64,37.5599601596254,127.015451019186
17,서울특별시 중랑구 면목동,1511,1511,0,두산3,84.77,201812,31,"53,500",-,16,-,-,1995,면목로37길 57,-,-,-,-,서울특별시 중랑구 ,서울특별시 중랑구  면목로37길 57,37.5800147769383,127.082931350864
18,서울특별시 도봉구 방학동,734,734,0,청구아파트,84.97,201812,31,"37,000",-,7,-,-,1994,시루봉로 71,-,-,-,-,서울특별시 도봉구 ,서울특별시 도봉구  시루봉로 71,37.6571605667278,127.027593335959
19,서울특별시 노원구 월계동,383-40,383,40,성북맨션,65.35,201812,31,"33,800",-,2,-,-,1976,석계로 107,-,-,-,-,서울특별시 노원구 ,서울특별시 노원구  석계로 107,37.6225335741487,127.060418607051
20,서울특별시 노원구 중계동,505,505,0,상아,84.97,201812,31,"52,700",-,13,-,-,1989,섬밭로 265,-,-,-,-,서울특별시 노원구 ,서울특별시 노원구  섬밭로 265,37.6382878280766,127.062716147408
21,서울특별시 노원구 중계동,512,512,0,중계무지개,39.82,201812,31,"28,000",-,4,-,-,1991,동일로208길 20,-,-,-,-,서울특별시 노원구 ,서울특별시 노원구  동일로208길 20,37.643256567583,127.066994809325
22,서울특별시 은평구 불광동,71-16,71,16,북한산대창센시티,59.85,201812,31,"42,000",-,4,-,-,2004,불광로 208,-,-,-,-,서울특별시 은평구 ,서울특별시 은평구  불광로 208,37.6257025429828,126.929389312581
23,서울특별시 노원구 중계동,502-1,502,1,중계그린1단지,49.5,201812,31,"29,800",-,4,-,-,1990,섬밭로 285,-,-,-,-,서울특별시 노원구 ,서울특별시 노원구  섬밭로 285,37.6408810487544,127.062533757048
24,서울특별시 노원구 중계동,366,366,0,청구(366),115.47,201812,31,"89,500",-,15,-,-,1993,중계로 184,-,-,-,-,서울특별시 노원구 ,서울특별시 노원구  중계로 184,37.6511079247726,127.079599122393
25,서울특별시 성북구 장위동,317,317,0,꿈의숲대명루첸아파트,59.988,201812,31,"46,400",-,12,-,-,2008,월계로36길 27,-,-,-,-,서울특별시 성북구 ,서울특별시 성북구  월계로36길 27,37.6214422751024,127.046326750213
26,서울특별시 노원구 상계동,1285,1285,0,동아불암,84.9,201812,31,"42,800",-,21,-,-,1999,덕릉로 780,-,-,-,-,서울특별시 노원구 ,서울특별시 노원구  덕릉로 780,37.6666919810414,127.079126011496
27,서울특별시 성북구 하월곡동,226,226,0,월곡래미안루나밸리,59.98,201812,31,"53,000",-,1,-,-,2007,월곡로14길 26,-,-,-,-,서울특별시 성북구 ,서울특별시 성북구  월곡로14길 26,37.6002340166717,127.042651944006
28,서울특별시 은평구 구산동,382,382,0,갈현현대,59.94,201812,31,"27,500",-,3,-,-,1998,서오릉로21길 36,-,-,-,-,서울특별시 은평구 ,서울특별시 은평구  서오릉로21길 36,37.6127720930199,126.904974725064
29,서울특별시 노원구 상계동,652,652,0,상계주공11(고층),59.39,201812,31,"34,500",-,2,-,-,1988,동일로227길 85,-,-,-,-,서울특별시 노원구 ,서울특별시 노원구  동일로227길 85,37.6665061107332,127.052270278334
30,서울특별시 도봉구 방학동,732,732,0,신동아아파트4,84.9,201812,31,"31,100",-,8,-,-,1995,방학로 200,-,-,-,-,서울특별시 도봉구 ,서울특별시 도봉구  방학로 200,37.662872736761,127.029669276882
31,서울특별시 강북구 미아동,1353,1353,0,에스케이북한산시티,84.92,201812,31,"40,400",-,1,-,-,2004,솔샘로 174,-,-,-,-,서울특별시 강북구 ,서울특별시 강북구  솔샘로 174,37.6176383628418,127.010599691076
32,서울특별시 도봉구 방학동,734,734,0,청구아파트,84.97,201812,31,"33,950",-,14,-,-,1995,해등로 264,-,-,-,-,서울특별시 도봉구 ,서울특별시 도봉구  해등로 264,37.6583037299981,127.027604638646
33,서울특별시 노원구 상계동,666,666,0,상계주공10(저층),54.54,201812,31,"45,900",-,4,-,-,1988,노원로 564,-,-,-,-,서울특별시 노원구 ,서울특별시 노원구  노원로 564,37.6616521070339,127.05612466376
34,서울특별시 도봉구 방학동,720-1,720,1,대상타운현대아파트,133.97,201812,31,"65,000",-,2,-,-,2001,마들로 616,-,-,-,-,서울특별시 도봉구 ,서울특별시 도봉구  마들로 616,37.6651079698533,127.046910486399
35,서울특별시 노원구 공릉동,738,738,0,공릉우성아파트,59.26,201812,31,"29,600",-,15,-,-,1995,동일로198길 24,-,-,-,-,서울특별시 노원구 ,서울특별시 노원구  동일로198길 24,37.6286774433719,127.073087970324
36,서울특별시 노원구 상계동,749-5,749,5,상계주공4(고층),84.38,201812,31,"43,400",-,1,-,-,1988,동일로214길 21,-,-,-,-,서울특별시 노원구 ,서울특별시 노원구  동일로214길 21,37.6504328878085,127.062759447938
37,서울특별시 노원구 공릉동,743,743,0,공릉동한보에센시티아파트,84.93,201812,31,"42,000",-,2,-,-,2000,공릉로46길 19,-,-,-,-,서울특별시 노원구 ,서울특별시 노원구  공릉로46길 19,37.6279055006749,127.080130818232
38,서울특별시 구로구 개봉동,471,471,0,삼호,84.88,201812,31,"38,400",-,12,-,-,1996,남부순환로95길 16,-,-,-,-,서울특별시 구로구 ,서울특별시 구로구  남부순환로95길 16,37.4945679422391,126.857307896676
39,서울특별시 구로구 개봉동,Dec-70,70,12,동도센트리움(70-12),116.276,201812,31,"40,000",-,9,-,-,2002,고척로22길 84,-,-,-,-,서울특별시 구로구 ,서울특별시 구로구  고척로22길 84,37.4981451232999,126.846809356285
40,서울특별시 금천구 시흥동,1002-1,1002,1,럭키남서울아파트,41.22,201812,31,"29,000",-,4,-,-,1982,시흥대로47길 43,-,-,-,-,서울특별시 금천구 ,서울특별시 금천구  시흥대로47길 43,37.4506553147109,126.898955300111
41,서울특별시 금천구 시흥동,1011,1011,0,우방,59.91,201812,31,"34,500",-,8,-,-,2002,금하로 750,-,-,-,-,서울특별시 금천구 ,서울특별시 금천구  금하로 750,37.4490734382987,126.913658594513
42,서울특별시 관악구 봉천동,1698-1,1698,1,보라매삼성,84.84,201812,31,"59,000",-,13,-,-,1996,보라매로 62,-,-,-,-,서울특별시 관악구 ,서울특별시 관악구  보라매로 62,37.4948015028766,126.927602560192
43,서울특별시 관악구 신림동,1735,1735,0,관악산휴먼시아2단지,84.98,201812,31,"45,100",-,13,-,-,2008,난곡로 55,-,-,-,-,서울특별시 관악구 ,서울특별시 관악구  난곡로 55,37.4597417150822,126.920752798392
44,서울특별시 관악구 신림동,1644,1644,0,강남,42.36,201812,31,"38,500",-,3,-,-,1974,조원로 25,-,-,-,-,서울특별시 관악구 ,서울특별시 관악구  조원로 25,37.483708310871,126.905433298638
45,서울특별시 구로구 구로동,107-4,107,4,비즈트위트블루,15.12,201812,31,"11,800",-,5,-,-,2012,공원로 15-12,-,-,-,-,서울특별시 구로구 ,서울특별시 구로구  공원로 15-12,37.4986733341879,126.891116202603
46,서울특별시 구로구 구로동,110-8,110,8,하나세인스톤1차,21.7256,201812,31,"16,400",-,12,-,-,2011,구로중앙로28다길 16,-,-,-,-,서울특별시 구로구 ,서울특별시 구로구  구로중앙로28다길 16,37.5012743907728,126.889021929487
47,서울특별시 동작구 대방동,503,503,0,주공2,51.66,201812,31,"56,500",-,11,-,-,1995,여의대방로44길 47,-,-,-,-,서울특별시 동작구 ,서울특별시 동작구  여의대방로44길 47,37.5099235104732,126.930418625519
48,서울특별시 금천구 시흥동,1002-1,1002,1,럭키남서울아파트,41.23,201812,31,"27,700",-,1,-,-,1981,시흥대로47길 43,-,-,-,-,서울특별시 금천구 ,서울특별시 금천구  시흥대로47길 43,37.4506553147109,126.898955300111
49,서울특별시 구로구 구로동,685-223,685,223,주공2,54.9,201812,31,"48,000",-,11,-,-,1987,구일로4길 22,-,-,-,-,서울특별시 구로구 ,서울특별시 구로구  구일로4길 22,37.4911670949724,126.875645378981
50,서울특별시 관악구 신림동,1693,1693,0,국제산장,84.15,201812,31,"32,900",-,1,-,-,1993,호암로 417,-,-,-,-,서울특별시 관악구 ,서울특별시 관악구  호암로 417,37.4613351494786,126.927479872415
51,서울특별시 영등포구 당산동2가,16-1,16,1,당산대우,31.73,201812,31,"28,000",-,13,-,-,1999,영등포로 106,-,-,-,-,서울특별시 영등포구 ,서울특별시 영등포구  영등포로 106,37.5208860332921,126.892859141484
52,서울특별시 영등포구 대림동,1123,1123,0,한솔솔파크,84.89,201812,31,"63,800",-,14,-,-,2008,도림천로 431,-,-,-,-,서울특별시 영등포구 ,서울특별시 영등포구  도림천로 431,37.4876756656925,126.899687344019
53,서울특별시 영등포구 대림동,696,696,0,우성1,62.37,201812,31,"44,000",-,2,-,-,1985,도림로 187,-,-,-,-,서울특별시 영등포구 ,서울특별시 영등포구  도림로 187,37.4955657383468,126.9005921977
54,서울특별시 관악구 봉천동,1718,1718,0,벽산블루밍,59.99,201812,31,"41,500",-,19,-,-,2005,은천로 93,-,-,-,-,서울특별시 관악구 ,서울특별시 관악구  은천로 93,37.4873527233282,126.945428874003
55,서울특별시 관악구 신림동,1706,1706,0,금호2,84.87,201812,31,"54,000",-,3,-,-,1998,신림로3가길 7,-,-,-,-,서울특별시 관악구 ,서울특별시 관악구  신림로3가길 7,37.4682378425488,126.944342536615
56,서울특별시 동작구 대방동,515,515,0,아데나339,18.56,201812,31,"16,300",-,8,-,-,2012,여의대방로54길 39,-,-,-,-,서울특별시 동작구 ,서울특별시 동작구  여의대방로54길 39,37.5127039490229,126.928954792246
57,서울특별시 영등포구 문래동3가,Feb-77,77,2,문래공원한신,79.46,201812,31,"51,500",-,1,-,-,1988,문래로20길 14,-,-,-,-,서울특별시 영등포구 ,서울특별시 영등포구  문래로20길 14,37.5171335926412,126.89331900434
58,서울특별시 구로구 오류동,Apr-31,31,4,오류동휘버스,83.97,201812,31,"31,200",-,3,-,-,2006,고척로18길 77,-,-,-,-,서울특별시 구로구 ,서울특별시 구로구  고척로18길 77,37.4977069811941,126.845852638576
59,서울특별시 서초구 서초동,1445-4,1445,4,래미안서초유니빌,34.052,201812,31,"31,000",-,3,-,-,2003,서초중앙로 26,-,-,-,-,서울특별시 서초구 ,서울특별시 서초구  서초중앙로 26,37.4846872089607,127.016991752076
60,서울특별시 강남구 개포동,185,185,0,개포주공7단지,73.26,201812,31,"132,000",-,11,-,-,1983,개포로 516,-,-,-,-,서울특별시 강남구 ,서울특별시 강남구  개포로 516,37.4891406792843,127.070871480537
61,서울특별시 강남구 수서동,799,799,0,강남 더샵 포레스트,165.4312,201812,31,"300,000",-,8,-,-,2016,광평로34길 35,-,-,-,-,서울특별시 강남구 ,서울특별시 강남구  광평로34길 35,37.4821109112761,127.094906024141
62,서울특별시 강동구 고덕동,486,486,0,아남1,84.91,201812,31,"63,800",-,14,-,-,1996,양재대로 1706,-,-,-,-,서울특별시 강동구 ,서울특별시 강동구  양재대로 1706,37.5579548375122,127.146294328922
63,서울특별시 서초구 서초동,1445-4,1445,4,래미안서초유니빌,45.255,201812,31,"36,000",-,14,-,-,2003,서초중앙로 26,-,-,-,-,서울특별시 서초구 ,서울특별시 서초구  서초중앙로 26,37.4846872089607,127.016991752076
64,서울특별시 서초구 서초동,1445-13,1445,13,서초쌍용플래티넘,82.46,201812,31,"81,000",-,14,-,-,2006,서초중앙로 18,-,-,-,-,서울특별시 서초구 ,서울특별시 서초구  서초중앙로 18,37.4840476212544,127.017348668302
65,서울특별시 강동구 천호동,467-11,467,11,현진리버파크,14.9,201812,31,"19,500",-,7,-,-,2017,구천면로 144,-,-,-,-,서울특별시 강동구 ,서울특별시 강동구  구천면로 144,37.5421794961691,127.120842044121
66,서울특별시 강동구 천호동,291-50,291,50,천호동이연아마빌레아파트,48.21,201812,31,"27,000",-,5,-,-,2002,천중로21길 61,-,-,-,-,서울특별시 강동구 ,서울특별시 강동구  천중로21길 61,37.5473589819332,127.13259233566
67,서울특별시 강동구 둔촌동,170-1,170,1,둔촌주공4단지,99.61,201812,31,"135,000",-,7,-,-,1980,양재대로 1340,-,-,-,-,서울특별시 강동구 ,서울특별시 강동구  양재대로 1340,37.525777860061,127.135931466677
68,서울특별시 서대문구 북가좌동,488,488,0,대경아르체,28.36,201812,31,"29,000",-,7,-,-,2018,응암로 133,-,-,-,-,서울특별시 서대문구 ,서울특별시 서대문구  응암로 133,37.5846667116226,126.914192065318
69,서울특별시 양천구 신정동,1322,1322,0,이펜하우스2단지,84.51,201812,31,"50,000",-,4,-,-,2011,신정이펜2로 55,-,-,-,-,서울특별시 양천구 ,서울특별시 양천구  신정이펜2로 55,37.5151706404873,126.830991876791
70,서울특별시 강서구 방화동,831,831,0,방화4단지,100.35,201812,31,"60,000",-,11,-,-,1994,방화대로47가길 22,-,-,-,-,서울특별시 강서구 ,서울특별시 강서구  방화대로47가길 22,37.5770988534391,126.813978203356
71,서울특별시 강서구 염창동,268,268,0,관음삼성,84.93,201812,31,"48,200",-,1,-,-,1997,양천로 656,-,-,-,-,서울특별시 강서구 ,서울특별시 강서구  양천로 656,37.5527346401778,126.869460423297
72,서울특별시 서대문구 남가좌동,385,385,0,DMC파크뷰자이2단지,84.968,201812,31,"83,000",-,1,-,-,2015,가재울미래로 2,-,-,-,-,서울특별시 서대문구 ,서울특별시 서대문구  가재울미래로 2,37.5744019902031,126.917907814167
73,서울특별시 은평구 신사동,Apr-39,39,4,명남더블레스(39-4),83.21,201812,31,"40,000",-,3,-,-,2003,가좌로 295,-,-,-,-,서울특별시 은평구 ,서울특별시 은평구  가좌로 295,37.594362552388,126.911499141198
74,서울특별시 은평구 대조동,59-48,59,48,만민하늘愛,73.34,201812,31,"33,500",-,3,-,-,2008,진흥로11길 5,-,-,-,-,서울특별시 은평구 ,서울특별시 은평구  진흥로11길 5,37.6074629888439,126.922847563154
75,서울특별시 양천구 신정동,1295,1295,0,목동2삼성래미안,84.65,201812,31,"69,500",-,4,-,-,2001,목동남로4길 81,-,-,-,-,서울특별시 양천구 ,서울특별시 양천구  목동남로4길 81,37.5100489602437,126.867875550271
76,서울특별시 은평구 역촌동,Apr-43,43,4,하늘애,84.84,201812,31,"47,800",-,8,-,-,2007,진흥로 27,-,-,-,-,서울특별시 은평구 ,서울특별시 은평구  진흥로 27,37.6004819441485,126.918434729942
77,서울특별시 강서구 등촌동,632-4,632,4,삼성한사랑1,84.99,201812,31,"58,000",-,2,-,-,1997,양천로66길 6,-,-,-,-,서울특별시 강서구 ,서울특별시 강서구  양천로66길 6,37.555145780298,126.863937231668
78,서울특별시 강서구 등촌동,715,715,0,등촌동아이파크,84.9958,201812,31,"58,500",-,1,-,-,2004,등촌로 163,-,-,-,-,서울특별시 강서구 ,서울특별시 강서구  등촌로 163,37.5447297738682,126.861593331753
79,서울특별시 서대문구 북아현동,1013,1013,0,e편한세상신촌3단지,84.93,201812,31,"116,000",-,10,-,-,2016,북아현로 29,-,-,-,-,서울특별시 서대문구 ,서울특별시 서대문구  북아현로 29,37.5602067153922,126.95606104514
80,서울특별시 서대문구 홍제동,82,82,0,홍제한양,120.14,201812,31,"76,250",-,11,-,-,1993,통일로25길 30,-,-,-,-,서울특별시 서대문구 ,서울특별시 서대문구  통일로25길 30,37.5832772226944,126.947232533354
81,서울특별시 서대문구 홍제동,459,459,0,홍제원현대(459-0),114.72,201812,31,"79,500",-,16,-,-,2000,통일로34길 43,-,-,-,-,서울특별시 서대문구 ,서울특별시 서대문구  통일로34길 43,37.5883336578387,126.948807747156
82,서울특별시 양천구 목동,200,200,0,우성,84.44,201812,31,"76,200",-,10,-,-,1992,목동중앙로 143,-,-,-,-,서울특별시 양천구 ,서울특별시 양천구  목동중앙로 143,37.5415308450122,126.87575085692
83,서울특별시 마포구 염리동,515-1,515,1,상록,58.71,201812,31,"59,000",-,3,-,-,1997,숭문길 106,-,-,-,-,서울특별시 마포구 ,서울특별시 마포구  숭문길 106,37.5509248817864,126.946795894081
84,서울특별시 강서구 화곡동,1011-6,1011,6,희훈리치파크,115.5,201812,31,"59,500",-,11,-,-,2002,강서로45다길 30-17,-,-,-,-,서울특별시 강서구 ,서울특별시 강서구  강서로45다길 30-17,37.5465378561662,126.834532126506
85,서울특별시 강서구 방화동,619-7,619,7,AirPalace(619-7),14.5,201812,31,"9,900",-,8,-,-,2013,개화동로27가길 33,-,-,-,-,서울특별시 강서구 ,서울특별시 강서구  개화동로27가길 33,37.5627209818902,126.807522731364
86,서울특별시 서대문구 남가좌동,377,377,0,DMC래미안클라시스,84.9,201812,31,"63,000",-,6,-,-,2000,증가로 191,-,-,-,-,서울특별시 서대문구 ,서울특별시 서대문구  증가로 191,37.5784968293823,126.917392296871
87,서울특별시 은평구 응암동,739,739,0,응암동금호,59.73,201812,30,"39,000",-,12,-,-,1998,응암로 318,-,-,-,-,서울특별시 은평구 ,서울특별시 은평구  응암로 318,37.5994661259867,126.921971643797
88,서울특별시 서초구 반포동,01-01,1,1,한신3차,132.94,201812,30,"289,000",-,3,-,-,1978,신반포로19길 10,-,-,-,-,서울특별시 서초구 ,서울특별시 서초구  신반포로19길 10,37.5052125097947,126.996659439627
89,서울특별시 금천구 시흥동,962-8,962,8,백운한비치5,57.99,201812,30,"31,000",-,3,-,-,2018,시흥대로12길 10-8,-,-,-,-,서울특별시 금천구 ,서울특별시 금천구  시흥대로12길 10-8,37.438626865702,126.903816002004
90,서울특별시 구로구 구로동,110-9,110,9,우원그린빌,60.347,201812,30,"29,000",-,13,-,-,2001,구로중앙로28다길 22,-,-,-,-,서울특별시 구로구 ,서울특별시 구로구  구로중앙로28다길 22,37.5014222775578,126.888864060761
91,서울특별시 성북구 성북동1가,35-22,35,22,휴아름스튜디오,13.57,201812,30,"15,700",-,10,-,-,2015,창경궁로 323,-,-,-,-,서울특별시 성북구 ,서울특별시 성북구  창경궁로 323,37.5884578893911,127.005414226009
92,서울특별시 동대문구 장안동,346-1,346,1,태솔아파트3차,58.24,201812,30,"40,000",-,10,-,-,2018,장한로26가길 53,-,-,-,-,서울특별시 동대문구 ,서울특별시 동대문구  장한로26가길 53,37.5692710967995,127.070969634209
93,서울특별시 성동구 금호동4가,235,235,0,서울숲2차푸르지오,59.862,201812,30,"103,500",-,8,-,-,2012,금호로 17,-,-,-,-,서울특별시 성동구 ,서울특별시 성동구  금호로 17,37.5468826236179,127.024072726848
94,서울특별시 도봉구 창동,45,45,0,삼성래미안,84.87,201812,30,"58,700",-,19,-,-,1992,노해로66길 21,-,-,-,-,서울특별시 도봉구 ,서울특별시 도봉구  노해로66길 21,37.6503916138943,127.047330927246
95,서울특별시 도봉구 방학동,734,734,0,청구아파트,84.97,201812,30,"46,500",-,12,-,-,1995,시루봉로 71,-,-,-,-,서울특별시 도봉구 ,서울특별시 도봉구  시루봉로 71,37.6571605667278,127.027593335959
96,서울특별시 강남구 개포동,185,185,0,개포주공6단지,73.02,201812,30,"163,000",-,9,-,-,1983,개포로 516,-,-,-,-,서울특별시 강남구 ,서울특별시 강남구  개포로 516,37.4891406792843,127.070871480537
97,서울특별시 송파구 마천동,May-68,68,5,천마그랑밸리,74.54,201812,30,"57,000",-,6,-,-,2004,성내천로29길 28,-,-,-,-,서울특별시 송파구 ,서울특별시 송파구  성내천로29길 28,37.5020497355753,127.153525458422
98,서울특별시 서초구 서초동,1675-11,1675,11,서초대우아이빌,37.777,201812,30,"33,000",-,10,-,-,2003,서초대로58길 10,-,-,-,-,서울특별시 서초구 ,서울특별시 서초구  서초대로58길 10,37.4942224982177,127.017508995609
99,서울특별시 강동구 둔촌동,89,89,0,현대4,84.94,201812,29,"67,500",-,5,-,-,1996,진황도로61길 7,-,-,-,-,서울특별시 강동구 ,서울특별시 강동구  진황도로61길 7,37.5294017081741,127.143825172961
100,서울특별시 강남구 자곡동,686,686,0,강남한양수자인(4단지),84.89,201812,29,"114,000",-,1,-,-,2014,자곡로 260,-,-,-,-,서울특별시 강남구 ,서울특별시 강남구  자곡로 260,37.4765634437989,127.111752118301
101,서울특별시 강남구 자곡동,686,686,0,강남한양수자인(4단지),114.46,201812,29,"135,000",-,9,-,-,2014,자곡로 260,-,-,-,-,서울특별시 강남구 ,서울특별시 강남구  자곡로 260,37.4765634437989,127.111752118301
102,서울특별시 강남구 도곡동,933,933,0,도곡쌍용예가,66.0,201812,29,"117,000",-,5,-,-,1978,남부순환로363길 30,-,-,-,-,서울특별시 강남구 ,서울특별시 강남구  남부순환로363길 30,37.48761945292,127.038197177163
103,서울특별시 강동구 암사동,509,509,0,선사현대아파트,114.42,201812,29,"103,000",-,13,-,-,2000,상암로 11,-,-,-,-,서울특별시 강동구 ,서울특별시 강동구  상암로 11,37.5534474873056,127.125660013035
104,서울특별시 강동구 길동,415-13,415,13,강동큐브(2차),15.12,201812,29,"11,900",-,7,-,-,2013,진황도로 85,-,-,-,-,서울특별시 강동구 ,서울특별시 강동구  진황도로 85,37.5366245950933,127.136132976612
105,서울특별시 강남구 청담동,33,33,0,청담동삼성1차(101동),84.3,201812,29,"135,000",-,4,-,-,1997,삼성로133길 20,-,-,-,-,서울특별시 강남구 ,서울특별시 강남구  삼성로133길 20,37.5194542356183,127.047832809734
106,서울특별시 강동구 암사동,422-26,422,26,암사e편한세상,84.94,201812,29,"60,000",-,12,-,-,2005,구천면로 365-13,-,-,-,-,서울특별시 강동구 ,서울특별시 강동구  구천면로 365-13,37.5515685466838,127.139082135172
107,서울특별시 송파구 방이동,May-48,48,5,현대주상복합,32.07,201812,29,"21,250",-,7,-,-,1998,오금로11길 55,-,-,-,-,서울특별시 송파구 ,서울특별시 송파구  오금로11길 55,37.5154937300715,127.113299840522
108,서울특별시 송파구 잠실동,27,27,0,주공아파트 5단지,76.5,201812,29,"171,000",-,14,-,-,1978,송파대로 567,-,-,-,-,서울특별시 송파구 ,서울특별시 송파구  송파대로 567,37.5131381759342,127.09304868009
109,서울특별시 중랑구 면목동,1077-1,1077,1,용마한신,44.35,201812,29,"33,700",-,7,-,-,1990,사가정로71길 19,-,-,-,-,서울특별시 중랑구 ,서울특별시 중랑구  사가정로71길 19,37.5808368956261,127.095052598876
110,서울특별시 중랑구 망우동,580-1,580,1,금호어울림(580-1),84.94,201812,29,"47,500",-,6,-,-,2006,양원역로 18,-,-,-,-,서울특별시 중랑구 ,서울특별시 중랑구  양원역로 18,37.6027743133849,127.108648043621
111,서울특별시 종로구 숭인동,181-121,181,121,도시그린빌라,57.45,201812,29,"24,300",-,3,-,-,1997,숭인동1길 31,-,-,-,-,서울특별시 종로구 ,서울특별시 종로구  숭인동1길 31,37.5765334601309,127.020071632824
112,서울특별시 중랑구 면목동,193-1,193,1,면목한신,44.5,201812,29,"30,800",-,15,-,-,1988,중랑천로 20,-,-,-,-,서울특별시 중랑구 ,서울특별시 중랑구  중랑천로 20,37.5864831132149,127.075805081355
113,서울특별시 광진구 중곡동,109-13,109,13,삼성로얄2,83.01,201812,29,"39,700",-,4,-,-,2002,자양로53길 40,-,-,-,-,서울특별시 광진구 ,서울특별시 광진구  자양로53길 40,37.5550766054317,127.092238423226
114,서울특별시 중랑구 면목동,1528,1528,0,면목동금호어울림아파트,84.0827,201812,29,"57,250",-,11,-,-,2005,용마산로 271,-,-,-,-,서울특별시 중랑구 ,서울특별시 중랑구  용마산로 271,37.5773677919025,127.089649371438
115,서울특별시 용산구 용문동,38-76,38,76,삼성하이츠,84.39,201812,29,"49,000",-,4,-,-,2003,효창원로25다길 17-3,-,-,-,-,서울특별시 용산구 ,서울특별시 용산구  효창원로25다길 17-3,37.5372150586859,126.956618091482
116,서울특별시 성동구 금호동3가,1662,1662,0,금호한신,59.99,201812,29,"70,700",-,5,-,-,2005,금호산길 27,-,-,-,-,서울특별시 성동구 ,서울특별시 성동구  금호산길 27,37.5505494639051,127.017088285139
117,서울특별시 중랑구 중화동,450,450,0,한신아파트상가동유치원동(103~109),59.76,201812,29,"43,750",-,26,-,-,1998,동일로 752,-,-,-,-,서울특별시 중랑구 ,서울특별시 중랑구  동일로 752,37.5970090851956,127.082070702444
118,서울특별시 중랑구 중화동,450,450,0,한신아파트상가동유치원동(103~109),59.76,201812,29,"45,200",-,20,-,-,1998,동일로 752,-,-,-,-,서울특별시 중랑구 ,서울특별시 중랑구  동일로 752,37.5970090851956,127.082070702444
119,서울특별시 동대문구 답십리동,989-1,989,1,우성그린,59.36,201812,29,"43,000",-,12,-,-,1997,답십리로59길 33,-,-,-,-,서울특별시 동대문구 ,서울특별시 동대문구  답십리로59길 33,37.5750621283917,127.066522402213
120,서울특별시 양천구 신정동,883,883,0,심미에셈빌,115.87,201812,29,"40,300",-,4,-,-,2001,목동로23길 34,-,-,-,-,서울특별시 양천구 ,서울특별시 양천구  목동로23길 34,37.5279445415474,126.859714008753
121,서울특별시 서대문구 연희동,740,740,0,성원,59.61,201812,29,"46,800",-,11,-,-,2001,연희로32길 48,-,-,-,-,서울특별시 서대문구 ,서울특별시 서대문구  연희로32길 48,37.5758600491846,126.937263003322
122,서울특별시 서대문구 북가좌동,488,488,0,대경아르체,33.62,201812,29,"29,000",-,7,-,-,2018,응암로 133,-,-,-,-,서울특별시 서대문구 ,서울특별시 서대문구  응암로 133,37.5846667116226,126.914192065318
123,서울특별시 마포구 망원동,433-3,433,3,성신,48.3,201812,29,"27,500",-,4,-,-,1976,포은로 147,-,-,-,-,서울특별시 마포구 ,서울특별시 마포구  포은로 147,37.5598276655775,126.902725437642
124,서울특별시 서대문구 홍은동,202-5,202,5,"현대(1,2차)",84.77,201812,29,"55,000",-,3,-,-,1988,연희로 377,-,-,-,-,서울특별시 서대문구 ,서울특별시 서대문구  연희로 377,37.5910066406383,126.939320310319
125,서울특별시 마포구 염리동,515-1,515,1,상록,58.71,201812,29,"60,000",-,18,-,-,1997,숭문길 106,-,-,-,-,서울특별시 마포구 ,서울특별시 마포구  숭문길 106,37.5509248817864,126.946795894081
126,서울특별시 양천구 신월동,350-2,350,2,신안파크,47.6,201812,29,"17,700",-,3,-,-,1987,지양로15길 20,-,-,-,-,서울특별시 양천구 ,서울특별시 양천구  지양로15길 20,37.5239737188018,126.829250021639
127,서울특별시 은평구 응암동,739,739,0,응암동금호,84.93,201812,29,"48,000",-,3,-,-,1998,응암로 318,-,-,-,-,서울특별시 은평구 ,서울특별시 은평구  응암로 318,37.5994661259867,126.921971643797
128,서울특별시 영등포구 당산동,121-200,121,200,휴브리지빌딩,18.37,201812,29,"15,000",-,7,-,-,2012,버드나루로 116,-,-,-,-,서울특별시 영등포구 ,서울특별시 영등포구  버드나루로 116,37.5285194959594,126.908261412358
129,서울특별시 구로구 고척동,337,337,0,한일유앤아이,59.647,201812,29,"39,200",-,19,-,-,2005,중앙로15길 151,-,-,-,-,서울특별시 구로구 ,서울특별시 구로구  중앙로15길 151,37.5082177998099,126.852026637597
130,서울특별시 구로구 고척동,343,343,0,고척월드메르디앙,84.93,201812,29,"56,000",-,19,-,-,2011,중앙로8길 11,-,-,-,-,서울특별시 구로구 ,서울특별시 구로구  중앙로8길 11,37.5025283725553,126.863289184052
131,서울특별시 구로구 개봉동,478,478,0,한진,84.96,201812,29,"50,000",-,11,-,-,2000,개봉로3길 87,-,-,-,-,서울특별시 구로구 ,서울특별시 구로구  개봉로3길 87,37.485898739724,126.850970967732
132,서울특별시 구로구 개봉동,Dec-70,70,12,동도센트리움(70-12),116.276,201812,29,"39,500",-,14,-,-,2002,고척로22길 84,-,-,-,-,서울특별시 구로구 ,서울특별시 구로구  고척로22길 84,37.4981451232999,126.846809356285
133,서울특별시 서초구 방배동,763-12,763,12,푸른마을,108.45,201812,29,"55,000",-,6,-,-,2003,동광로1길 84,-,-,-,-,서울특별시 서초구 ,서울특별시 서초구  동광로1길 84,37.4955836848859,126.984012896345
134,서울특별시 동작구 신대방동,395-69,395,69,보라매아카데미타워,115.54,201812,29,"63,500",-,26,-,-,1998,보라매로5가길 16,-,-,-,-,서울특별시 동작구 ,서울특별시 동작구  보라매로5가길 16,37.4912751024086,126.924094714271
135,서울특별시 금천구 시흥동,1013,1013,0,관악산벽산타운5,59.34,201812,29,"31,500",-,12,-,-,2004,금하로 816,-,-,-,-,서울특별시 금천구 ,서울특별시 금천구  금하로 816,37.4497786332027,126.920020808062
136,서울특별시 금천구 독산동,1147,1147,0,금천롯데캐슬골드파크1차,59.9384,201812,29,"69,000",-,25,-,-,2016,벚꽃로 40,-,-,-,-,서울특별시 금천구 ,서울특별시 금천구  벚꽃로 40,37.4600596360114,126.893020585165
137,서울특별시 영등포구 신길동,4942,4942,0,여의도리버뷰,12.96,201812,29,"11,500",-,4,-,-,2012,여의대방로61길 50,-,-,-,-,서울특별시 영등포구 ,서울특별시 영등포구  여의대방로61길 50,37.5162316852714,126.921199739783
138,서울특별시 동작구 상도동,411,411,0,대림아파트,66.59,201812,29,"53,300",-,10,-,-,1995,상도로60길 20,-,-,-,-,서울특별시 동작구 ,서울특별시 동작구  상도로60길 20,37.4931862305767,126.953260462544
139,서울특별시 은평구 구산동,159-10,159,10,브라운스톤구산,59.97,201812,29,"40,500",-,11,-,-,2006,갈현로17길 17,-,-,-,-,서울특별시 은평구 ,서울특별시 은평구  갈현로17길 17,37.6119050040364,126.908887561499
140,서울특별시 노원구 상계동,1063,1063,0,상계현대3차,84.96,201812,29,"43,200",-,9,-,-,1999,수락산로 234,-,-,-,-,서울특별시 노원구 ,서울특별시 노원구  수락산로 234,37.6719288518576,127.052648476813
141,서울특별시 노원구 상계동,135,135,0,한신1차,84.92,201812,29,"43,500",-,6,-,-,1987,한글비석로46가길 16,-,-,-,-,서울특별시 노원구 ,서울특별시 노원구  한글비석로46가길 16,37.6658429810022,127.068944051263
142,서울특별시 노원구 상계동,720,720,0,상계주공6(고층),59.28,201812,29,"46,200",-,14,-,-,1988,노해로 508,-,-,-,-,서울특별시 노원구 ,서울특별시 노원구  노해로 508,37.6547035620655,127.066190974274
143,서울특별시 노원구 상계동,730-2,730,2,상계주공3(고층),58.01,201812,29,"50,700",-,10,-,-,1987,동일로215길 48,-,-,-,-,서울특별시 노원구 ,서울특별시 노원구  동일로215길 48,37.6508221948981,127.056160593171
144,서울특별시 노원구 상계동,730-2,730,2,상계주공3(고층),41.3,201812,29,"37,000",-,11,-,-,1987,동일로215길 48,-,-,-,-,서울특별시 노원구 ,서울특별시 노원구  동일로215길 48,37.6508221948981,127.056160593171
145,서울특별시 노원구 하계동,270,270,0,우성,127.22,201812,29,"73,000",-,11,-,-,1988,섬밭로 232,-,-,-,-,서울특별시 노원구 ,서울특별시 노원구  섬밭로 232,37.6366151651829,127.065668150406
146,서울특별시 은평구 갈현동,537,537,0,갈현동현대,84.87,201812,29,"45,800",-,10,-,-,1997,갈현로33길 24,-,-,-,-,서울특별시 은평구 ,서울특별시 은평구  갈현로33길 24,37.6219704228009,126.913971706642
147,서울특별시 성북구 석관동,407,407,0,석관래미안,114.97,201812,29,"75,000",-,7,-,-,2009,화랑로 214,-,-,-,-,서울특별시 성북구 ,서울특별시 성북구  화랑로 214,37.6091583377123,127.054832710998
148,서울특별시 도봉구 쌍문동,59,59,0,한양2,35.1,201812,29,"18,400",-,13,-,-,1989,해등로 231,-,-,-,-,서울특별시 도봉구 ,서울특별시 도봉구  해등로 231,37.6577250772492,127.032047465192
149,서울특별시 성북구 장위동,319,319,0,꿈의숲코오롱하늘채,84.71,201812,29,"72,000",-,26,-,-,2017,돌곶이로 220,-,-,-,-,서울특별시 성북구 ,서울특별시 성북구  돌곶이로 220,37.6190182162561,127.046432738992
150,서울특별시 강북구 번동,470-1,470,1,삼성,59.77,201812,29,"40,000",-,7,-,-,1998,도봉로98길 33,-,-,-,-,서울특별시 강북구 ,서울특별시 강북구  도봉로98길 33,37.6413012911597,127.0315024438
151,서울특별시 노원구 월계동,556,556,0,주공2,44.94,201812,29,"20,000",-,9,-,-,1993,초안산로1길 18,-,-,-,-,서울특별시 노원구 ,서울특별시 노원구  초안산로1길 18,37.6291554160494,127.051603822219
152,서울특별시 도봉구 창동,38,38,0,주공17단지,41.3,201812,29,"24,000",-,1,-,-,1989,덕릉로66길 17,-,-,-,-,서울특별시 도봉구 ,서울특별시 도봉구  덕릉로66길 17,37.6437121231525,127.053952436142
153,서울특별시 도봉구 창동,38,38,0,주공17단지,36.34,201812,29,"23,700",-,13,-,-,1989,덕릉로66길 17,-,-,-,-,서울특별시 도봉구 ,서울특별시 도봉구  덕릉로66길 17,37.6437121231525,127.053952436142
154,서울특별시 노원구 상계동,626,626,0,상계주공14(고층),45.55,201812,29,"28,000",-,6,-,-,1989,수락산로 174,-,-,-,-,서울특별시 노원구 ,서울특별시 노원구  수락산로 174,37.670441834509,127.059730640364
155,서울특별시 노원구 월계동,781,781,0,청백4,59.4,201812,29,"30,900",-,14,-,-,1998,월계로45가길 94,-,-,-,-,서울특별시 노원구 ,서울특별시 노원구  월계로45가길 94,37.6318155292192,127.052326972987
156,서울특별시 도봉구 방학동,271-1,271,1,신동아아파트1,53.16,201812,29,"27,250",-,7,-,-,1988,시루봉로 107,-,-,-,-,서울특별시 도봉구 ,서울특별시 도봉구  시루봉로 107,37.6612170251846,127.026150172257
157,서울특별시 도봉구 방학동,508,508,0,우성아파트2,84.98,201812,28,"37,000",-,2,-,-,1993,해등로 307,-,-,-,-,서울특별시 도봉구 ,서울특별시 도봉구  해등로 307,37.6566747087322,127.022753987328
158,서울특별시 강북구 번동,136,136,0,번동솔그린,84.6,201812,28,"39,500",-,9,-,-,1999,한천로109길 83,-,-,-,-,서울특별시 강북구 ,서울특별시 강북구  한천로109길 83,37.6266622872579,127.039219892825
159,서울특별시 도봉구 쌍문동,732,732,0,북한산코오롱하늘채,84.98,201812,28,"51,750",-,8,-,-,2014,우이천로 367,-,-,-,-,서울특별시 도봉구 ,서울특별시 도봉구  우이천로 367,37.6478841889324,127.024070387404
160,서울특별시 노원구 상계동,624,624,0,상계주공16(고층),58.01,201812,28,"32,000",-,14,-,-,1988,동일로227길 86,-,-,-,-,서울특별시 노원구 ,서울특별시 노원구  동일로227길 86,37.6704100337173,127.052730034287
161,서울특별시 노원구 상계동,135,135,0,한신1차,53.96,201812,28,"28,000",-,14,-,-,1987,한글비석로46가길 16,-,-,-,-,서울특별시 노원구 ,서울특별시 노원구  한글비석로46가길 16,37.6658429810022,127.068944051263
162,서울특별시 양천구 목동,916,916,0,현대하이페리온,154.05,201812,28,"208,000",-,47,-,-,2003,목동동로 257,-,-,-,-,서울특별시 양천구 ,서울특별시 양천구  목동동로 257,37.5273217750941,126.874619136454
163,서울특별시 양천구 신월동,13-3,13,3,샤인팰리스,84.55,201812,28,"34,000",-,3,-,-,2004,화곡로3길 20-19,-,-,-,-,서울특별시 양천구 ,서울특별시 양천구  화곡로3길 20-19,37.5412276373369,126.828157465507
164,서울특별시 서대문구 충정로3가,466,466,0,우리유앤미,84.73,201812,28,"70,000",-,5,-,-,2008,경기대로 26-7,-,-,-,-,서울특별시 서대문구 ,서울특별시 서대문구  경기대로 26-7,37.5618578538624,126.961948197164
165,서울특별시 마포구 창전동,443,443,0,해모로,83.871,201812,28,"104,000",-,21,-,-,2007,토정로 167,-,-,-,-,서울특별시 마포구 ,서울특별시 마포구  토정로 167,37.5464775981715,126.928907135922
166,서울특별시 마포구 서교동,487,487,0,대우미래사랑,34.29,201812,28,"28,000",-,7,-,-,2005,월드컵북로5나길 18,-,-,-,-,서울특별시 마포구 ,서울특별시 마포구  월드컵북로5나길 18,37.5573352701834,126.916796137041
167,서울특별시 은평구 대조동,04-06,4,6,정익제이원,41.08,201812,28,"31,800",-,8,-,-,2014,통일로 745-4,-,-,-,-,서울특별시 은평구 ,서울특별시 은평구  통일로 745-4,37.6117678551251,126.928177031177
168,서울특별시 강서구 염창동,300,300,0,강변한솔솔파크,84.97,201812,28,"72,000",-,13,-,-,2005,양천로63길 38,-,-,-,-,서울특별시 강서구 ,서울특별시 강서구  양천로63길 38,37.5570108264228,126.865890760617
169,서울특별시 송파구 잠실동,101-1,101,1,우성아파트,160.74,201812,28,"238,400",-,6,-,-,1981,올림픽로4길 42,-,-,-,-,서울특별시 송파구 ,서울특별시 송파구  올림픽로4길 42,37.5083255540399,127.072027874321
170,서울특별시 송파구 문정동,618,618,0,파크하비오,84.9648,201812,28,"117,500",-,11,-,-,2016,송파대로 111,-,-,-,-,서울특별시 송파구 ,서울특별시 송파구  송파대로 111,37.4796870553794,127.124979804141
171,서울특별시 송파구 잠실동,19,19,0,잠실엘스,84.88,201812,28,"148,000",-,2,-,-,2008,올림픽로 99,-,-,-,-,서울특별시 송파구 ,서울특별시 송파구  올림픽로 99,37.5151252476966,127.078130036923
172,서울특별시 강동구 암사동,516-2,516,2,한강리치팰리스,81.46,201812,28,"55,000",-,4,-,-,2010,선사로 138,-,-,-,-,서울특별시 강동구 ,서울특별시 강동구  선사로 138,37.5505885408948,127.123774734655
173,서울특별시 송파구 신천동,11-04,11,4,잠실푸르지오월드마크,119.58,201812,28,"150,000",-,33,-,-,2013,올림픽로35가길 9,-,-,-,-,서울특별시 송파구 ,서울특별시 송파구  올림픽로35가길 9,37.5174846188512,127.103444795508
174,서울특별시 송파구 신천동,7,7,0,장미1,82.45,201812,28,"133,000",-,2,-,-,1979,올림픽로35길 104,-,-,-,-,서울특별시 송파구 ,서울특별시 송파구  올림픽로35길 104,37.5198173607856,127.099297662181
175,서울특별시 강동구 길동,415-16,415,16,청광플러스원큐브3차,13.265,201812,28,"11,800",-,10,-,-,2014,진황도로 87,-,-,-,-,서울특별시 강동구 ,서울특별시 강동구  진황도로 87,37.5363674526244,127.136442751206
176,서울특별시 강남구 대치동,1027,1027,0,래미안대치팰리스,94.49,201812,28,"280,000",-,16,-,-,2015,삼성로51길 37,-,-,-,-,서울특별시 강남구 ,서울특별시 강남구  삼성로51길 37,37.4934361918055,127.057697682666
177,서울특별시 강남구 대치동,316,316,0,은마,84.43,201812,28,"172,000",-,7,-,-,1980,삼성로 212,-,-,-,-,서울특별시 강남구 ,서울특별시 강남구  삼성로 212,37.4996157705058,127.065915414443
178,서울특별시 강남구 역삼동,606-18,606,18,현대휴먼터치빌,25.92,201812,28,"24,000",-,15,-,-,1999,논현로 565,-,-,-,-,서울특별시 강남구 ,서울특별시 강남구  논현로 565,37.5065208505908,127.033785182489
179,서울특별시 강남구 역삼동,828-76,828,76,(828-76),31.83,201812,28,"37,700",-,6,-,-,2005,테헤란로10길 27,-,-,-,-,서울특별시 강남구 ,서울특별시 강남구  테헤란로10길 27,37.4974052182051,127.033065808298
180,서울특별시 서초구 서초동,1593-7,1593,7,서초이오빌,43.2,201812,28,"29,000",-,3,-,-,2003,효령로53길 45,-,-,-,-,서울특별시 서초구 ,서울특별시 서초구  효령로53길 45,37.4865276721133,127.012932415371
181,서울특별시 서초구 신원동,619,619,0,서초포레스타6단지,59.98,201812,28,"110,000",-,5,-,-,2015,청계산로9길 1-12,-,-,-,-,서울특별시 서초구 ,서울특별시 서초구  청계산로9길 1-12,37.4496826596411,127.056241443278
182,서울특별시 송파구 잠실동,27,27,0,주공아파트 5단지,76.5,201812,28,"164,500",-,15,-,-,1978,송파대로 567,-,-,-,-,서울특별시 송파구 ,서울특별시 송파구  송파대로 567,37.5131381759342,127.09304868009
183,서울특별시 강동구 둔촌동,170-1,170,1,둔촌주공4단지,97.72,201812,28,"126,000",-,9,-,-,1980,양재대로 1340,-,-,-,-,서울특별시 강동구 ,서울특별시 강동구  양재대로 1340,37.525777860061,127.135931466677
184,서울특별시 동대문구 장안동,346-1,346,1,태솔아파트3차,59.57,201812,28,"39,900",-,12,-,-,2018,장한로26가길 53,-,-,-,-,서울특별시 동대문구 ,서울특별시 동대문구  장한로26가길 53,37.5692710967995,127.070969634209
185,서울특별시 동대문구 장안동,346-1,346,1,태솔아파트3차,57.98,201812,28,"36,400",-,12,-,-,2018,장한로26가길 53,-,-,-,-,서울특별시 동대문구 ,서울특별시 동대문구  장한로26가길 53,37.5692710967995,127.070969634209
186,서울특별시 성동구 마장동,825,825,0,대성유니드,84.71,201812,28,"73,500",-,14,-,-,2004,마장로37길 7,-,-,-,-,서울특별시 성동구 ,서울특별시 성동구  마장로37길 7,37.5669385461453,127.038684519978
187,서울특별시 성북구 보문동3가,2,2,0,현대I-PARK,84.57,201812,28,"68,000",-,13,-,-,2003,지봉로21길 19,-,-,-,-,서울특별시 성북구 ,서울특별시 성북구  지봉로21길 19,37.5856690827857,127.015959024256
188,서울특별시 용산구 효창동,05-17,5,17,세인트힐,119.03,201812,28,"68,000",-,2,-,-,2004,효창원로72길 42,-,-,-,-,서울특별시 용산구 ,서울특별시 용산구  효창원로72길 42,37.5423173221425,126.963810905937
189,서울특별시 종로구 평창동,108,108,0,롯데캐슬로잔,190.743,201812,28,"133,000",-,1,-,-,2009,평창문화로 156,-,-,-,-,서울특별시 종로구 ,서울특별시 종로구  평창문화로 156,37.6095980998306,126.978124840433
190,서울특별시 동대문구 답십리동,1003,1003,0,래미안위브,84.98,201812,28,"97,500",-,15,-,-,2014,답십리로 130,-,-,-,-,서울특별시 동대문구 ,서울특별시 동대문구  답십리로 130,37.5728549565736,127.052401156065
191,서울특별시 중랑구 신내동,795,795,0,새한,115.84,201812,28,"42,000",-,23,-,-,1998,용마산로 616,-,-,-,-,서울특별시 중랑구 ,서울특별시 중랑구  용마산로 616,37.6049332871517,127.10122617607
192,서울특별시 중랑구 면목동,1517,1517,0,진로,84.36,201812,28,"30,000",-,1,-,-,2001,용마산로94길 91,-,-,-,-,서울특별시 중랑구 ,서울특별시 중랑구  용마산로94길 91,37.5878352293087,127.101693609071
193,서울특별시 성북구 돈암동,524,524,0,일신건영휴먼빌아파트,117.16,201812,28,"62,000",-,18,-,-,2005,아리랑로 89,-,-,-,-,서울특별시 성북구 ,서울특별시 성북구  아리랑로 89,37.6007699096006,127.013617460956
194,서울특별시 동대문구 장안동,346-1,346,1,태솔아파트3차,57.98,201812,28,"36,400",-,14,-,-,2018,장한로26가길 53,-,-,-,-,서울특별시 동대문구 ,서울특별시 동대문구  장한로26가길 53,37.5692710967995,127.070969634209
195,서울특별시 동대문구 장안동,455-10,455,10,JS아파트,62.37,201812,28,"23,500",-,4,-,-,2008,천호대로95길 16,-,-,-,-,서울특별시 동대문구 ,서울특별시 동대문구  천호대로95길 16,37.5624113086513,127.07046149572
196,서울특별시 성북구 성북동1가,35-22,35,22,휴아름스튜디오,16.53,201812,28,"20,200",-,14,-,-,2015,창경궁로 323,-,-,-,-,서울특별시 성북구 ,서울특별시 성북구  창경궁로 323,37.5884578893911,127.005414226009
197,서울특별시 중랑구 망우동,579,579,0,한울네세창,78.75,201812,28,"34,900",-,8,-,-,2005,망우로76길 51,-,-,-,-,서울특별시 중랑구 ,서울특별시 중랑구  망우로76길 51,37.5984089891568,127.106302078245
198,서울특별시 성북구 성북동,179-96,179,96,성북좋은,73.56,201812,28,"50,000",-,6,-,-,2002,성북로6가길 23,-,-,-,-,서울특별시 성북구 ,서울특별시 성북구  성북로6가길 23,37.5905430473057,127.005604371088
199,서울특별시 관악구 신림동,1725,1725,0,로마,77.71,201812,28,"42,050",-,5,-,-,2003,남부순환로194길 7,-,-,-,-,서울특별시 관악구 ,서울특별시 관악구  남부순환로194길 7,37.4843830953088,126.935266395036
200,서울특별시 금천구 시흥동,1011,1011,0,우방,84.84,201812,28,"44,000",-,2,-,-,2002,금하로 750,-,-,-,-,서울특별시 금천구 ,서울특별시 금천구  금하로 750,37.4490734382987,126.913658594513
201,서울특별시 서초구 양재동,154-2,154,2,우성,73.15,201812,28,"107,000",-,8,-,-,1991,바우뫼로 91,-,-,-,-,서울특별시 서초구 ,서울특별시 서초구  바우뫼로 91,37.4750404702355,127.031799040636
202,서울특별시 관악구 봉천동,1724,1724,0,관악월드메르디앙,79.27,201812,28,"51,500",-,7,-,-,2005,관악로28길 80,-,-,-,-,서울특별시 관악구 ,서울특별시 관악구  관악로28길 80,37.4835249228558,126.959145284638
203,서울특별시 동작구 노량진동,324,324,0,건영(103동-106동),114.96,201812,28,"78,500",-,16,-,-,1997,만양로 26,-,-,-,-,서울특별시 동작구 ,서울특별시 동작구  만양로 26,37.5076264776599,126.949547851693
204,서울특별시 금천구 시흥동,1013,1013,0,관악산벽산타운5,59.34,201812,28,"21,500",-,9,-,-,2004,금하로 816,-,-,-,-,서울특별시 금천구 ,서울특별시 금천구  금하로 816,37.4497786332027,126.920020808062
205,서울특별시 금천구 시흥동,948,948,0,삼일,59.91,201812,28,"18,400",-,2,-,-,1997,시흥대로24길 32,-,-,-,-,서울특별시 금천구 ,서울특별시 금천구  시흥대로24길 32,37.44126494624,126.90628203912
206,서울특별시 금천구 시흥동,1009,1009,0,시흥목련,59.21,201812,28,"34,000",-,9,-,-,1996,금하로3길 26,-,-,-,-,서울특별시 금천구 ,서울특별시 금천구  금하로3길 26,37.4543350072853,126.897439149193
207,서울특별시 서초구 우면동,753,753,0,서초호반써밋,101.0482,201812,28,"138,000",-,20,-,-,2013,양재대로2길 109,-,-,-,-,서울특별시 서초구 ,서울특별시 서초구  양재대로2길 109,37.456115498066,127.01378344297
208,서울특별시 영등포구 당산동3가,394,394,0,삼익,82.65,201812,28,"73,000",-,7,-,-,1979,국회대로 552,-,-,-,-,서울특별시 영등포구 ,서울특별시 영등포구  국회대로 552,37.5278261443919,126.895635307226
209,서울특별시 구로구 구로동,1265,1265,0,구로두산,63.33,201812,28,"44,700",-,9,-,-,1998,도림로 59,-,-,-,-,서울특별시 구로구 ,서울특별시 구로구  도림로 59,37.4898993993674,126.888961869782
210,서울특별시 구로구 구로동,145-23,145,23,성락,57.33,201812,28,"27,200",-,3,-,-,1988,도림로20길 30,-,-,-,-,서울특별시 구로구 ,서울특별시 구로구  도림로20길 30,37.4888306476374,126.892890693722
211,서울특별시 구로구 구로동,1279,1279,0,우민늘푸른,66.122,201812,28,"46,900",-,9,-,-,2004,도림로20길 50,-,-,-,-,서울특별시 구로구 ,서울특별시 구로구  도림로20길 50,37.4882597225362,126.893837128928
212,서울특별시 관악구 봉천동,1629-2,1629,2,동아타운,28.8,201812,28,"24,000",-,6,-,-,1999,봉천로 576,-,-,-,-,서울특별시 관악구 ,서울특별시 관악구  봉천로 576,37.4769738774324,126.961320975076
213,서울특별시 영등포구 양평동3가,Apr-79,79,4,현대2차,80.92,201812,28,"62,000",-,1,-,-,1990,선유동2로 29,-,-,-,-,서울특별시 영등포구 ,서울특별시 영등포구  선유동2로 29,37.5324321877995,126.895879717489
214,서울특별시 관악구 신림동,1694,1694,0,신림현대,34.86,201812,28,"30,000",-,3,-,-,1993,신림로29길 8,-,-,-,-,서울특별시 관악구 ,서울특별시 관악구  신림로29길 8,37.4755685048005,126.932811143723
215,서울특별시 영등포구 문래동6가,46,46,0,현대1차,64.38,201812,28,"50,500",-,7,-,-,1986,문래로4길 14,-,-,-,-,서울특별시 영등포구 ,서울특별시 영등포구  문래로4길 14,37.5193871807986,126.883313603911
216,서울특별시 금천구 독산동,711-2,711,2,금천현대,84.83,201812,28,"47,400",-,6,-,-,2002,벚꽃로 73,-,-,-,-,서울특별시 금천구 ,서울특별시 금천구  벚꽃로 73,37.4629100391456,126.890423305457
217,서울특별시 금천구 독산동,711-2,711,2,금천현대,84.83,201812,28,"46,500",-,22,-,-,2002,벚꽃로 73,-,-,-,-,서울특별시 금천구 ,서울특별시 금천구  벚꽃로 73,37.4629100391456,126.890423305457
218,서울특별시 금천구 독산동,883-22,883,22,동은6차,58.05,201812,28,"25,000",-,7,-,-,2004,문성로3길 41,-,-,-,-,서울특별시 금천구 ,서울특별시 금천구  문성로3길 41,37.4772602633017,126.9065934579
219,서울특별시 영등포구 여의도동,Apr-43,43,4,롯데캐슬아이비,244.97,201812,28,"182,000",-,31,-,-,2005,국제금융로 86,-,-,-,-,서울특별시 영등포구 ,서울특별시 영등포구  국제금융로 86,37.5202061193308,126.931800002781
220,서울특별시 관악구 신림동,1433-55,1433,55,프라비다트라움,14.06,201812,27,"13,000",-,9,-,-,2013,신림로65길 27,-,-,-,-,서울특별시 관악구 ,서울특별시 관악구  신림로65길 27,37.4848187225214,126.928081647142
221,서울특별시 구로구 구로동,685-223,685,223,주공2,41.3,201812,27,"41,000",-,2,-,-,1987,구일로4길 22,-,-,-,-,서울특별시 구로구 ,서울특별시 구로구  구일로4길 22,37.4911670949724,126.875645378981
222,서울특별시 관악구 신림동,1693,1693,0,국제산장,84.15,201812,27,"41,000",-,4,-,-,1993,호암로 417,-,-,-,-,서울특별시 관악구 ,서울특별시 관악구  호암로 417,37.4613351494786,126.927479872415
223,서울특별시 구로구 항동,233,233,0,현대홈타운스위트,84.9804,201812,27,"39,000",-,1,-,-,2004,연동로13길 25,-,-,-,-,서울특별시 구로구 ,서울특별시 구로구  연동로13길 25,37.4850638746129,126.81957030728
224,서울특별시 구로구 구로동,771-2,771,2,(771-2),58.11,201812,27,"17,000",-,3,-,-,1996,구로동로20길 68-1,-,-,-,-,서울특별시 구로구 ,서울특별시 구로구  구로동로20길 68-1,37.4876218458319,126.888116078444
225,서울특별시 구로구 구로동,642-9,642,9,한신,44.78,201812,27,"33,000",-,11,-,-,1988,구일로8길 63,-,-,-,-,서울특별시 구로구 ,서울특별시 구로구  구일로8길 63,37.4965752295641,126.87362950335
226,서울특별시 구로구 구로동,107-4,107,4,비즈트위트블루,16.04,201812,27,"11,900",-,5,-,-,2012,공원로 15-12,-,-,-,-,서울특별시 구로구 ,서울특별시 구로구  공원로 15-12,37.4986733341879,126.891116202603
227,서울특별시 영등포구 여의도동,Jan-55,55,1,대우트럼프월드Ⅰ,38.83,201812,27,"34,000",-,5,-,-,2002,여의동로 143,-,-,-,-,서울특별시 영등포구 ,서울특별시 영등포구  여의동로 143,37.5175310485749,126.932597643229
228,서울특별시 서초구 서초동,1330,1330,0,서초동삼성쉐르빌2,35.22,201812,27,"27,500",-,12,-,-,2002,강남대로53길 11,-,-,-,-,서울특별시 서초구 ,서울특별시 서초구  강남대로53길 11,37.4939616380396,127.02791641287
229,서울특별시 강남구 대치동,511,511,0,한보미도맨션2,126.33,201812,27,"238,000",-,9,-,-,1985,삼성로 150,-,-,-,-,서울특별시 강남구 ,서울특별시 강남구  삼성로 150,37.4956953356085,127.068564672209
230,서울특별시 강남구 역삼동,709-5,709,5,테헤란아이파크,70.83,201812,27,"175,000",-,24,-,-,2014,테헤란로52길 16,-,-,-,-,서울특별시 강남구 ,서울특별시 강남구  테헤란로52길 16,37.5025006142352,127.046384009751
231,서울특별시 강남구 역삼동,727-9,727,9,요진와이시티미니,12.1,201812,27,"20,017",-,7,-,-,2012,역삼로25길 21,-,-,-,-,서울특별시 강남구 ,서울특별시 강남구  역삼로25길 21,37.4975231419043,127.039302207331
232,서울특별시 강동구 암사동,509,509,0,선사현대아파트,72.85,201812,27,"73,000",-,8,-,-,2000,상암로 11,-,-,-,-,서울특별시 강동구 ,서울특별시 강동구  상암로 11,37.5534474873056,127.125660013035
233,서울특별시 송파구 석촌동,Jul-77,77,7,다성리치빌,84.94,201812,27,"55,000",-,2,-,-,2001,백제고분로37길 12,-,-,-,-,서울특별시 송파구 ,서울특별시 송파구  백제고분로37길 12,37.5040384777668,127.10334922254
234,서울특별시 송파구 잠실동,19,19,0,잠실엘스,84.8,201812,27,"163,000",-,23,-,-,2008,올림픽로 99,-,-,-,-,서울특별시 송파구 ,서울특별시 송파구  올림픽로 99,37.5151252476966,127.078130036923
235,서울특별시 송파구 마천동,175,175,0,한보1,59.26,201812,27,"51,000",-,9,-,-,1998,마천로51길 25,-,-,-,-,서울특별시 송파구 ,서울특별시 송파구  마천로51길 25,37.4973456347844,127.151885134589
236,서울특별시 강남구 대치동,316,316,0,은마,84.43,201812,27,"172,500",-,9,-,-,1980,삼성로 212,-,-,-,-,서울특별시 강남구 ,서울특별시 강남구  삼성로 212,37.4996157705058,127.065915414443
237,서울특별시 노원구 중계동,512,512,0,중계무지개,39.96,201812,27,"29,000",-,13,-,-,1991,동일로208길 20,-,-,-,-,서울특별시 노원구 ,서울특별시 노원구  동일로208길 20,37.643256567583,127.066994809325
238,서울특별시 성북구 하월곡동,222,222,0,월곡두산위브,59.855,201812,27,"55,000",-,11,-,-,2003,오패산로 46,-,-,-,-,서울특별시 성북구 ,서울특별시 성북구  오패산로 46,37.6074738406161,127.038709467417
239,서울특별시 도봉구 창동,38,38,0,주공17단지,36.16,201812,27,"23,000",-,9,-,-,1989,덕릉로66길 17,-,-,-,-,서울특별시 도봉구 ,서울특별시 도봉구  덕릉로66길 17,37.6437121231525,127.053952436142
240,서울특별시 노원구 상계동,626,626,0,상계주공14(고층),41.3,201812,27,"28,200",-,10,-,-,1989,동일로228길 23,-,-,-,-,서울특별시 노원구 ,서울특별시 노원구  동일로228길 23,37.6698696701205,127.058738056584
241,서울특별시 노원구 상계동,1055,1055,0,상계1차현대아파트,83.92,201812,27,"35,750",-,4,-,-,1993,동일로237길 41,-,-,-,-,서울특별시 노원구 ,서울특별시 노원구  동일로237길 41,37.672750342271,127.052699611867
242,서울특별시 노원구 중계동,359-1,359,1,주공5,58.46,201812,27,"53,000",-,6,-,-,1992,중계로 230,-,-,-,-,서울특별시 노원구 ,서울특별시 노원구  중계로 230,37.6510358515074,127.075054984295
243,서울특별시 은평구 불광동,634,634,0,은혜스카이빌아파트,60.393,201812,27,"34,000",-,5,-,-,2005,불광로13가길 7-3,-,-,-,-,서울특별시 은평구 ,서울특별시 은평구  불광로13가길 7-3,37.6184428796638,126.931291391416
244,서울특별시 노원구 공릉동,715,715,0,시영3차(라이프)아파트,34.44,201812,27,"22,300",-,6,-,-,1994,섬밭로 123,-,-,-,-,서울특별시 노원구 ,서울특별시 노원구  섬밭로 123,37.628054057801,127.068573811877
245,서울특별시 도봉구 창동,45,45,0,삼성래미안,84.87,201812,27,"61,000",-,15,-,-,1992,노해로66길 21,-,-,-,-,서울특별시 도봉구 ,서울특별시 도봉구  노해로66길 21,37.6503916138943,127.047330927246
246,서울특별시 노원구 상계동,1255,1255,0,은빛1단지,39.7,201812,27,"24,700",-,7,-,-,1998,동일로245길 162,-,-,-,-,서울특별시 노원구 ,서울특별시 노원구  동일로245길 162,37.6808384621835,127.0542198702
247,서울특별시 성북구 종암동,80,80,0,래미안크리시엘,59.99,201812,27,"50,800",-,7,-,-,2004,종암로25길 30,-,-,-,-,서울특별시 성북구 ,서울특별시 성북구  종암로25길 30,37.6014922606804,127.031080353416
248,서울특별시 강서구 화곡동,343-49,343,49,혜성오피아파트,23.91,201812,27,"21,500",-,7,-,-,2018,강서로 43-6,-,-,-,-,서울특별시 강서구 ,서울특별시 강서구  강서로 43-6,37.5315608282789,126.846205447179
249,서울특별시 서대문구 연희동,708-4,708,4,홍연,44.36,201812,27,"17,500",-,2,-,-,1981,홍연8길 7,-,-,-,-,서울특별시 서대문구 ,서울특별시 서대문구  홍연8길 7,37.5764859795537,126.931758329471
250,서울특별시 양천구 신월동,1001-5,1001,5,보금자리,71.88,201812,27,"28,100",-,7,-,-,2004,남부순환로 586,-,-,-,-,서울특별시 양천구 ,서울특별시 양천구  남부순환로 586,37.516503114195,126.839173490341
251,서울특별시 강서구 등촌동,630-3,630,3,우성,47.38,201812,27,"39,200",-,14,-,-,1992,화곡로68길 115,-,-,-,-,서울특별시 강서구 ,서울특별시 강서구  화곡로68길 115,37.5573285674133,126.860337997066
252,서울특별시 양천구 신월동,1025,1025,0,탑건진선미,83.15,201812,27,"37,500",-,4,-,-,2004,화곡로4길 11,-,-,-,-,서울특별시 양천구 ,서울특별시 양천구  화곡로4길 11,37.538385097636,126.827986913208
253,서울특별시 강서구 마곡동,746,746,0,마곡엠밸리11단지,84.89,201812,27,"99,800",-,10,-,-,2016,공항대로 124,-,-,-,-,서울특별시 강서구 ,서울특별시 강서구  공항대로 124,37.5594617880425,126.820728611421
254,서울특별시 양천구 신월동,987-1,987,1,신월시영,50.67,201812,27,"34,500",-,11,-,-,1988,신월로 99,-,-,-,-,서울특별시 양천구 ,서울특별시 양천구  신월로 99,37.5184159016956,126.835157228112
255,서울특별시 은평구 신사동,155-1,155,1,신성,61.32,201812,27,"24,000",-,13,-,-,1988,증산로15길 67-7,-,-,-,-,서울특별시 은평구 ,서울특별시 은평구  증산로15길 67-7,37.5901940359917,126.905696946665
256,서울특별시 강서구 가양동,448-1,448,1,가양강나루현대,59.76,201812,27,"41,000",-,1,-,-,1999,양천로 507,-,-,-,-,서울특별시 강서구 ,서울특별시 강서구  양천로 507,37.5603956962784,126.857362635565
257,서울특별시 강서구 화곡동,56-30,56,30,살렘,56.85,201812,27,"21,000",-,3,-,-,2002,초록마을로 77,-,-,-,-,서울특별시 강서구 ,서울특별시 강서구  초록마을로 77,37.5412100285401,126.850939473211
258,서울특별시 마포구 합정동,468,468,0,두영이지안,62.91,201812,27,"40,000",-,8,-,-,2005,희우정로1길 48,-,-,-,-,서울특별시 마포구 ,서울특별시 마포구  희우정로1길 48,37.5500293755493,126.906475564279
259,서울특별시 성동구 행당동,346,346,0,행당한진타운,84.71,201812,27,"89,000",-,24,-,-,2000,행당로 82,-,-,-,-,서울특별시 성동구 ,서울특별시 성동구  행당로 82,37.5548088817349,127.027399715208
260,서울특별시 동대문구 전농동,103-231,103,231,봄봄하이츠,29.94,201812,27,"30,000",-,5,-,-,2018,전농로37길 33-4,-,-,-,-,서울특별시 동대문구 ,서울특별시 동대문구  전농로37길 33-4,37.5836983179303,127.051610355673
261,서울특별시 광진구 자양동,856,856,0,이튼타워리버5차,159.89,201812,27,"150,000",-,19,-,-,2009,능동로4길 40,-,-,-,-,서울특별시 광진구 ,서울특별시 광진구  능동로4길 40,37.5321114084584,127.069454223606
262,서울특별시 중랑구 신내동,654,654,0,진로아파트,101.86,201812,27,"60,300",-,9,-,-,1995,신내로17길 41,-,-,-,-,서울특별시 중랑구 ,서울특별시 중랑구  신내로17길 41,37.614694452091,127.093773559363
263,서울특별시 동대문구 장안동,346-1,346,1,태솔아파트3차,57.98,201812,27,"35,900",-,8,-,-,2018,장한로26가길 53,-,-,-,-,서울특별시 동대문구 ,서울특별시 동대문구  장한로26가길 53,37.5692710967995,127.070969634209
264,서울특별시 동대문구 장안동,346-1,346,1,태솔아파트3차,59.24,201812,27,"36,400",-,14,-,-,2018,장한로26가길 53,-,-,-,-,서울특별시 동대문구 ,서울특별시 동대문구  장한로26가길 53,37.5692710967995,127.070969634209
265,서울특별시 동대문구 장안동,346-1,346,1,태솔아파트3차,57.98,201812,27,"36,400",-,11,-,-,2018,장한로26가길 53,-,-,-,-,서울특별시 동대문구 ,서울특별시 동대문구  장한로26가길 53,37.5692710967995,127.070969634209
266,서울특별시 동대문구 용두동,138-41,138,41,두산베어스타워,155.66,201812,27,"69,300",-,14,-,-,1998,왕산로 81,-,-,-,-,서울특별시 동대문구 ,서울특별시 동대문구  왕산로 81,37.578533087818,127.03240723146
267,서울특별시 중랑구 면목동,538,538,0,신영,14.43,201812,27,"8,450",-,8,-,-,2013,면목로69길 16,-,-,-,-,서울특별시 중랑구 ,서울특별시 중랑구  면목로69길 16,37.5872526201728,127.086344176161
268,서울특별시 용산구 문배동,24-4,24,4,용산큐브,13.01,201812,27,"19,600",-,16,-,-,2013,백범로90길 12,-,-,-,-,서울특별시 용산구 ,서울특별시 용산구  백범로90길 12,37.5371597784296,126.968380751407
269,서울특별시 광진구 광장동,145-8,145,8,워커힐,162.41,201812,27,"160,000",-,7,-,-,1981,아차산로 637,-,-,-,-,서울특별시 광진구 ,서울특별시 광진구  아차산로 637,37.5513211276494,127.107604825998
270,서울특별시 광진구 자양동,786,786,0,자양현대6,84.97,201812,27,"80,000",-,2,-,-,1999,자양번영로3길 66,-,-,-,-,서울특별시 광진구 ,서울특별시 광진구  자양번영로3길 66,37.5331554424983,127.071195618907
271,서울특별시 성북구 돈암동,524,524,0,일신건영휴먼빌아파트,117.16,201812,27,"69,000",-,3,-,-,2005,아리랑로 89,-,-,-,-,서울특별시 성북구 ,서울특별시 성북구  아리랑로 89,37.6007699096006,127.013617460956
272,서울특별시 동대문구 장안동,346-1,346,1,태솔아파트3차,57.98,201812,27,"35,900",-,7,-,-,2018,장한로26가길 53,-,-,-,-,서울특별시 동대문구 ,서울특별시 동대문구  장한로26가길 53,37.5692710967995,127.070969634209
273,서울특별시 동대문구 휘경동,108-4,108,4,월드아파트,76.86,201812,26,"29,900",-,4,-,-,2000,외대역동로 37,-,-,-,-,서울특별시 동대문구 ,서울특별시 동대문구  외대역동로 37,37.5921548586335,127.066061372685
274,서울특별시 동대문구 휘경동,115,115,0,동양1차,84.94,201812,26,"51,200",-,1,-,-,2000,망우로 135,-,-,-,-,서울특별시 동대문구 ,서울특별시 동대문구  망우로 135,37.5927187157631,127.067308077803
275,서울특별시 용산구 한남동,810,810,0,한남더힐,243.642,201812,26,"720,000",-,1,-,-,2011,독서당로 111,-,-,-,-,서울특별시 용산구 ,서울특별시 용산구  독서당로 111,37.5361228594578,127.007307641122
276,서울특별시 용산구 이촌동,411,411,0,동아그린,43.02,201812,26,"68,000",-,7,-,-,1999,이촌로 100-8,-,-,-,-,서울특별시 용산구 ,서울특별시 용산구  이촌로 100-8,37.5244879118315,126.957968161392
277,서울특별시 광진구 중곡동,62-68,62,68,대영(62-68),84.79,201812,26,"33,000",-,2,-,-,2001,긴고랑로 125,-,-,-,-,서울특별시 광진구 ,서울특별시 광진구  긴고랑로 125,37.558981148059,127.088855345956
278,서울특별시 성동구 용답동,252,252,0,덕현해밀,84.99,201812,26,"54,800",-,2,-,-,2014,용답29길 29,-,-,-,-,서울특별시 성동구 ,서울특별시 성동구  용답29길 29,37.5646180693571,127.053176377797
279,서울특별시 성동구 하왕십리동,966-18,966,18,상리제나우스,12.84,201812,26,"13,800",-,6,-,-,2013,무학봉28길 5,-,-,-,-,서울특별시 성동구 ,서울특별시 성동구  무학봉28길 5,37.5623116250876,127.032853165082
280,서울특별시 성동구 하왕십리동,1070,1070,0,센트라스,59.94,201812,26,"99,000",-,7,-,-,2016,왕십리로 410,-,-,-,-,서울특별시 성동구 ,서울특별시 성동구  왕십리로 410,37.5666029325047,127.024082467223
281,서울특별시 성동구 하왕십리동,1070,1070,0,센트라스,84.99,201812,26,"120,000",-,13,-,-,2016,왕십리로 410,-,-,-,-,서울특별시 성동구 ,서울특별시 성동구  왕십리로 410,37.5666029325047,127.024082467223
282,서울특별시 성북구 정릉동,1033,1033,0,우정에쉐르,84.92,201812,26,"44,900",-,1,-,-,2009,북악산로 742-12,-,-,-,-,서울특별시 성북구 ,서울특별시 성북구  북악산로 742-12,37.6002511386884,127.010817364736
283,서울특별시 종로구 숭인동,766,766,0,종로청계힐스테이트,59.9426,201812,26,"65,000",-,2,-,-,2009,숭인동길 21,-,-,-,-,서울특별시 종로구 ,서울특별시 종로구  숭인동길 21,37.5757847596495,127.020959405051
284,서울특별시 동대문구 장안동,346-1,346,1,태솔아파트3차,50.51,201812,26,"32,900",-,9,-,-,2018,장한로26가길 53,-,-,-,-,서울특별시 동대문구 ,서울특별시 동대문구  장한로26가길 53,37.5692710967995,127.070969634209
285,서울특별시 동대문구 장안동,384-1,384,1,공감대6차(384-1),137.75,201812,26,"48,000",-,6,-,-,2005,답십리로68길 31,-,-,-,-,서울특별시 동대문구 ,서울특별시 동대문구  답십리로68길 31,37.5710513231884,127.069539721644
286,서울특별시 성동구 마장동,817,817,0,삼성,84.93,201812,26,"70,500",-,10,-,-,1996,마장로 271,-,-,-,-,서울특별시 성동구 ,서울특별시 성동구  마장로 271,37.5664842722046,127.040276642646
287,서울특별시 동대문구 휘경동,366,366,0,동일스위트리버,84.973,201812,26,"63,000",-,13,-,-,2007,한천로 300,-,-,-,-,서울특별시 동대문구 ,서울특별시 동대문구  한천로 300,37.5878393149576,127.068539279462
288,서울특별시 성북구 종암동,104-1,104,1,종암에스케이,59.04,201812,26,"44,400",-,21,-,-,1999,종암로24가길 53,-,-,-,-,서울특별시 성북구 ,서울특별시 성북구  종암로24가길 53,37.6008411734995,127.037964181836
289,서울특별시 은평구 불광동,645,645,0,불광롯데캐슬,114.99,201812,26,"68,000",-,13,-,-,2018,불광로 64,-,-,-,-,서울특별시 은평구 ,서울특별시 은평구  불광로 64,37.6131320544168,126.932470564865
290,서울특별시 노원구 공릉동,715,715,0,시영3차(라이프)아파트,49.5,201812,26,"32,000",-,9,-,-,1994,섬밭로 123,-,-,-,-,서울특별시 노원구 ,서울특별시 노원구  섬밭로 123,37.628054057801,127.068573811877
291,서울특별시 노원구 공릉동,737,737,0,삼익포레스트아파트,84.6,201812,26,"42,700",-,8,-,-,1995,공릉로46길 32,-,-,-,-,서울특별시 노원구 ,서울특별시 노원구  공릉로46길 32,37.6263561038742,127.082183727929
292,서울특별시 노원구 공릉동,737,737,0,삼익포레스트아파트,114.88,201812,26,"47,800",-,2,-,-,1995,공릉로46길 32,-,-,-,-,서울특별시 노원구 ,서울특별시 노원구  공릉로46길 32,37.6263561038742,127.082183727929
293,서울특별시 노원구 공릉동,604-11,604,11,대동아파트,84.97,201812,26,"42,000",-,4,-,-,1999,동일로175길 38,-,-,-,-,서울특별시 노원구 ,서울특별시 노원구  동일로175길 38,37.6198871655597,127.072469740169
294,서울특별시 강북구 번동,139,139,0,해모로아파트,84.93,201812,26,"38,750",-,2,-,-,2003,오현로 156,-,-,-,-,서울특별시 강북구 ,서울특별시 강북구  오현로 156,37.6262740785715,127.0369032128
295,서울특별시 도봉구 방학동,705-17,705,17,퍼스티안,13.6794,201812,26,"9,800",-,10,-,-,2013,도봉로150가길 27,-,-,-,-,서울특별시 도봉구 ,서울특별시 도봉구  도봉로150가길 27,37.6673492277368,127.043924400911
296,서울특별시 도봉구 방학동,444-31,444,31,대원그린아파트,46.86,201812,26,"17,500",-,6,-,-,1987,방학로 212-11,-,-,-,-,서울특별시 도봉구 ,서울특별시 도봉구  방학로 212-11,37.6628661536364,127.02784592087
297,서울특별시 도봉구 방학동,731,731,0,한화성원아파트,84.98,201812,26,"36,500",-,9,-,-,1996,방학로11길 10,-,-,-,-,서울특별시 도봉구 ,서울특별시 도봉구  방학로11길 10,37.6608833468765,127.031831676356
298,서울특별시 도봉구 방학동,734,734,0,청구아파트,84.9,201812,26,"34,600",-,1,-,-,1994,시루봉로 71,-,-,-,-,서울특별시 도봉구 ,서울특별시 도봉구  시루봉로 71,37.6571605667278,127.027593335959
299,서울특별시 노원구 상계동,720,720,0,상계주공6(고층),38.0,201812,26,"34,000",-,8,-,-,1988,동일로 1384,-,-,-,-,서울특별시 노원구 ,서울특별시 노원구  동일로 1384,37.6523109499919,127.061459772808
300,서울특별시 노원구 상계동,647,647,0,상계주공12(고층),41.3,201812,26,"27,500",-,11,-,-,1988,한글비석로 530,-,-,-,-,서울특별시 노원구 ,서울특별시 노원구  한글비석로 530,37.6669329820293,127.059164856551
301,서울특별시 노원구 상계동,1265,1265,0,수락산벨리체,114.92,201812,26,"58,500",-,2,-,-,2000,동일로250길 18,-,-,-,-,서울특별시 노원구 ,서울특별시 노원구  동일로250길 18,37.6818424631869,127.056999292729
302,서울특별시 노원구 상계동,1310,1310,0,비콘드림힐3,59.936,201812,26,"41,800",-,1,-,-,2005,상계로1길 82-14,-,-,-,-,서울특별시 노원구 ,서울특별시 노원구  상계로1길 82-14,37.6591458137172,127.061779785722
303,서울특별시 도봉구 쌍문동,54,54,0,현대1,84.66,201812,26,"36,300",-,7,-,-,1990,해등로 242-12,-,-,-,-,서울특별시 도봉구 ,서울특별시 도봉구  해등로 242-12,37.6586683068739,127.030724177917
304,서울특별시 성북구 종암동,80,80,0,래미안크리시엘,114.98,201812,26,"65,000",-,17,-,-,2004,종암로25길 30,-,-,-,-,서울특별시 성북구 ,서울특별시 성북구  종암로25길 30,37.6014922606804,127.031080353416
305,서울특별시 서초구 방배동,998,998,0,방배어울림,122.785,201812,26,"124,000",-,5,-,-,2008,명달로1길 51,-,-,-,-,서울특별시 서초구 ,서울특별시 서초구  명달로1길 51,37.4781929040213,127.003860322761
306,서울특별시 동작구 상도동,527,527,0,이수브라운스톤상도(527-0),84.91,201812,26,"84,000",-,4,-,-,2007,상도로31길 19,-,-,-,-,서울특별시 동작구 ,서울특별시 동작구  상도로31길 19,37.5062358749024,126.944541781061
307,서울특별시 영등포구 여의도동,42,42,0,한양,109.42,201812,26,"129,000",-,8,-,-,1975,국제금융로 79,-,-,-,-,서울특별시 영등포구 ,서울특별시 영등포구  국제금융로 79,37.5221431269115,126.932482860172
308,서울특별시 금천구 시흥동,1013,1013,0,관악산벽산타운5,114.84,201812,26,"44,000",-,10,-,-,2004,금하로 816,-,-,-,-,서울특별시 금천구 ,서울특별시 금천구  금하로 816,37.4497786332027,126.920020808062
309,서울특별시 서초구 우면동,59,59,0,동고,84.96,201812,26,"88,000",-,1,-,-,1995,바우뫼로7길 29,-,-,-,-,서울특별시 서초구 ,서울특별시 서초구  바우뫼로7길 29,37.470705470859,127.023137695099
310,서울특별시 동작구 사당동,1152,1152,0,관악푸르지오102동,114.69,201812,26,"82,300",-,18,-,-,2004,관악로30길 27,-,-,-,-,서울특별시 동작구 ,서울특별시 동작구  관악로30길 27,37.4859370065553,126.961821544248
311,서울특별시 서초구 반포동,20-43,20,43,반포자이,132.439,201812,26,"290,000",-,11,-,-,2009,신반포로 270,-,-,-,-,서울특별시 서초구 ,서울특별시 서초구  신반포로 270,37.5078602234885,127.011582043737
312,서울특별시 구로구 구로동,104-3,104,3,해담채3,13.39,201812,26,"12,000",-,14,-,-,2014,가마산로27길 11-15,-,-,-,-,서울특별시 구로구 ,서울특별시 구로구  가마산로27길 11-15,37.4969605265217,126.891023698083
313,서울특별시 영등포구 여의도동,May-61,61,5,리버타워,234.02,201812,26,"141,000",-,26,-,-,2000,63로 36,-,-,-,-,서울특별시 영등포구 ,서울특별시 영등포구  63로 36,37.5194206669589,126.938610362668
314,서울특별시 서초구 서초동,1330,1330,0,서초동삼성쉐르빌2,35.22,201812,26,"27,500",-,9,-,-,2002,강남대로53길 11,-,-,-,-,서울특별시 서초구 ,서울특별시 서초구  강남대로53길 11,37.4939616380396,127.02791641287
315,서울특별시 서초구 서초동,1446-11,1446,11,현대슈퍼빌,214.92,201812,26,"200,000",-,11,-,-,2003,서초중앙로 15,-,-,-,-,서울특별시 서초구 ,서울특별시 서초구  서초중앙로 15,37.4830108887405,127.015641614311
316,서울특별시 강동구 천호동,44,44,0,금호아파트,27.61,201812,26,"25,800",-,12,-,-,1987,양재대로 1557,-,-,-,-,서울특별시 강동구 ,서울특별시 강동구  양재대로 1557,37.544847168923,127.142351999447
317,서울특별시 강남구 역삼동,635-9,635,9,뉴엠빌라트,146.09,201812,26,"100,000",-,2,-,-,2002,강남대로94길 27-7,-,-,-,-,서울특별시 강남구 ,서울특별시 강남구  강남대로94길 27-7,37.5002886221016,127.02929710975
318,서울특별시 강남구 수서동,795,795,0,강남데시앙포레,84.92,201812,26,"140,000",-,6,-,-,2014,광평로34길 55,-,-,-,-,서울특별시 강남구 ,서울특별시 강남구  광평로34길 55,37.4808560783316,127.092172324649
319,서울특별시 강동구 천호동,22-9,22,9,고려아파트(D동),84.74,201812,26,"37,500",-,3,-,-,2002,상암로41길 89-7,-,-,-,-,서울특별시 강동구 ,서울특별시 강동구  상암로41길 89-7,37.5500632834796,127.140953352678
320,서울특별시 송파구 잠실동,27,27,0,주공아파트 5단지,76.5,201812,26,"171,000",-,3,-,-,1978,송파대로 567,-,-,-,-,서울특별시 송파구 ,서울특별시 송파구  송파대로 567,37.5131381759342,127.09304868009
321,서울특별시 양천구 신월동,1057,1057,0,롯데캐슬(1057-0),70.61,201812,26,"52,000",-,12,-,-,2010,오목로5길 19,-,-,-,-,서울특별시 양천구 ,서울특별시 양천구  오목로5길 19,37.5235031504333,126.839947625174
322,서울특별시 양천구 신월동,222-7,222,7,신월성원,77.31,201812,26,"27,000",-,13,-,-,1996,곰달래로2길 16,-,-,-,-,서울특별시 양천구 ,서울특별시 양천구  곰달래로2길 16,37.5279474128439,126.834316843133
323,서울특별시 마포구 신공덕동,15-80,15,80,공덕프로포즈Ⅱ,14.03,201812,26,"16,500",-,14,-,-,2015,만리재로 35,-,-,-,-,서울특별시 마포구 ,서울특별시 마포구  만리재로 35,37.5450217138148,126.955019856637
324,서울특별시 강서구 방화동,814,814,0,방화5,33.18,201812,26,"30,500",-,13,-,-,1994,금낭화로 287-19,-,-,-,-,서울특별시 강서구 ,서울특별시 강서구  금낭화로 287-19,37.5768038501964,126.810286852537
325,서울특별시 은평구 대조동,09-14,9,14,주주베에이,13.56,201812,26,"13,200",-,10,-,-,2014,통일로67길 9,-,-,-,-,서울특별시 은평구 ,서울특별시 은평구  통일로67길 9,37.6107131470046,126.928456431246
326,서울특별시 양천구 신정동,884-6,884,6,재훈,81.1,201812,26,"34,000",-,5,-,-,2002,목동로23길 33,-,-,-,-,서울특별시 양천구 ,서울특별시 양천구  목동로23길 33,37.5276350902992,126.859522491423
327,서울특별시 강서구 화곡동,1161,1161,0,강서동도센트리움,14.677,201812,26,"9,800",-,8,-,-,2012,공항대로46길 28,-,-,-,-,서울특별시 강서구 ,서울특별시 강서구  공항대로46길 28,37.5547233988145,126.852896809104
328,서울특별시 서대문구 북가좌동,481,481,0,DMC래미안e편한세상,84.95,201812,26,"87,000",-,12,-,-,2012,수색로 100,-,-,-,-,서울특별시 서대문구 ,서울특별시 서대문구  수색로 100,37.5747334832097,126.907916083955
329,서울특별시 양천구 목동,643-7,643,7,동원,62.61,201812,26,"30,000",-,7,-,-,2006,목동중앙남로16마길 27-5,-,-,-,-,서울특별시 양천구 ,서울특별시 양천구  목동중앙남로16마길 27-5,37.5447874871587,126.863961830686
330,서울특별시 마포구 창전동,Oct-42,42,10,중앙하이츠104동,47.01,201812,26,"36,500",-,1,-,-,1970,와우산로30길 135,-,-,-,-,서울특별시 마포구 ,서울특별시 마포구  와우산로30길 135,37.5498209268573,126.927561825703
331,서울특별시 강서구 방화동,817,817,0,동성,84.95,201812,26,"57,000",-,5,-,-,1993,금낭화로23길 8,-,-,-,-,서울특별시 강서구 ,서울특별시 강서구  금낭화로23길 8,37.5794087000437,126.81259277311
332,서울특별시 서대문구 홍은동,456,456,0,두산,84.84,201812,26,"51,000",-,7,-,-,1997,모래내로 309,-,-,-,-,서울특별시 서대문구 ,서울특별시 서대문구  모래내로 309,37.578896435345,126.931492692669
333,서울특별시 강서구 가양동,1495,1495,0,한보구암마을,59.58,201812,25,"40,000",-,1,-,-,1999,허준로 76,-,-,-,-,서울특별시 강서구 ,서울특별시 강서구  허준로 76,37.5684141695291,126.848657302795
334,서울특별시 양천구 목동,901,901,0,목동신시가지1,65.34,201812,25,"109,500",-,9,-,-,1985,목동서로 38,-,-,-,-,서울특별시 양천구 ,서울특별시 양천구  목동서로 38,37.5412913406969,126.87850378726
335,서울특별시 강서구 가양동,1461,1461,0,가양2단지(성지),39.6,201812,25,"39,700",-,10,-,-,1992,허준로 47,-,-,-,-,서울특별시 강서구 ,서울특별시 강서구  허준로 47,37.5710135675057,126.84658518265
336,서울특별시 강서구 화곡동,1087,1087,0,화곡1차보람더하임,45.69,201812,25,"26,000",-,10,-,-,2003,화곡로14길 19,-,-,-,-,서울특별시 강서구 ,서울특별시 강서구  화곡로14길 19,37.5383806116729,126.83494481173
337,서울특별시 서초구 반포동,May-60,60,5,반포미도2차아파트,71.49,201812,25,"125,000",-,3,-,-,1989,사평대로 240,-,-,-,-,서울특별시 서초구 ,서울특별시 서초구  사평대로 240,37.5028890876125,127.007318763743
338,서울특별시 금천구 독산동,1144,1144,0,독산동한양수자인,68.161,201812,25,"50,500",-,14,-,-,2011,시흥대로150길 6,-,-,-,-,서울특별시 금천구 ,서울특별시 금천구  시흥대로150길 6,37.4760196038189,126.899811569821
339,서울특별시 관악구 신림동,255-189,255,189,현대,71.9,201812,25,"33,200",-,8,-,-,1991,대학20길 27,-,-,-,-,서울특별시 관악구 ,서울특별시 관악구  대학20길 27,37.4643963201766,126.937548871364
340,서울특별시 영등포구 당산동4가,98,98,0,브라운스톤당산,84.005,201812,25,"82,500",-,7,-,-,2015,영신로55길 8,-,-,-,-,서울특별시 영등포구 ,서울특별시 영등포구  영신로55길 8,37.5278538150557,126.901630452178
341,서울특별시 영등포구 영등포동1가,144,144,0,헤렌어반,13.331,201812,25,"10,900",-,3,-,-,2011,경인로114가길 14,-,-,-,-,서울특별시 영등포구 ,서울특별시 영등포구  경인로114가길 14,37.5172464470937,126.913546062257
342,서울특별시 동대문구 장안동,586,586,0,U포그니2차,55.06,201812,25,"38,000",-,7,-,-,2018,답십리로68길 32,-,-,-,-,서울특별시 동대문구 ,서울특별시 동대문구  답십리로68길 32,37.5711667271187,127.068639119465
343,서울특별시 광진구 구의동,620-6,620,6,광남캐스빌,63.03,201812,25,"36,500",-,2,-,-,2003,자양로 207-1,-,-,-,-,서울특별시 광진구 ,서울특별시 광진구  자양로 207-1,37.5459816589244,127.085661843216
344,서울특별시 용산구 원효로1가,41,41,0,용산더프라임,57.32,201812,25,"92,000",-,5,-,-,2014,원효로90길 11,-,-,-,-,서울특별시 용산구 ,서울특별시 용산구  원효로90길 11,37.5403958008247,126.969718522289
345,서울특별시 광진구 자양동,762,762,0,한라아파트,59.96,201812,25,"61,500",-,4,-,-,1996,뚝섬로33길 20,-,-,-,-,서울특별시 광진구 ,서울특별시 광진구  뚝섬로33길 20,37.5359272031596,127.069816767733
346,서울특별시 중랑구 면목동,1535,1535,0,현대휴온,35.5,201812,25,"21,700",-,9,-,-,2013,동일로109가길 5,-,-,-,-,서울특별시 중랑구 ,서울특별시 중랑구  동일로109가길 5,37.5922400860881,127.078706865845
347,서울특별시 성동구 금호동4가,800,800,0,대우,114.71,201812,25,"110,000",-,10,-,-,2001,독서당로 272,-,-,-,-,서울특별시 성동구 ,서울특별시 성동구  독서당로 272,37.5453300340479,127.017925368592
348,서울특별시 동대문구 장안동,346-1,346,1,태솔아파트3차,59.52,201812,25,"38,000",-,6,-,-,2018,장한로26가길 53,-,-,-,-,서울특별시 동대문구 ,서울특별시 동대문구  장한로26가길 53,37.5692710967995,127.070969634209
349,서울특별시 동대문구 회기동,351,351,0,회기힐스테이트,84.99,201812,25,"58,000",-,4,-,-,2011,회기로26길 15,-,-,-,-,서울특별시 동대문구 ,서울특별시 동대문구  회기로26길 15,37.5899735503278,127.054227142881
350,서울특별시 노원구 상계동,666,666,0,상계주공10(저층),47.34,201812,25,"36,500",-,4,-,-,1988,노원로 564,-,-,-,-,서울특별시 노원구 ,서울특별시 노원구  노원로 564,37.6616521070339,127.05612466376
351,서울특별시 노원구 월계동,18,18,0,한진한화그랑빌,84.97,201812,25,"58,000",-,3,-,-,2002,마들로 31,-,-,-,-,서울특별시 노원구 ,서울특별시 노원구  마들로 31,37.6187253727752,127.067084588448
352,서울특별시 성북구 하월곡동,226,226,0,월곡래미안루나밸리,84.88,201812,25,"70,900",-,8,-,-,2007,월곡로14길 26,-,-,-,-,서울특별시 성북구 ,서울특별시 성북구  월곡로14길 26,37.6002340166717,127.042651944006
353,서울특별시 은평구 갈현동,463-16,463,16,연서노벨(463-16),84.83,201812,25,"39,500",-,8,-,-,2011,연서로19길 4,-,-,-,-,서울특별시 은평구 ,서울특별시 은평구  연서로19길 4,37.6136789354122,126.917038414172
354,서울특별시 노원구 월계동,880,880,0,유원,84.96,201812,25,"36,400",-,3,-,-,1998,덕릉로60길 252,-,-,-,-,서울특별시 노원구 ,서울특별시 노원구  덕릉로60길 252,37.6291888689403,127.045168007143
355,서울특별시 강동구 암사동,414-2,414,2,롯데캐슬퍼스트,111.22,201812,25,"103,000",-,11,-,-,2008,고덕로 131,-,-,-,-,서울특별시 강동구 ,서울특별시 강동구  고덕로 131,37.5551667468122,127.143838799591
356,서울특별시 송파구 가락동,102,102,0,한신1,84.53,201812,25,"70,000",-,7,-,-,1993,송파대로 220,-,-,-,-,서울특별시 송파구 ,서울특별시 송파구  송파대로 220,37.4898704122647,127.12162681587
357,서울특별시 서초구 서초동,1445-14,1445,14,더샵서초,152.99,201812,25,"130,000",-,5,-,-,2006,서초중앙로2길 21,-,-,-,-,서울특별시 서초구 ,서울특별시 서초구  서초중앙로2길 21,37.4839059857673,127.018515809239
358,서울특별시 강남구 논현동,275,275,0,동부센트레빌,114.498,201812,25,"141,000",-,6,-,-,2003,언주로116길 6,-,-,-,-,서울특별시 강남구 ,서울특별시 강남구  언주로116길 6,37.5104798359114,127.037183296518
359,서울특별시 강남구 청담동,Feb-59,59,2,대우멤버스카운티Ⅱ,140.75,201812,25,"153,000",-,5,-,-,2003,도산대로100길 22-15,-,-,-,-,서울특별시 강남구 ,서울특별시 강남구  도산대로100길 22-15,37.5226111672856,127.051480802913
360,서울특별시 서초구 서초동,1301-6,1301,6,래미안서초스위트,84.9571,201812,24,"165,000",-,14,-,-,2009,서운로 221,-,-,-,-,서울특별시 서초구 ,서울특별시 서초구  서운로 221,37.5020971910471,127.019869045005
361,서울특별시 서초구 신원동,615,615,0,서초포레스타7단지,59.92,201812,24,"112,900",-,3,-,-,2013,청계산로11길 7-12,-,-,-,-,서울특별시 서초구 ,서울특별시 서초구  청계산로11길 7-12,37.4485514741169,127.055973096756
362,서울특별시 서초구 내곡동,411,411,0,서초더샵포레,114.71,201812,24,"120,000",-,8,-,-,2014,헌릉로8길 58,-,-,-,-,서울특별시 서초구 ,서울특별시 서초구  헌릉로8길 58,37.4532443872226,127.06247734346
363,서울특별시 송파구 잠실동,101-1,101,1,우성아파트,96.05,201812,24,"155,000",-,3,-,-,1982,올림픽로4길 42,-,-,-,-,서울특별시 송파구 ,서울특별시 송파구  올림픽로4길 42,37.5083255540399,127.072027874321
364,서울특별시 송파구 잠실동,27,27,0,주공아파트 5단지,82.61,201812,24,"181,000",-,4,-,-,1978,송파대로 567,-,-,-,-,서울특별시 송파구 ,서울특별시 송파구  송파대로 567,37.5131381759342,127.09304868009
365,서울특별시 강동구 천호동,467-11,467,11,현진리버파크,14.9,201812,24,"19,300",-,8,-,-,2017,구천면로 144,-,-,-,-,서울특별시 강동구 ,서울특별시 강동구  구천면로 144,37.5421794961691,127.120842044121
366,서울특별시 강남구 개포동,1164-30,1164,30,뉴현대파크빌,73.55,201812,24,"49,700",-,3,-,-,2001,논현로2길 61-4,-,-,-,-,서울특별시 강남구 ,서울특별시 강남구  논현로2길 61-4,37.4748147158631,127.05480461731
367,서울특별시 서초구 서초동,1666-14,1666,14,서초녹원,114.99,201812,24,"110,000",-,2,-,-,1997,사임당로17길 83,-,-,-,-,서울특별시 서초구 ,서울특별시 서초구  사임당로17길 83,37.4925499004411,127.017292738521
368,서울특별시 강남구 역삼동,706-20,706,20,한화진넥스빌,34.82,201812,24,"29,500",-,11,-,-,2001,언주로86길 11,-,-,-,-,서울특별시 강남구 ,서울특별시 강남구  언주로86길 11,37.5019668595977,127.044267604323
369,서울특별시 광진구 군자동,99,99,0,일성파크,59.96,201812,24,"47,500",-,9,-,-,1996,군자로12길 46,-,-,-,-,서울특별시 광진구 ,서울특별시 광진구  군자로12길 46,37.5517127888261,127.072672678034
370,서울특별시 성동구 행당동,346,346,0,행당한진타운,59.96,201812,24,"65,000",-,1,-,-,2000,행당로 82,-,-,-,-,서울특별시 성동구 ,서울특별시 성동구  행당로 82,37.5548088817349,127.027399715208
371,서울특별시 중구 회현동1가,208,208,0,남산롯데캐슬아이리스,176.42,201812,24,"164,000",-,25,-,-,2011,소공로 35,-,-,-,-,서울특별시 중구 ,서울특별시 중구  소공로 35,37.5582247092319,126.981744459746
372,서울특별시 중구 황학동,2545,2545,0,롯데캐슬,84.97,201812,24,"77,700",-,24,-,-,2008,청계천로 400,-,-,-,-,서울특별시 중구 ,서울특별시 중구  청계천로 400,37.5708105464699,127.021463886656
373,서울특별시 중구 회현동1가,208,208,0,남산롯데캐슬아이리스,113.46,201812,24,"115,500",-,20,-,-,2011,소공로 35,-,-,-,-,서울특별시 중구 ,서울특별시 중구  소공로 35,37.5582247092319,126.981744459746
374,서울특별시 동대문구 회기동,60-230,60,230,동일스카이시티2차,66.87,201812,24,"26,500",-,2,-,-,2005,회기로 108-32,-,-,-,-,서울특별시 동대문구 ,서울특별시 동대문구  회기로 108-32,37.5909710418793,127.048197843267
375,서울특별시 중랑구 면목동,1524,1524,0,온세솔내움,69.6946,201812,24,"30,750",-,1,-,-,2004,용마산로84길 9-15,-,-,-,-,서울특별시 중랑구 ,서울특별시 중랑구  용마산로84길 9-15,37.5861306114025,127.095584103353
376,서울특별시 성북구 보문동3가,230,230,0,이편한세상보문,84.774,201812,24,"75,000",-,7,-,-,2013,낙산길 255,-,-,-,-,서울특별시 성북구 ,서울특별시 성북구  낙산길 255,37.5827783807236,127.015625442683
377,서울특별시 중구 충무로5가,Feb-36,36,2,충무로엘크루메크로시티2차,22.75,201812,24,"22,200",-,9,-,-,2016,퇴계로49길 14,-,-,-,-,서울특별시 중구 ,서울특별시 중구  퇴계로49길 14,37.5633945987251,126.999994227546
378,서울특별시 중랑구 신내동,783,783,0,성원,84.4,201812,24,"45,000",-,13,-,-,1994,신내로 51,-,-,-,-,서울특별시 중랑구 ,서울특별시 중랑구  신내로 51,37.6059761741832,127.09472455776
379,서울특별시 성북구 보문동3가,230,230,0,이편한세상보문,124.181,201812,24,"89,950",-,8,-,-,2013,낙산길 255,-,-,-,-,서울특별시 성북구 ,서울특별시 성북구  낙산길 255,37.5827783807236,127.015625442683
380,서울특별시 강서구 가양동,1485,1485,0,가양6단지,49.5,201812,24,"53,500",-,10,-,-,1992,허준로 175,-,-,-,-,서울특별시 강서구 ,서울특별시 강서구  허준로 175,37.5637580924465,126.85928943925
381,서울특별시 은평구 신사동,23-53,23,53,정은노블스B,83.66,201812,24,"40,000",-,2,-,-,2006,증산로 463-1,-,-,-,-,서울특별시 은평구 ,서울특별시 은평구  증산로 463-1,37.5976831974443,126.914863564016
382,서울특별시 은평구 역촌동,46-29,46,29,엔에스,73.34,201812,24,"27,500",-,8,-,-,2001,연서로9길 17,-,-,-,-,서울특별시 은평구 ,서울특별시 은평구  연서로9길 17,37.6073357470906,126.913093874643
383,서울특별시 마포구 토정동,138,138,0,한강삼성,84.96,201812,24,"110,000",-,14,-,-,1997,토정로32길 11,-,-,-,-,서울특별시 마포구 ,서울특별시 마포구  토정로32길 11,37.5398472210499,126.940986623851
384,서울특별시 강서구 등촌동,632-2,632,2,태영,84.98,201812,24,"57,500",-,7,-,-,1998,양천로 590,-,-,-,-,서울특별시 강서구 ,서울특별시 강서구  양천로 590,37.5557917334096,126.864431871621
385,서울특별시 강서구 화곡동,926-4,926,4,지석,41.4,201812,24,"15,500",-,6,-,-,2002,곰달래로18길 33-13,-,-,-,-,서울특별시 강서구 ,서울특별시 강서구  곰달래로18길 33-13,37.5287920174868,126.842216746437
386,서울특별시 강서구 마곡동,1478,1478,0,마곡삼성아파트,59.95,201812,24,"53,000",-,14,-,-,1998,방화대로34길 113,-,-,-,-,서울특별시 강서구 ,서울특별시 강서구  방화대로34길 113,37.5722125781528,126.821919351692
387,서울특별시 은평구 신사동,140-1,140,1,미성,63.53,201812,24,"34,000",-,7,-,-,1987,증산로15길 35-10,-,-,-,-,서울특별시 은평구 ,서울특별시 은평구  증산로15길 35-10,37.5895152217591,126.907740493268
388,서울특별시 영등포구 신길동,769-1,769,1,한성,134.33,201812,24,"80,000",-,17,-,-,1997,가마산로 575,-,-,-,-,서울특별시 영등포구 ,서울특별시 영등포구  가마산로 575,37.5048413546279,126.919573843923
389,서울특별시 동작구 상도동,534,534,0,상도더샵2차,84.98,201812,24,"89,700",-,9,-,-,2014,장승배기로10길 100,-,-,-,-,서울특별시 동작구 ,서울특별시 동작구  장승배기로10길 100,37.5028684818551,126.943452576133
390,서울특별시 관악구 봉천동,1021,1021,0,일두(1021),38.92,201812,24,"20,800",-,3,-,-,1985,은천로39길 56,-,-,-,-,서울특별시 관악구 ,서울특별시 관악구  은천로39길 56,37.4889701928515,126.954067603784
391,서울특별시 관악구 봉천동,1706,1706,0,봉천우성,84.96,201812,24,"60,000",-,15,-,-,2000,관악로30길 12,-,-,-,-,서울특별시 관악구 ,서울특별시 관악구  관악로30길 12,37.4841357625535,126.960607343765
392,서울특별시 관악구 봉천동,30-8,30,8,관악태우미소가,28.51,201812,24,"29,200",-,10,-,-,2016,행운1마길 2,-,-,-,-,서울특별시 관악구 ,서울특별시 관악구  행운1마길 2,37.4839483810756,126.955845466061
393,서울특별시 동작구 신대방동,720,720,0,보라매e편한세상,59.98,201812,24,"74,000",-,14,-,-,2010,보라매로 70,-,-,-,-,서울특별시 동작구 ,서울특별시 동작구  보라매로 70,37.4957731735095,126.928979767472
394,서울특별시 금천구 시흥동,1010,1010,0,벽산,114.84,201812,24,"37,500",-,18,-,-,2000,금하로 793,-,-,-,-,서울특별시 금천구 ,서울특별시 금천구  금하로 793,37.4522125872144,126.918245309403
395,서울특별시 금천구 시흥동,384-12,384,12,남서울건영2,61.14,201812,24,"29,300",-,8,-,-,1989,독산로10길 96,-,-,-,-,서울특별시 금천구 ,서울특별시 금천구  독산로10길 96,37.4496340433581,126.910501928991
396,서울특별시 영등포구 대림동,777-1,777,1,신동아,53.37,201812,24,"34,000",-,5,-,-,1987,가마산로 312,-,-,-,-,서울특별시 영등포구 ,서울특별시 영등포구  가마산로 312,37.4974745690828,126.894316800064
397,서울특별시 구로구 구로동,Apr-46,46,4,하나세인스톤3차,19.99,201812,24,"14,000",-,19,-,-,2011,공원로6길 16-22,-,-,-,-,서울특별시 구로구 ,서울특별시 구로구  공원로6길 16-22,37.5005615281738,126.891951687001
398,서울특별시 영등포구 대림동,717,717,0,쌍용플래티넘S,18.24,201812,24,"13,500",-,9,-,-,2013,대림로29길 13,-,-,-,-,서울특별시 영등포구 ,서울특별시 영등포구  대림로29길 13,37.4953006652838,126.898058257377
399,서울특별시 구로구 고척동,331,331,0,삼익(2단지),59.82,201812,24,"35,000",-,2,-,-,2001,중앙로15길 125,-,-,-,-,서울특별시 구로구 ,서울특별시 구로구  중앙로15길 125,37.5077871736169,126.852646264663
400,서울특별시 영등포구 당산동,376,376,0,강변래미안,79.05,201812,24,"86,500",-,7,-,-,2002,버드나루로 130,-,-,-,-,서울특별시 영등포구 ,서울특별시 영등포구  버드나루로 130,37.5305725038481,126.908012148944
401,서울특별시 도봉구 쌍문동,713,713,0,에덴,67.404,201812,24,"27,000",-,5,-,-,2001,도봉로137길 31,-,-,-,-,서울특별시 도봉구 ,서울특별시 도봉구  도봉로137길 31,37.6607107413399,127.039772503083
402,서울특별시 강북구 수유동,734,734,0,북한산네이처파크,59.43,201812,24,"32,000",-,1,-,-,2015,4.19로9길 17,-,-,-,-,서울특별시 강북구 ,서울특별시 강북구  4.19로9길 17,37.6462353681514,127.009764119306
403,서울특별시 도봉구 쌍문동,56,56,0,삼익세라믹,42.93,201812,24,"24,000",-,4,-,-,1988,해등로 195,-,-,-,-,서울특별시 도봉구 ,서울특별시 도봉구  해등로 195,37.6578378451702,127.033787334216
404,서울특별시 노원구 공릉동,109,109,0,비선아파트,48.6,201812,24,"31,200",-,10,-,-,1999,화랑로51길 78,-,-,-,-,서울특별시 노원구 ,서울특별시 노원구  화랑로51길 78,37.6258183835065,127.087827761757
405,서울특별시 도봉구 쌍문동,721,721,0,극동아파트,84.53,201812,24,"32,000",-,9,-,-,1996,노해로45길 26,-,-,-,-,서울특별시 도봉구 ,서울특별시 도봉구  노해로45길 26,37.6509017013937,127.026855812506
406,서울특별시 도봉구 도봉동,30-1,30,1,한신,84.94,201812,24,"37,500",-,2,-,-,1995,마들로 859-19,-,-,-,-,서울특별시 도봉구 ,서울특별시 도봉구  마들로 859-19,37.6860418285068,127.046764720981
407,서울특별시 도봉구 창동,825,825,0,북한산아이파크5차,101.9176,201812,24,"77,500",-,15,-,-,2004,도봉로136길 28,-,-,-,-,서울특별시 도봉구 ,서울특별시 도봉구  도봉로136길 28,37.6565711376964,127.042729027408
408,서울특별시 노원구 월계동,781,781,0,청백4,49.77,201812,24,"24,700",-,2,-,-,1998,월계로45가길 94,-,-,-,-,서울특별시 노원구 ,서울특별시 노원구  월계로45가길 94,37.6318155292192,127.052326972987
409,서울특별시 노원구 월계동,929,929,0,현대,59.95,201812,24,"46,000",-,8,-,-,2000,석계로 49,-,-,-,-,서울특별시 노원구 ,서울특별시 노원구  석계로 49,37.6172177389168,127.06250985635
410,서울특별시 노원구 상계동,721,721,0,상계주공5(저층),31.98,201812,24,"40,000",-,4,-,-,1987,동일로216길 47,-,-,-,-,서울특별시 노원구 ,서울특별시 노원구  동일로216길 47,37.6529887282798,127.063558586941
411,서울특별시 노원구 상계동,639,639,0,보람2단지,79.25,201812,24,"49,500",-,11,-,-,1988,한글비석로 480,-,-,-,-,서울특별시 노원구 ,서울특별시 노원구  한글비석로 480,37.6667596586552,127.065752957789
412,서울특별시 노원구 월계동,380-1,380,1,삼능스페이스향,84.91,201812,24,"44,500",-,7,-,-,2006,석계로18길 23,-,-,-,-,서울특별시 노원구 ,서울특별시 노원구  석계로18길 23,37.624033838969,127.060709018085
413,서울특별시 강북구 미아동,813,813,0,래미안트리베라1단지,59.6,201812,24,"49,000",-,1,-,-,2010,삼양로19길 25,-,-,-,-,서울특별시 강북구 ,서울특별시 강북구  삼양로19길 25,37.6156943247238,127.021139026425
414,서울특별시 강북구 미아동,1353,1353,0,에스케이북한산시티,59.98,201812,24,"40,200",-,1,-,-,2004,솔샘로 174,-,-,-,-,서울특별시 강북구 ,서울특별시 강북구  솔샘로 174,37.6176383628418,127.010599691076
415,서울특별시 도봉구 도봉동,655,655,0,래미안도봉,59.25,201812,23,"42,850",-,11,-,-,2005,도봉로170길 40,-,-,-,-,서울특별시 도봉구 ,서울특별시 도봉구  도봉로170길 40,37.6796885984595,127.047175070103
416,서울특별시 양천구 신정동,1283,1283,0,푸른마을3,59.91,201812,23,"42,000",-,12,-,-,2001,신정로11길 63,-,-,-,-,서울특별시 양천구 ,서울특별시 양천구  신정로11길 63,37.5109479135516,126.836695607599
417,서울특별시 은평구 역촌동,17-17,17,17,위산엘리시움,41.79,201812,23,"29,500",-,10,-,-,2018,진흥로9길 2,-,-,-,-,서울특별시 은평구 ,서울특별시 은평구  진흥로9길 2,37.6055569140574,126.921977739461
418,서울특별시 은평구 역촌동,17-17,17,17,위산엘리시움,55.61,201812,23,"39,000",-,11,-,-,2018,진흥로9길 2,-,-,-,-,서울특별시 은평구 ,서울특별시 은평구  진흥로9길 2,37.6055569140574,126.921977739461
419,서울특별시 강남구 역삼동,707-18,707,18,역삼우정에쉐르2,43.17,201812,23,"54,000",-,6,-,-,2004,테헤란로48길 10,-,-,-,-,서울특별시 강남구 ,서울특별시 강남구  테헤란로48길 10,37.502652453062,127.045872920554
420,서울특별시 송파구 잠실동,27,27,0,주공아파트 5단지,81.75,201812,23,"182,800",-,6,-,-,1978,송파대로 567,-,-,-,-,서울특별시 송파구 ,서울특별시 송파구  송파대로 567,37.5131381759342,127.09304868009
421,서울특별시 강동구 성내동,194,194,0,에스케이허브진,33.71,201812,23,"29,500",-,15,-,-,2004,천호대로 1092,-,-,-,-,서울특별시 강동구 ,서울특별시 강동구  천호대로 1092,37.5352477607977,127.132663780085
422,서울특별시 강동구 성내동,590,590,0,성내동삼성아파트,59.88,201812,23,"62,000",-,5,-,-,1999,풍성로 127,-,-,-,-,서울특별시 강동구 ,서울특별시 강동구  풍성로 127,37.5320738331874,127.126228075467
423,서울특별시 중랑구 묵동,381,381,0,신안1,59.96,201812,23,"38,000",-,9,-,-,1999,공릉로2라길 15,-,-,-,-,서울특별시 중랑구 ,서울특별시 중랑구  공릉로2라길 15,37.6128659356467,127.081333245605
424,서울특별시 성동구 옥수동,557,557,0,극동옥정,56.04,201812,23,"44,950",-,2,-,-,1998,한림말길 24,-,-,-,-,서울특별시 성동구 ,서울특별시 성동구  한림말길 24,37.5405229507013,127.013748613882
425,서울특별시 동대문구 답십리동,10,10,0,동아,59.88,201812,23,"52,400",-,11,-,-,2001,한천로11길 10-1,-,-,-,-,서울특별시 동대문구 ,서울특별시 동대문구  한천로11길 10-1,37.569890008745,127.061631957974
426,서울특별시 동대문구 답십리동,998,998,0,두산위브,59.91,201812,23,"60,000",-,3,-,-,2007,황물로15길 25,-,-,-,-,서울특별시 동대문구 ,서울특별시 동대문구  황물로15길 25,37.5665625256918,127.057188313736
427,서울특별시 성북구 돈암동,639,639,0,돈암힐스테이트,59.92,201812,23,"53,000",-,4,-,-,2007,아리랑로 68,-,-,-,-,서울특별시 성북구 ,서울특별시 성북구  아리랑로 68,37.5987879114086,127.015087054825
428,서울특별시 성북구 정릉동,435,435,0,중앙하이츠빌2단지,84.6824,201812,23,"57,000",-,23,-,-,2005,정릉로26길 8,-,-,-,-,서울특별시 성북구 ,서울특별시 성북구  정릉로26길 8,37.6038670811154,127.010847672186
429,서울특별시 중랑구 상봉동,501,501,0,상봉듀오트리스,131.8,201812,23,"84,000",-,9,-,-,2016,상봉로 131,-,-,-,-,서울특별시 중랑구 ,서울특별시 중랑구  상봉로 131,37.5974066200134,127.092177640813
430,서울특별시 중랑구 망우동,226,226,0,경남,59.94,201812,23,"28,900",-,4,-,-,1989,양원역로 37,-,-,-,-,서울특별시 중랑구 ,서울특별시 중랑구  양원역로 37,37.6038146854883,127.107071692641
431,서울특별시 동작구 상도동,532,532,0,씨티아모리움,14.1881,201812,23,"16,400",-,7,-,-,2012,상도로62길 81-1,-,-,-,-,서울특별시 동작구 ,서울특별시 동작구  상도로62길 81-1,37.4973917695303,126.951472218711
432,서울특별시 구로구 개봉동,473,473,0,상우,84.06,201812,23,"43,300",-,7,-,-,1997,남부순환로97길 50,-,-,-,-,서울특별시 구로구 ,서울특별시 구로구  남부순환로97길 50,37.4939270516806,126.860472087125
433,서울특별시 구로구 온수동,155,155,0,온수힐스테이트,84.97,201812,23,"56,100",-,5,-,-,2010,부일로9길 127,-,-,-,-,서울특별시 구로구 ,서울특별시 구로구  부일로9길 127,37.4976017630545,126.820592862021
434,서울특별시 관악구 신림동,1735,1735,0,관악산휴먼시아2단지,59.96,201812,23,"47,500",-,5,-,-,2008,난곡로 55,-,-,-,-,서울특별시 관악구 ,서울특별시 관악구  난곡로 55,37.4597417150822,126.920752798392
435,서울특별시 구로구 오류동,235-2,235,2,대산,72.57,201812,22,"27,000",-,3,-,-,2000,오리로13길 18,-,-,-,-,서울특별시 구로구 ,서울특별시 구로구  오리로13길 18,37.4894972953948,126.832873840357
436,서울특별시 구로구 구로동,Apr-97,97,4,하나세인스톤2차,19.33,201812,22,"14,000",-,15,-,-,2011,가마산로 284,-,-,-,-,서울특별시 구로구 ,서울특별시 구로구  가마산로 284,37.496424920819,126.891952784386
437,서울특별시 영등포구 당산동3가,566,566,0,당산계룡리슈빌2단지,47.25,201812,22,"57,500",-,12,-,-,2014,양산로25길 8,-,-,-,-,서울특별시 영등포구 ,서울특별시 영등포구  양산로25길 8,37.524382751721,126.898700398659
438,서울특별시 구로구 신도림동,312-17,312,17,우성1,73.18,201812,22,"70,000",-,10,-,-,1992,신도림로 110,-,-,-,-,서울특별시 구로구 ,서울특별시 구로구  신도림로 110,37.5116160440762,126.8859130274
439,서울특별시 구로구 구로동,314,314,0,극동,64.0,201812,22,"33,000",-,1,-,-,1984,구로중앙로7길 28,-,-,-,-,서울특별시 구로구 ,서울특별시 구로구  구로중앙로7길 28,37.4912427177954,126.889449615
440,서울특별시 관악구 신림동,1704-1,1704,1,주공1,59.5,201812,22,"30,250",-,3,-,-,1995,광신길 160,-,-,-,-,서울특별시 관악구 ,서울특별시 관악구  광신길 160,37.4660331365776,126.927370774223
441,서울특별시 금천구 시흥동,1013,1013,0,관악산벽산타운5,59.34,201812,22,"32,500",-,16,-,-,2004,금하로 816,-,-,-,-,서울특별시 금천구 ,서울특별시 금천구  금하로 816,37.4497786332027,126.920020808062
442,서울특별시 관악구 봉천동,1707-1,1707,1,은천2단지아파트,49.95,201812,22,"35,000",-,4,-,-,2000,인헌12길 46-1,-,-,-,-,서울특별시 관악구 ,서울특별시 관악구  인헌12길 46-1,37.4706668327352,126.964563654363
443,서울특별시 구로구 오류동,340,340,0,삼천리,134.64,201812,22,"46,700",-,8,-,-,1998,경인로8길 75,-,-,-,-,서울특별시 구로구 ,서울특별시 구로구  경인로8길 75,37.4928694986504,126.839572801145
444,서울특별시 관악구 봉천동,1717,1717,0,관악푸르지오,84.2,201812,22,"73,000",-,24,-,-,2004,관악로30길 27,-,-,-,-,서울특별시 관악구 ,서울특별시 관악구  관악로30길 27,37.4889663493891,126.960643252066
445,서울특별시 서초구 반포동,Jan-70,70,1,한신서래,45.72,201812,22,"90,000",-,3,-,-,1987,사평대로28길 31,-,-,-,-,서울특별시 서초구 ,서울특별시 서초구  사평대로28길 31,37.4989786738327,127.000999698637
446,서울특별시 영등포구 당산동,121-200,121,200,휴브리지빌딩,17.97,201812,22,"14,300",-,10,-,-,2012,버드나루로 116,-,-,-,-,서울특별시 영등포구 ,서울특별시 영등포구  버드나루로 116,37.5285194959594,126.908261412358
447,서울특별시 동작구 상도동,416,416,0,아이파크,84.96,201812,22,"75,000",-,9,-,-,2004,장승배기로 26,-,-,-,-,서울특별시 동작구 ,서울특별시 동작구  장승배기로 26,37.5006642434154,126.943414996004
448,서울특별시 서초구 서초동,1363-25,1363,25,한라비발디스튜디오193,19.99,201812,22,"28,200",-,12,-,-,2013,강남대로39길 15-10,-,-,-,-,서울특별시 서초구 ,서울특별시 서초구  강남대로39길 15-10,37.4857020246194,127.032117662018
449,서울특별시 송파구 송파동,163-14,163,14,현대,59.91,201812,22,"63,200",-,4,-,-,1997,오금로32길 42,-,-,-,-,서울특별시 송파구 ,서울특별시 송파구  오금로32길 42,37.5033642528101,127.117700794714
450,서울특별시 송파구 풍납동,391,391,0,극동,79.945,201812,22,"79,000",-,12,-,-,1987,올림픽로45길 11,-,-,-,-,서울특별시 송파구 ,서울특별시 송파구  올림픽로45길 11,37.5268104959684,127.116088187018
451,서울특별시 강동구 명일동,56,56,0,현대(고덕),131.83,201812,22,"109,500",-,13,-,-,1986,동남로71길 41,-,-,-,-,서울특별시 강동구 ,서울특별시 강동구  동남로71길 41,37.55009505531,127.153412784419
452,서울특별시 강남구 압구정동,426,426,0,신현대9차,109.24,201812,22,"225,000",-,10,-,-,1982,압구정로 151,-,-,-,-,서울특별시 강남구 ,서울특별시 강남구  압구정로 151,37.5267858196588,127.024454982256
453,서울특별시 강남구 개포동,649,649,0,경남1,96.98,201812,22,"165,000",-,12,-,-,1984,언주로 110,-,-,-,-,서울특별시 강남구 ,서울특별시 강남구  언주로 110,37.4854059409863,127.054710026842
454,서울특별시 송파구 석촌동,24-3,24,3,석촌호수효성해링턴타워,15.8307,201812,22,"29,500",-,15,-,-,2015,석촌호수로 210,-,-,-,-,서울특별시 송파구 ,서울특별시 송파구  석촌호수로 210,37.5065726243764,127.100341668262
455,서울특별시 송파구 석촌동,24-3,24,3,석촌호수효성해링턴타워,15.8307,201812,22,"25,000",-,12,-,-,2015,석촌호수로 210,-,-,-,-,서울특별시 송파구 ,서울특별시 송파구  석촌호수로 210,37.5065726243764,127.100341668262
456,서울특별시 강동구 둔촌동,170-1,170,1,둔촌주공4단지,97.72,201812,22,"125,000",-,8,-,-,1980,양재대로 1340,-,-,-,-,서울특별시 강동구 ,서울특별시 강동구  양재대로 1340,37.525777860061,127.135931466677
457,서울특별시 노원구 중계동,364,364,0,동진신안,101.99,201812,22,"83,500",-,11,-,-,1993,중계로 195,-,-,-,-,서울특별시 노원구 ,서울특별시 노원구  중계로 195,37.6495870762085,127.078912843722
458,서울특별시 강북구 수유동,648,648,0,수유벽산2차,84.22,201812,22,"44,500",-,12,-,-,1994,삼각산로 143-1,-,-,-,-,서울특별시 강북구 ,서울특별시 강북구  삼각산로 143-1,37.6426557894829,127.01963902071
459,서울특별시 노원구 하계동,284,284,0,한신1,35.28,201812,22,"28,500",-,5,-,-,1988,공릉로 351,-,-,-,-,서울특별시 노원구 ,서울특별시 노원구  공릉로 351,37.6381251181875,127.06790995973
460,서울특별시 노원구 공릉동,111,111,0,화랑타운아파트,84.74,201812,22,"54,000",-,1,-,-,2000,화랑로51길 17,-,-,-,-,서울특별시 노원구 ,서울특별시 노원구  화랑로51길 17,37.6230767984832,127.089350927229
461,서울특별시 노원구 공릉동,683-14,683,14,한일휴니스빌,15.555,201812,22,"12,300",-,12,-,-,2013,화랑로 421,-,-,-,-,서울특별시 노원구 ,서울특별시 노원구  화랑로 421,37.6174995624988,127.074329424265
462,서울특별시 강북구 미아동,1353,1353,0,에스케이북한산시티,84.76,201812,22,"53,000",-,25,-,-,2004,솔샘로 174,-,-,-,-,서울특별시 강북구 ,서울특별시 강북구  솔샘로 174,37.6176383628418,127.010599691076
463,서울특별시 성북구 상월곡동,101,101,0,동아에코빌,114.66,201812,22,"56,000",-,3,-,-,2003,장월로1길 28,-,-,-,-,서울특별시 성북구 ,서울특별시 성북구  장월로1길 28,37.6087724936926,127.045611958623
464,서울특별시 노원구 상계동,757,757,0,한양,86.62,201812,22,"58,100",-,9,-,-,1988,동일로216길 92,-,-,-,-,서울특별시 노원구 ,서울특별시 노원구  동일로216길 92,37.6505208152252,127.067349672237
465,서울특별시 노원구 상계동,670,670,0,상계주공9(고층),49.94,201812,22,"32,800",-,15,-,-,1988,노원로 532,-,-,-,-,서울특별시 노원구 ,서울특별시 노원구  노원로 532,37.6646207331385,127.059824240304
466,서울특별시 노원구 상계동,670,670,0,상계주공9(고층),45.9,201812,22,"29,900",-,7,-,-,1988,노원로 532,-,-,-,-,서울특별시 노원구 ,서울특별시 노원구  노원로 532,37.6646207331385,127.059824240304
467,서울특별시 성북구 종암동,133,133,0,래미안세레니티,59.97,201812,22,"63,000",-,15,-,-,2009,종암로23길 35,-,-,-,-,서울특별시 성북구 ,서울특별시 성북구  종암로23길 35,37.5981647936001,127.029751253435
468,서울특별시 성북구 종암동,128,128,0,극동,59.67,201812,22,"43,000",-,11,-,-,2000,북악산로29길 67,-,-,-,-,서울특별시 성북구 ,서울특별시 성북구  북악산로29길 67,37.5950324430565,127.033643645805
469,서울특별시 노원구 중계동,512,512,0,중계무지개,39.82,201812,22,"28,000",-,8,-,-,1991,동일로208길 20,-,-,-,-,서울특별시 노원구 ,서울특별시 노원구  동일로208길 20,37.643256567583,127.066994809325
470,서울특별시 노원구 중계동,369,369,0,주공2,44.52,201812,22,"25,000",-,2,-,-,1992,한글비석로14길 8,-,-,-,-,서울특별시 노원구 ,서울특별시 노원구  한글비석로14길 8,37.6574763373212,127.077434215909
471,서울특별시 은평구 수색동,416-1,416,1,진흥엣세벨,106.423,201812,22,"65,500",-,5,-,-,2003,은평터널로 60,-,-,-,-,서울특별시 은평구 ,서울특별시 은평구  은평터널로 60,37.585169461977,126.899674297901
472,서울특별시 은평구 수색동,415-1,415,1,e편한세상 수색 에코포레,59.895,201812,22,"51,500",-,5,-,-,2003,은평터널로 65,-,-,-,-,서울특별시 은평구 ,서울특별시 은평구  은평터널로 65,37.586899476029,126.89916689751
473,서울특별시 도봉구 도봉동,641,641,0,서원,40.02,201812,22,"19,000",-,13,-,-,1996,마들로 684-19,-,-,-,-,서울특별시 도봉구 ,서울특별시 도봉구  마들로 684-19,37.6752145916118,127.048764988623
474,서울특별시 도봉구 도봉동,641,641,0,서원,49.77,201812,22,"21,000",-,1,-,-,1996,마들로 684-19,-,-,-,-,서울특별시 도봉구 ,서울특별시 도봉구  마들로 684-19,37.6752145916118,127.048764988623
475,서울특별시 도봉구 창동,812,812,0,창동현대타운,47.79,201812,22,"22,500",-,3,-,-,1999,도봉로114길 22-8,-,-,-,-,서울특별시 도봉구 ,서울특별시 도봉구  도봉로114길 22-8,37.6471181492246,127.035269588373
476,서울특별시 도봉구 창동,45,45,0,삼성래미안,73.92,201812,22,"58,200",-,6,-,-,1992,노해로66길 21,-,-,-,-,서울특별시 도봉구 ,서울특별시 도봉구  노해로66길 21,37.6503916138943,127.047330927246
477,서울특별시 도봉구 창동,825,825,0,북한산아이파크5차,119.1731,201812,22,"79,500",-,23,-,-,2004,도봉로136길 28,-,-,-,-,서울특별시 도봉구 ,서울특별시 도봉구  도봉로136길 28,37.6565711376964,127.042729027408
478,서울특별시 은평구 불광동,641,641,0,북한산현대힐스테이트3차아파트,59.99,201812,22,"60,000",-,13,-,-,2010,불광로 122-10,-,-,-,-,서울특별시 은평구 ,서울특별시 은평구  불광로 122-10,37.6182703657052,126.93418080291
479,서울특별시 은평구 신사동,369,369,0,굿모닝기룡(369-0),83.53,201812,22,"38,200",-,6,-,-,2005,은평터널로 167,-,-,-,-,서울특별시 은평구 ,서울특별시 은평구  은평터널로 167,37.5936560817341,126.907270001394
480,서울특별시 은평구 진관동,14,14,0,상림마을8단지롯데캐슬(801~809동)BL1-2,134.86,201812,22,"60,000",-,6,-,-,2008,진관4로 37,-,-,-,-,서울특별시 은평구 ,서울특별시 은평구  진관4로 37,37.644469386862,126.925073996113
481,서울특별시 양천구 신월동,350-2,350,2,신안파크,47.6,201812,22,"15,200",-,5,-,-,1988,지양로15길 20,-,-,-,-,서울특별시 양천구 ,서울특별시 양천구  지양로15길 20,37.5239737188018,126.829250021639
482,서울특별시 양천구 목동,933,933,0,삼익,59.87,201812,22,"69,800",-,7,-,-,1997,목동동로12길 45,-,-,-,-,서울특별시 양천구 ,서울특별시 양천구  목동동로12길 45,37.5225865099354,126.876366110642
483,서울특별시 양천구 목동,956,956,0,롯데캐슬위너,84.98,201812,22,"89,500",-,8,-,-,2005,목동중앙북로 38,-,-,-,-,서울특별시 양천구 ,서울특별시 양천구  목동중앙북로 38,37.5479038468127,126.866954843863
484,서울특별시 서대문구 충정로3가,189-8,189,8,미동,55.57,201812,22,"22,950",-,4,-,-,1969,충정로7길 9,-,-,-,-,서울특별시 서대문구 ,서울특별시 서대문구  충정로7길 9,37.5632306480056,126.964075832055
485,서울특별시 서대문구 홍제동,460,460,0,인왕산현대,114.72,201812,22,"72,500",-,1,-,-,2000,통일로34길 46,-,-,-,-,서울특별시 서대문구 ,서울특별시 서대문구  통일로34길 46,37.5858575994513,126.949974583404
486,서울특별시 서대문구 홍제동,454,454,0,유원하나,82.35,201812,22,"40,000",-,5,-,-,1996,세검정로 134,-,-,-,-,서울특별시 서대문구 ,서울특별시 서대문구  세검정로 134,37.5946784879132,126.951911979297
487,서울특별시 마포구 연남동,573,573,0,코오롱,59.76,201812,22,"69,000",-,2,-,-,2003,연남로 30,-,-,-,-,서울특별시 마포구 ,서울특별시 마포구  연남로 30,37.5627107408645,126.921856968358
488,서울특별시 마포구 연남동,573,573,0,코오롱,84.936,201812,22,"82,000",-,11,-,-,2003,연남로 52,-,-,-,-,서울특별시 마포구 ,서울특별시 마포구  연남로 52,37.5648202770892,126.920157065443
489,서울특별시 마포구 상수동,398,398,0,래미안밤섬리베뉴Ⅱ,84.82,201812,22,"118,000",-,22,-,-,2014,독막로20나길 21,-,-,-,-,서울특별시 마포구 ,서울특별시 마포구  독막로20나길 21,37.5468678155672,126.926979191702
490,서울특별시 은평구 신사동,297,297,0,신사씨티,58.09,201812,22,"32,500",-,10,-,-,1993,가좌로 391,-,-,-,-,서울특별시 은평구 ,서울특별시 은평구  가좌로 391,37.6005411721761,126.903655278222
491,서울특별시 서대문구 북가좌동,481,481,0,DMC래미안e편한세상,84.94,201812,22,"81,500",-,6,-,-,2012,수색로 100,-,-,-,-,서울특별시 서대문구 ,서울특별시 서대문구  수색로 100,37.5747334832097,126.907916083955
492,서울특별시 마포구 대흥동,660,660,0,대흥동태영아파트,114.93,201812,22,"106,000",-,14,-,-,1999,독막로 266,-,-,-,-,서울특별시 마포구 ,서울특별시 마포구  독막로 266,37.5438675433938,126.942389642584
493,서울특별시 강서구 염창동,305,305,0,염창1차보람더하임,84.98,201812,22,"74,000",-,4,-,-,2008,양천로 666,-,-,-,-,서울특별시 강서구 ,서울특별시 강서구  양천로 666,37.5515310931851,126.870365032148
494,서울특별시 강서구 염창동,Sep-66,66,9,염창동한강우성,84.7,201812,22,"60,000",-,8,-,-,1990,양천로67길 77,-,-,-,-,서울특별시 강서구 ,서울특별시 강서구  양천로67길 77,37.5555306126451,126.870357991031
495,서울특별시 은평구 응암동,739,739,0,응암동금호,84.93,201812,22,"51,000",-,13,-,-,1998,응암로 318,-,-,-,-,서울특별시 은평구 ,서울특별시 은평구  응암로 318,37.5994661259867,126.921971643797
496,서울특별시 은평구 응암동,739,739,0,응암동금호,59.82,201812,22,"43,000",-,12,-,-,1998,응암로 318,-,-,-,-,서울특별시 은평구 ,서울특별시 은평구  응암로 318,37.5994661259867,126.921971643797
497,서울특별시 성북구 정릉동,1020,1020,0,정릉우성아파트 101~105동,84.96,201812,22,"47,700",-,18,-,-,2000,북악산로 813,-,-,-,-,서울특별시 성북구 ,서울특별시 성북구  북악산로 813,37.6011392451733,127.014945523493
498,서울특별시 동대문구 답십리동,1003,1003,0,래미안위브,59.97,201812,22,"80,500",-,5,-,-,2014,답십리로 130,-,-,-,-,서울특별시 동대문구 ,서울특별시 동대문구  답십리로 130,37.5728549565736,127.052401156065
499,서울특별시 성북구 길음동,1278,1278,0,길음동동부센트레빌(1278-0),59.998,201812,22,"55,500",-,12,-,-,2003,숭인로2길 61,-,-,-,-,서울특별시 성북구 ,서울특별시 성북구  숭인로2길 61,37.6093534067567,127.024973857612
500,서울특별시 중랑구 상봉동,113-1,113,1,포시티,14.855,201812,22,"12,000",-,13,-,-,2014,면목로 487,-,-,-,-,서울특별시 중랑구 ,서울특별시 중랑구  면목로 487,37.5953838194036,127.085453248744
501,서울특별시 중랑구 상봉동,1,1,0,건영1,84.96,201812,22,"50,500",-,8,-,-,1997,봉화산로48길 62,-,-,-,-,서울특별시 중랑구 ,서울특별시 중랑구  봉화산로48길 62,37.6034753401116,127.093654269252
502,서울특별시 성동구 옥수동,220-1,220,1,한남하이츠,149.39,201812,22,"180,000",-,7,-,-,1982,독서당로 156,-,-,-,-,서울특별시 성동구 ,서울특별시 성동구  독서당로 156,37.5395083271239,127.013812696365
503,서울특별시 성북구 보문동3가,230,230,0,이편한세상보문,84.904,201812,22,"75,500",-,15,-,-,2013,낙산길 255,-,-,-,-,서울특별시 성북구 ,서울특별시 성북구  낙산길 255,37.5827783807236,127.015625442683
504,서울특별시 동대문구 답십리동,1003,1003,0,래미안위브,84.99,201812,22,"94,500",-,5,-,-,2014,답십리로 130,-,-,-,-,서울특별시 동대문구 ,서울특별시 동대문구  답십리로 130,37.5728549565736,127.052401156065
505,서울특별시 동대문구 이문동,254-40,254,40,주성아우라,13.263,201812,22,"10,000",-,10,-,-,2013,이문로 199,-,-,-,-,서울특별시 동대문구 ,서울특별시 동대문구  이문로 199,37.6042880959431,127.061825100897
506,서울특별시 성동구 금호동3가,1331,1331,0,두산,59.97,201812,22,"70,000",-,8,-,-,1994,동호로 100,-,-,-,-,서울특별시 성동구 ,서울특별시 성동구  동호로 100,37.5513284722706,127.016416476579
507,서울특별시 성북구 삼선동3가,21-4,21,4,유니아테라스,91.7,201812,22,"38,000",-,4,-,-,2003,삼선교로20길 36-8,-,-,-,-,서울특별시 성북구 ,서울특별시 성북구  삼선교로20길 36-8,37.5877433026298,127.01343302608
508,서울특별시 중랑구 묵동,20,20,0,신내두산아파트,102.7,201812,22,"66,000",-,11,-,-,1995,신내로21길 16,-,-,-,-,서울특별시 중랑구 ,서울특별시 중랑구  신내로21길 16,37.6168016402746,127.086884860446
509,서울특별시 성동구 금호동1가,633,633,0,벽산,59.9,201812,22,"64,400",-,15,-,-,2001,금호로 100,-,-,-,-,서울특별시 성동구 ,서울특별시 성동구  금호로 100,37.5545314695033,127.026186636459
510,서울특별시 광진구 자양동,855,855,0,이튼타워리버3차,137.71,201812,22,"110,500",-,11,-,-,2007,능동로 18,-,-,-,-,서울특별시 광진구 ,서울특별시 광진구  능동로 18,37.532681666917,127.067878953418
511,서울특별시 광진구 광장동,554-7,554,7,현대5,59.67,201812,22,"80,000",-,14,-,-,1989,아차산로70길 61,-,-,-,-,서울특별시 광진구 ,서울특별시 광진구  아차산로70길 61,37.5402253740643,127.099966734736
512,서울특별시 동대문구 용두동,790,790,0,롯데캐슬피렌체,26.08,201812,22,"26,450",-,12,-,-,2009,정릉천동로 58,-,-,-,-,서울특별시 동대문구 ,서울특별시 동대문구  정릉천동로 58,37.5771867895785,127.036238453059
513,서울특별시 성북구 돈암동,609-1,609,1,한진(609-1),132.96,201812,22,"64,500",-,13,-,-,1998,성북로4길 52,-,-,-,-,서울특별시 성북구 ,서울특별시 성북구  성북로4길 52,37.5944725333435,127.012706037821
514,서울특별시 성북구 정릉동,1033,1033,0,우정에쉐르,84.97,201812,22,"46,500",-,3,-,-,2009,북악산로 742-12,-,-,-,-,서울특별시 성북구 ,서울특별시 성북구  북악산로 742-12,37.6002511386884,127.010817364736
515,서울특별시 용산구 후암동,244-143,244,143,혜당,83.13,201812,21,"64,000",-,3,-,-,2011,후암로16나길 25,-,-,-,-,서울특별시 용산구 ,서울특별시 용산구  후암로16나길 25,37.5495173081997,126.978655498276
516,서울특별시 동대문구 휘경동,57,57,0,주공2,39.98,201812,21,"33,600",-,16,-,-,2001,한천로 248,-,-,-,-,서울특별시 동대문구 ,서울특별시 동대문구  한천로 248,37.5832360364758,127.071898008969
517,서울특별시 종로구 숭인동,766,766,0,종로청계힐스테이트,84.9478,201812,21,"78,700",-,9,-,-,2009,숭인동길 21,-,-,-,-,서울특별시 종로구 ,서울특별시 종로구  숭인동길 21,37.5757847596495,127.020959405051
518,서울특별시 성북구 정릉동,406,406,0,정릉푸르지오,59.98,201812,21,"47,500",-,5,-,-,2005,보국문로 19,-,-,-,-,서울특별시 성북구 ,서울특별시 성북구  보국문로 19,37.60675665644,127.009694516589
519,서울특별시 노원구 중계동,363,363,0,대림벽산(363),114.39,201812,21,"88,500",-,3,-,-,1993,한글비석로8길 20,-,-,-,-,서울특별시 노원구 ,서울특별시 노원구  한글비석로8길 20,37.6478390813696,127.078368336517
520,서울특별시 노원구 중계동,359-1,359,1,주공5,76.51,201812,21,"64,500",-,9,-,-,1992,중계로 230,-,-,-,-,서울특별시 노원구 ,서울특별시 노원구  중계로 230,37.6510358515074,127.075054984295
521,서울특별시 도봉구 쌍문동,56,56,0,삼익세라믹,40.11,201812,21,"22,900",-,8,-,-,1988,해등로 195,-,-,-,-,서울특별시 도봉구 ,서울특별시 도봉구  해등로 195,37.6578378451702,127.033787334216
522,서울특별시 노원구 공릉동,707,707,0,시영2단지(라이프)아파트,39.6,201812,21,"25,000",-,14,-,-,1994,동일로198가길 149,-,-,-,-,서울특별시 노원구 ,서울특별시 노원구  동일로198가길 149,37.6303911083845,127.067036390357
523,서울특별시 강북구 미아동,1353,1353,0,에스케이북한산시티,59.98,201812,21,"38,500",-,7,-,-,2004,솔샘로 174,-,-,-,-,서울특별시 강북구 ,서울특별시 강북구  솔샘로 174,37.6176383628418,127.010599691076
524,서울특별시 성북구 종암동,130,130,0,아이파크종암동1차,84.98,201812,21,"65,000",-,6,-,-,2004,종암로21길 127,-,-,-,-,서울특별시 성북구 ,서울특별시 성북구  종암로21길 127,37.6028103185897,127.029324017807
525,서울특별시 노원구 상계동,730-2,730,2,상계주공3(고층),59.2,201812,21,"47,500",-,9,-,-,1987,동일로215길 48,-,-,-,-,서울특별시 노원구 ,서울특별시 노원구  동일로215길 48,37.6508221948981,127.056160593171
526,서울특별시 노원구 상계동,639,639,0,보람아파트,54.59,201812,21,"34,500",-,7,-,-,1988,한글비석로 479,-,-,-,-,서울특별시 노원구 ,서울특별시 노원구  한글비석로 479,37.6644977270046,127.064483155729
527,서울특별시 노원구 상계동,639,639,0,보람아파트,54.59,201812,21,"32,000",-,11,-,-,1988,한글비석로 479,-,-,-,-,서울특별시 노원구 ,서울특별시 노원구  한글비석로 479,37.6644977270046,127.064483155729
528,서울특별시 도봉구 창동,825,825,0,북한산아이파크5차,101.9176,201812,21,"72,500",-,10,-,-,2004,도봉로136길 28,-,-,-,-,서울특별시 도봉구 ,서울특별시 도봉구  도봉로136길 28,37.6565711376964,127.042729027408
529,서울특별시 서초구 잠원동,49-17,49,17,신반포18(49-17),111.75,201812,21,"190,000",-,11,-,-,1983,잠원로 195,-,-,-,-,서울특별시 서초구 ,서울특별시 서초구  잠원로 195,37.5144972461851,127.007739201468
530,서울특별시 관악구 신림동,1644,1644,0,강남,46.72,201812,21,"40,000",-,6,-,-,1974,조원로 25,-,-,-,-,서울특별시 관악구 ,서울특별시 관악구  조원로 25,37.483708310871,126.905433298638
531,서울특별시 관악구 신림동,1644,1644,0,강남,42.36,201812,21,"37,800",-,2,-,-,1974,조원로 25,-,-,-,-,서울특별시 관악구 ,서울특별시 관악구  조원로 25,37.483708310871,126.905433298638
532,서울특별시 관악구 신림동,1433-55,1433,55,프라비다트라움,14.05,201812,21,"12,500",-,6,-,-,2013,신림로65길 27,-,-,-,-,서울특별시 관악구 ,서울특별시 관악구  신림로65길 27,37.4848187225214,126.928081647142
533,서울특별시 구로구 구로동,1280,1280,0,한신휴플러스(1280-0),58.03,201812,21,"50,000",-,8,-,-,2007,디지털로31길 120,-,-,-,-,서울특별시 구로구 ,서울특별시 구로구  디지털로31길 120,37.4884700177382,126.890773027393
534,서울특별시 영등포구 문래동4가,67,67,0,리버뷰신안인스빌1단지,84.995,201812,21,"61,500",-,16,-,-,2008,도림로145길 28,-,-,-,-,서울특별시 영등포구 ,서울특별시 영등포구  도림로145길 28,37.5142575914793,126.888634983367
535,서울특별시 금천구 독산동,711-2,711,2,금천현대,59.82,201812,21,"37,000",-,2,-,-,2002,벚꽃로 73,-,-,-,-,서울특별시 금천구 ,서울특별시 금천구  벚꽃로 73,37.4629100391456,126.890423305457
536,서울특별시 구로구 신도림동,645,645,0,동아3,60.0,201812,21,"71,800",-,16,-,-,2000,신도림로 78,-,-,-,-,서울특별시 구로구 ,서울특별시 구로구  신도림로 78,37.5093892062559,126.884700212286
537,서울특별시 동작구 상도동,420,420,0,대우유로카운티,133.67,201812,21,"80,000",-,17,-,-,2003,양녕로 287,-,-,-,-,서울특별시 동작구 ,서울특별시 동작구  양녕로 287,37.5054024269074,126.949314218171
538,서울특별시 강동구 성내동,463-1,463,1,탑건위너빌,63.0,201812,21,"33,500",-,5,-,-,2001,성내로6가길 42,-,-,-,-,서울특별시 강동구 ,서울특별시 강동구  성내로6가길 42,37.5271959663711,127.12430014267
539,서울특별시 송파구 가락동,Jan-96,96,1,우성,43.79,201812,21,"73,300",-,10,-,-,1986,송파대로32길 8,-,-,-,-,서울특별시 송파구 ,서울특별시 송파구  송파대로32길 8,37.4968570896254,127.117711388833
540,서울특별시 강동구 길동,472,472,0,희훈리치파크1,83.94,201812,21,"50,000",-,5,-,-,2002,천중로44길 40,-,-,-,-,서울특별시 강동구 ,서울특별시 강동구  천중로44길 40,37.5395861241176,127.139806095085
541,서울특별시 강남구 역삼동,706-20,706,20,한화진넥스빌,43.58,201812,21,"33,000",-,15,-,-,2001,언주로86길 11,-,-,-,-,서울특별시 강남구 ,서울특별시 강남구  언주로86길 11,37.5019668595977,127.044267604323
542,서울특별시 송파구 잠실동,19,19,0,잠실엘스,59.96,201812,21,"125,000",-,4,-,-,2008,올림픽로 99,-,-,-,-,서울특별시 송파구 ,서울특별시 송파구  올림픽로 99,37.5151252476966,127.078130036923
543,서울특별시 은평구 신사동,19-162,19,162,명남더블레스(19-162),54.41,201812,21,"45,300",-,14,-,-,2018,가좌로 330,-,-,-,-,서울특별시 은평구 ,서울특별시 은평구  가좌로 330,37.5968399722455,126.908847730617
544,서울특별시 강서구 내발산동,742,742,0,마곡수명산파크1단지,84.68,201812,21,"80,000",-,14,-,-,2007,강서로47길 108,-,-,-,-,서울특별시 강서구 ,서울특별시 강서구  강서로47길 108,37.553565372328,126.830534237555
545,서울특별시 서대문구 남가좌동,385,385,0,DMC파크뷰자이1단지,84.98,201812,21,"88,000",-,7,-,-,2015,가재울미래로 2,-,-,-,-,서울특별시 서대문구 ,서울특별시 서대문구  가재울미래로 2,37.5744019902031,126.917907814167
546,서울특별시 양천구 신정동,338,338,0,목동우성3,59.69,201812,21,"50,000",-,9,-,-,1999,목동남로4길 20,-,-,-,-,서울특별시 양천구 ,서울특별시 양천구  목동남로4길 20,37.5083233648907,126.865408328835
547,서울특별시 강서구 염창동,291,291,0,현대3,59.92,201812,21,"47,000",-,10,-,-,1996,양천로75길 60,-,-,-,-,서울특별시 강서구 ,서울특별시 강서구  양천로75길 60,37.5521267096663,126.87595383382
548,서울특별시 강서구 염창동,249-11,249,11,현대2,82.74,201812,21,"54,000",-,1,-,-,1993,양천로73길 6,-,-,-,-,서울특별시 강서구 ,서울특별시 강서구  양천로73길 6,37.5511042601915,126.873073850985
549,서울특별시 양천구 신정동,888-8,888,8,이연에버리치,82.23,201812,21,"45,500",-,5,-,-,2007,신정중앙로21길 10,-,-,-,-,서울특별시 양천구 ,서울특별시 양천구  신정중앙로21길 10,37.5271516686571,126.862324170008
550,서울특별시 양천구 신정동,891-1,891,1,밀레스트,75.5647,201812,21,"41,000",-,3,-,-,2002,신정중앙로17길 14,-,-,-,-,서울특별시 양천구 ,서울특별시 양천구  신정중앙로17길 14,37.528049394102,126.860301871828
551,서울특별시 은평구 역촌동,50-24,50,24,디딤빌아파트,126.0,201812,20,"37,000",-,4,-,-,2000,갈현로 100,-,-,-,-,서울특별시 은평구 ,서울특별시 은평구  갈현로 100,37.606739535111,126.910882663187
552,서울특별시 강서구 염창동,289,289,0,신동아,59.82,201812,20,"43,800",-,14,-,-,1995,양천로67길 32,-,-,-,-,서울특별시 강서구 ,서울특별시 강서구  양천로67길 32,37.5551185593145,126.868864597735
553,서울특별시 양천구 신정동,201-1,201,1,세양청마루2차주상복합,84.42,201812,20,"40,000",-,9,-,-,2008,목동남로4길 2,-,-,-,-,서울특별시 양천구 ,서울특별시 양천구  목동남로4길 2,37.508287498257,126.864535471682
554,서울특별시 서대문구 북아현동,1013,1013,0,e편한세상신촌2단지,59.85,201812,20,"100,000",-,4,-,-,2016,북아현로1길 17,-,-,-,-,서울특별시 서대문구 ,서울특별시 서대문구  북아현로1길 17,37.5586677131962,126.953450474616
555,서울특별시 양천구 목동,935,935,0,진도1,84.96,201812,20,"84,800",-,19,-,-,1998,목동서로 264,-,-,-,-,서울특별시 양천구 ,서울특별시 양천구  목동서로 264,37.5243141796552,126.868280050481
556,서울특별시 서대문구 연희동,745,745,0,연희자이엘라,13.642,201812,20,"16,800",-,11,-,-,2014,연희로5길 14,-,-,-,-,서울특별시 서대문구 ,서울특별시 서대문구  연희로5길 14,37.5640636580947,126.928064959316
557,서울특별시 마포구 신공덕동,05-05,5,5,뉴마인,59.24,201812,20,"40,000",-,1,-,-,2008,마포대로14길 32,-,-,-,-,서울특별시 마포구 ,서울특별시 마포구  마포대로14길 32,37.5476798074694,126.95735798884
558,서울특별시 양천구 신월동,492-25,492,25,동양브로미(101동)B,83.52,201812,20,"23,000",-,6,-,-,2004,오목로13길 12,-,-,-,-,서울특별시 양천구 ,서울특별시 양천구  오목로13길 12,37.5238351234352,126.845667218931
559,서울특별시 강서구 가양동,1461,1461,0,가양2단지(성지),49.56,201812,20,"45,000",-,11,-,-,1992,허준로 47,-,-,-,-,서울특별시 강서구 ,서울특별시 강서구  허준로 47,37.5710135675057,126.84658518265
560,서울특별시 구로구 고척동,227-1,227,1,한성,64.26,201812,20,"22,300",-,5,-,-,1989,중앙로15길 132-60,-,-,-,-,서울특별시 구로구 ,서울특별시 구로구  중앙로15길 132-60,37.508200103954,126.85337043612
561,서울특별시 서초구 잠원동,157,157,0,동아,84.91,201812,20,"160,000",-,9,-,-,2002,신반포로33길 15,-,-,-,-,서울특별시 서초구 ,서울특별시 서초구  신반포로33길 15,37.5090443276541,127.009524539003
562,서울특별시 구로구 구로동,1256,1256,0,구로현대,72.33,201812,20,"41,700",-,1,-,-,1992,디지털로 319,-,-,-,-,서울특별시 구로구 ,서울특별시 구로구  디지털로 319,37.4900377520776,126.895432921379
563,서울특별시 금천구 시흥동,1002-1,1002,1,럭키남서울아파트,41.26,201812,20,"28,900",-,4,-,-,1981,시흥대로47길 43,-,-,-,-,서울특별시 금천구 ,서울특별시 금천구  시흥대로47길 43,37.4506553147109,126.898955300111
564,서울특별시 금천구 시흥동,1010,1010,0,벽산,114.84,201812,20,"38,000",-,2,-,-,2000,금하로 793,-,-,-,-,서울특별시 금천구 ,서울특별시 금천구  금하로 793,37.4522125872144,126.918245309403
565,서울특별시 서초구 잠원동,32-22,32,22,보미리아파트,84.94,201812,20,"93,000",-,1,-,-,2001,신반포로41길 55,-,-,-,-,서울특별시 서초구 ,서울특별시 서초구  신반포로41길 55,37.512292466746,127.016024033799
566,서울특별시 구로구 개봉동,480,480,0,현대홈타운,59.49,201812,20,"45,200",-,23,-,-,2001,개봉로20길 158,-,-,-,-,서울특별시 구로구 ,서울특별시 구로구  개봉로20길 158,37.4920422788882,126.86073736772
567,서울특별시 관악구 봉천동,1707-1,1707,1,은천2단지아파트,49.95,201812,20,"35,000",-,4,-,-,2000,인헌12길 46-1,-,-,-,-,서울특별시 관악구 ,서울특별시 관악구  인헌12길 46-1,37.4706668327352,126.964563654363
568,서울특별시 관악구 신림동,1734,1734,0,신림동부센트레빌,59.99,201812,20,"51,800",-,12,-,-,2006,미성3길 16,-,-,-,-,서울특별시 관악구 ,서울특별시 관악구  미성3길 16,37.4729529742383,126.916061909122
569,서울특별시 동작구 사당동,169-32,169,32,현대,59.96,201812,20,"58,000",-,13,-,-,1991,사당로17길 111,-,-,-,-,서울특별시 동작구 ,서울특별시 동작구  사당로17길 111,37.4877461448563,126.970665952811
570,서울특별시 구로구 고척동,322,322,0,성원,84.56,201812,20,"38,000",-,6,-,-,1996,경인로47가길 10,-,-,-,-,서울특별시 구로구 ,서울특별시 구로구  경인로47가길 10,37.5019622160634,126.865676015663
571,서울특별시 중랑구 면목동,1513,1513,0,면목삼호101,59.67,201812,20,"38,000",-,5,-,-,2000,용마산로 259,-,-,-,-,서울특별시 중랑구 ,서울특별시 중랑구  용마산로 259,37.5764102807284,127.088247311103
572,서울특별시 성북구 정릉동,435,435,0,중앙하이츠빌2단지,84.95,201812,20,"49,000",-,14,-,-,2005,정릉로26길 8,-,-,-,-,서울특별시 성북구 ,서울특별시 성북구  정릉로26길 8,37.6038670811154,127.010847672186
573,서울특별시 종로구 창신동,601-5,601,5,MID그린(4동),59.55,201812,20,"26,800",-,7,-,-,2002,창신길 140-14,-,-,-,-,서울특별시 종로구 ,서울특별시 종로구  창신길 140-14,37.5777618058647,127.010014641767
574,서울특별시 종로구 평창동,179-5,179,5,밀레니엄,110.61,201812,20,"41,500",-,2,-,-,2004,평창12길 14-4,-,-,-,-,서울특별시 종로구 ,서울특별시 종로구  평창12길 14-4,37.6068580074862,126.967543790263
575,서울특별시 광진구 구의동,631-1,631,1,현대프라임,59.82,201812,20,"76,000",-,20,-,-,1997,광나루로56길 29,-,-,-,-,서울특별시 광진구 ,서울특별시 광진구  광나루로56길 29,37.5369576884242,127.096536670188
576,서울특별시 광진구 자양동,854,854,0,광진트라팰리스,169.53,201812,20,"152,000",-,13,-,-,2006,뚝섬로34길 67,-,-,-,-,서울특별시 광진구 ,서울특별시 광진구  뚝섬로34길 67,37.5316853724558,127.068291454652
577,서울특별시 성북구 돈암동,633,633,0,동부센트레빌,80.54,201812,20,"72,000",-,9,-,-,2003,정릉로 388,-,-,-,-,서울특별시 성북구 ,서울특별시 성북구  정릉로 388,37.6024693446287,127.025621806395
578,서울특별시 중구 만리동2가,288,288,0,서울역한라비발디센트럴,84.9774,201812,20,"88,000",-,9,-,-,2018, ,-,-,-,-,서울특별시 중구 ,서울특별시 중구   ,37.5638077703601,126.997555182293
579,서울특별시 용산구 한강로2가,02-11,2,11,한강로대우아이빌,34.02,201812,20,"40,000",-,11,-,-,2004,한강대로43길 13,-,-,-,-,서울특별시 용산구 ,서울특별시 용산구  한강대로43길 13,37.5315632340948,126.96914656435
580,서울특별시 성북구 정릉동,406,406,0,정릉푸르지오,59.98,201812,20,"42,800",-,2,-,-,2005,보국문로 19,-,-,-,-,서울특별시 성북구 ,서울특별시 성북구  보국문로 19,37.60675665644,127.009694516589
581,서울특별시 광진구 자양동,227-7,227,7,더샵스타시티,96.98,201812,20,"119,700",-,39,-,-,2007,아차산로 262,-,-,-,-,서울특별시 광진구 ,서울특별시 광진구  아차산로 262,37.5370016363785,127.072962760454
582,서울특별시 중랑구 면목동,126-1,126,1,킴스아파트,35.75,201812,20,"29,900",-,12,-,-,2018,면목로 429,-,-,-,-,서울특별시 중랑구 ,서울특별시 중랑구  면목로 429,37.5901934659094,127.086826066156
583,서울특별시 노원구 월계동,13,13,0,미륭,51.48,201812,20,"46,500",-,3,-,-,1986,마들로 111,-,-,-,-,서울특별시 노원구 ,서울특별시 노원구  마들로 111,37.6238343591525,127.064778103315
584,서울특별시 도봉구 창동,27,27,0,주공19단지(창동리버타운),61.52,201812,20,"56,000",-,13,-,-,1988,노해로70길 19,-,-,-,-,서울특별시 도봉구 ,서울특별시 도봉구  노해로70길 19,37.6507902188328,127.052825624066
585,서울특별시 도봉구 창동,819,819,0,태영데시앙,84.995,201812,20,"59,000",-,12,-,-,2003,도봉로110다길 51,-,-,-,-,서울특별시 도봉구 ,서울특별시 도봉구  도봉로110다길 51,37.6432046774836,127.032943371392
586,서울특별시 도봉구 창동,661-89,661,89,황지,62.04,201812,20,"24,300",-,4,-,-,2003,도봉로110나길 97,-,-,-,-,서울특별시 도봉구 ,서울특별시 도봉구  도봉로110나길 97,37.6501858994792,127.036480697686
587,서울특별시 노원구 상계동,765,765,0,상계주공1(고층),32.39,201812,20,"27,000",-,5,-,-,1988,동일로213길 21,-,-,-,-,서울특별시 노원구 ,서울특별시 노원구  동일로213길 21,37.6477074025675,127.060010329586
588,서울특별시 은평구 불광동,248,248,0,라이프미성,66.7,201812,20,"54,000",-,5,-,-,1988,통일로 780,-,-,-,-,서울특별시 은평구 ,서울특별시 은평구  통일로 780,37.6158621924384,126.928432696242
589,서울특별시 노원구 상계동,691,691,0,상계주공7(고층),41.3,201812,20,"42,500",-,10,-,-,1988,동일로 1456,-,-,-,-,서울특별시 노원구 ,서울특별시 노원구  동일로 1456,37.660676910032,127.061495568943
590,서울특별시 노원구 상계동,626,626,0,상계주공14(고층),45.55,201812,20,"29,000",-,4,-,-,1989,수락산로 174,-,-,-,-,서울특별시 노원구 ,서울특별시 노원구  수락산로 174,37.670441834509,127.059730640364
591,서울특별시 도봉구 방학동,712-17,712,17,태솔에버빌아파트,65.21,201812,20,"22,800",-,2,-,-,2008,방학로 57,-,-,-,-,서울특별시 도봉구 ,서울특별시 도봉구  방학로 57,37.662550322656,127.045847374215
592,서울특별시 은평구 수색동,345-4,345,4,제일아파트가동(345-4),79.84,201812,20,"46,000",-,3,-,-,2007,수색로20길 26-13,-,-,-,-,서울특별시 은평구 ,서울특별시 은평구  수색로20길 26-13,37.5855591425851,126.891624138827
593,서울특별시 은평구 수색동,415-1,415,1,e편한세상 수색 에코포레,84.951,201812,20,"56,000",-,15,-,-,2003,은평터널로 65,-,-,-,-,서울특별시 은평구 ,서울특별시 은평구  은평터널로 65,37.586899476029,126.89916689751
594,서울특별시 은평구 수색동,415-1,415,1,e편한세상 수색 에코포레,114.18,201812,20,"71,500",-,11,-,-,2003,은평터널로 65,-,-,-,-,서울특별시 은평구 ,서울특별시 은평구  은평터널로 65,37.586899476029,126.89916689751
595,서울특별시 도봉구 도봉동,595,595,0,럭키,84.86,201812,20,"40,400",-,10,-,-,1992,도봉로169길 31,-,-,-,-,서울특별시 도봉구 ,서울특별시 도봉구  도봉로169길 31,37.6799522817105,127.04423836203
596,서울특별시 은평구 갈현동,545,545,0,코오롱하늘채,84.9462,201812,20,"40,000",-,12,-,-,2003,갈현로29길 62,-,-,-,-,서울특별시 은평구 ,서울특별시 은평구  갈현로29길 62,37.6233603600771,126.910915159001
597,서울특별시 강북구 수유동,50-75,50,75,대림(수유),78.35,201812,20,"30,700",-,7,-,-,1994,도봉로71가길 11,-,-,-,-,서울특별시 강북구 ,서울특별시 강북구  도봉로71가길 11,37.6317808081818,127.022185501235
598,서울특별시 은평구 구산동,159-10,159,10,브라운스톤구산,84.89,201812,20,"46,000",-,12,-,-,2006,갈현로17길 17,-,-,-,-,서울특별시 은평구 ,서울특별시 은평구  갈현로17길 17,37.6119050040364,126.908887561499
599,서울특별시 성북구 종암동,127,127,0,선경(127),59.17,201812,20,"28,000",-,7,-,-,1998,종암로24가길 50,-,-,-,-,서울특별시 성북구 ,서울특별시 성북구  종암로24가길 50,37.599889302936,127.037031161528
600,서울특별시 성북구 종암동,80,80,0,래미안크리시엘,59.99,201812,20,"50,000",-,2,-,-,2004,종암로25길 30,-,-,-,-,서울특별시 성북구 ,서울특별시 성북구  종암로25길 30,37.6014922606804,127.031080353416
601,서울특별시 강동구 천호동,302-3,302,3,태천와이드빌,84.75,201812,20,"39,800",-,1,-,-,2000,천중로17길 42-10,-,-,-,-,서울특별시 강동구 ,서울특별시 강동구  천중로17길 42-10,37.546370492489,127.131467928858
602,서울특별시 강남구 개포동,1164-14,1164,14,새롬(1164-14),40.35,201812,20,"25,500",-,2,-,-,2000,논현로2길 38,-,-,-,-,서울특별시 강남구 ,서울특별시 강남구  논현로2길 38,37.4733733628436,127.053244160377
603,서울특별시 송파구 문정동,1,1,0,문정래미안,170.7,201812,20,"124,000",-,12,-,-,2004,문정로 83,-,-,-,-,서울특별시 송파구 ,서울특별시 송파구  문정로 83,37.4892043157404,127.130231968818
604,서울특별시 강남구 삼성동,11,11,0,롯데캐슬프레미어,121.931,201812,20,"200,000",-,14,-,-,2007,선릉로126길 22,-,-,-,-,서울특별시 강남구 ,서울특별시 강남구  선릉로126길 22,37.51625004573,127.045193621733
605,서울특별시 강동구 암사동,442-1,442,1,한강현대,115.0,201812,20,"75,000",-,15,-,-,1999,올림픽로104길 41,-,-,-,-,서울특별시 강동구 ,서울특별시 강동구  올림픽로104길 41,37.5560117079515,127.131306275868
606,서울특별시 송파구 잠실동,22,22,0,리센츠,84.99,201812,20,"165,000",-,13,-,-,2008,올림픽로 135,-,-,-,-,서울특별시 송파구 ,서울특별시 송파구  올림픽로 135,37.516733284228,127.089889095677
607,서울특별시 강남구 도곡동,467-10,467,10,우성리빙텔,120.21,201812,20,"95,500",-,12,-,-,1996,언주로30길 27,-,-,-,-,서울특별시 강남구 ,서울특별시 강남구  언주로30길 27,37.4884226678469,127.052589523324
608,서울특별시 강남구 논현동,196-4,196,4,논현프라임아파트,122.44,201812,20,"90,000",-,2,-,-,2006,봉은사로11길 11,-,-,-,-,서울특별시 강남구 ,서울특별시 강남구  봉은사로11길 11,37.5065882204399,127.028404953937
609,서울특별시 강동구 성내동,590,590,0,성내동삼성아파트,84.99,201812,20,"85,000",-,7,-,-,1999,풍성로 128,-,-,-,-,서울특별시 강동구 ,서울특별시 강동구  풍성로 128,37.5299439507419,127.125981133302
610,서울특별시 강남구 대치동,1016-2,1016,2,삼성3차,144.09,201812,20,"170,000",-,2,-,-,2000,도곡로78길 13,-,-,-,-,서울특별시 강남구 ,서울특별시 강남구  도곡로78길 13,37.4975460793057,127.060155261056
611,서울특별시 강동구 길동,358-3,358,3,다성팰리스,74.44,201812,20,"43,500",-,3,-,-,2004,천중로48길 19-14,-,-,-,-,서울특별시 강동구 ,서울특별시 강동구  천중로48길 19-14,37.5396800847761,127.142231854944
612,서울특별시 송파구 잠실동,22,22,0,리센츠,84.99,201812,20,"169,000",-,11,-,-,2008,올림픽로 135,-,-,-,-,서울특별시 송파구 ,서울특별시 송파구  올림픽로 135,37.516733284228,127.089889095677
613,서울특별시 강남구 일원동,719,719,0,푸른마을아파트101동~111동,59.76,201812,19,"103,000",-,14,-,-,1994,일원로14길 25,-,-,-,-,서울특별시 강남구 ,서울특별시 강남구  일원로14길 25,37.484761123247,127.080874756987
614,서울특별시 강남구 압구정동,369-1,369,1,"현대1차(12,13,21,22,31,32,33동)",196.21,201812,19,"450,000",-,13,-,-,1976,압구정로29길 71,-,-,-,-,서울특별시 강남구 ,서울특별시 강남구  압구정로29길 71,37.5336032834133,127.028325815765
615,서울특별시 강남구 대치동,1014-3,1014,3,대치삼성,97.35,201812,19,"180,000",-,5,-,-,2000,도곡로78길 22,-,-,-,-,서울특별시 강남구 ,서울특별시 강남구  도곡로78길 22,37.4966357303128,127.0588476129
616,서울특별시 송파구 신천동,7,7,0,장미1,182.01,201812,19,"184,000",-,4,-,-,1979,올림픽로35길 104,-,-,-,-,서울특별시 송파구 ,서울특별시 송파구  올림픽로35길 104,37.5198173607856,127.099297662181
617,서울특별시 강남구 청담동,130-7,130,7,마크힐스이스트윙,192.86,201812,19,"450,000",-,5,-,-,2010,영동대로142길 19,-,-,-,-,서울특별시 강남구 ,서울특별시 강남구  영동대로142길 19,37.5245388138369,127.055179106033
618,서울특별시 서초구 서초동,1338,1338,0,현대이에스에이아파트,163.95,201812,19,"120,000",-,16,-,-,2002,효령로77길 20,-,-,-,-,서울특별시 서초구 ,서울특별시 서초구  효령로77길 20,37.4908753967204,127.029487018686
619,서울특별시 강남구 대치동,316,316,0,은마,84.43,201812,19,"170,000",-,2,-,-,1979,삼성로 212,-,-,-,-,서울특별시 강남구 ,서울특별시 강남구  삼성로 212,37.4996157705058,127.065915414443
620,서울특별시 중랑구 망우동,577,577,0,예성그린캐슬,58.9,201812,19,"29,800",-,17,-,-,2004,용마산로112가길 34,-,-,-,-,서울특별시 중랑구 ,서울특별시 중랑구  용마산로112가길 34,37.5971454492592,127.101898667181
621,서울특별시 광진구 구의동,236-25,236,25,솔렌시아2,32.87,201812,19,"27,750",-,9,-,-,2015,자양로 172,-,-,-,-,서울특별시 광진구 ,서울특별시 광진구  자양로 172,37.5430146393483,127.084703763603
622,서울특별시 광진구 자양동,793,793,0,우방리버파크,84.96,201812,19,"103,000",-,24,-,-,2003,능동로4길 78,-,-,-,-,서울특별시 광진구 ,서울특별시 광진구  능동로4길 78,37.531278637302,127.070478018326
623,서울특별시 성동구 금호동4가,800,800,0,대우,84.71,201812,19,"82,000",-,18,-,-,2001,독서당로 272,-,-,-,-,서울특별시 성동구 ,서울특별시 성동구  독서당로 272,37.5453300340479,127.017925368592
624,서울특별시 중랑구 면목동,1535,1535,0,현대휴온,19.83,201812,19,"12,600",-,7,-,-,2013,동일로109가길 5,-,-,-,-,서울특별시 중랑구 ,서울특별시 중랑구  동일로109가길 5,37.5922400860881,127.078706865845
625,서울특별시 성동구 옥수동,436,436,0,극동그린,114.32,201812,19,"100,000",-,17,-,-,1997,독서당로 175,-,-,-,-,서울특별시 성동구 ,서울특별시 성동구  독서당로 175,37.5416160761673,127.009810204177
626,서울특별시 성동구 성수동2가,712,712,0,청구강변1,84.87,201812,19,"120,000",-,2,-,-,1994,둘레15길 7,-,-,-,-,서울특별시 성동구 ,서울특별시 성동구  둘레15길 7,37.535250573518,127.054546043422
627,서울특별시 강서구 염창동,275-5,275,5,등마루,36.41,201812,19,"15,600",-,3,-,-,1971,공항대로 559,-,-,-,-,서울특별시 강서구 ,서울특별시 강서구  공항대로 559,37.5578858480641,126.845177244055
628,서울특별시 서대문구 대현동,90-20,90,20,이대경우타운,12.55,201812,19,"17,800",-,3,-,-,2018,이화여대1안길 22,-,-,-,-,서울특별시 서대문구 ,서울특별시 서대문구  이화여대1안길 22,37.5577058888957,126.943893974384
629,서울특별시 강서구 염창동,275-5,275,5,등마루,36.41,201812,19,"15,600",-,3,-,-,1971,공항대로 559,-,-,-,-,서울특별시 강서구 ,서울특별시 강서구  공항대로 559,37.5578858480641,126.845177244055
630,서울특별시 마포구 상암동,1655,1655,0,상암월드컵파크4단지,104.78,201812,19,"109,000",-,11,-,-,2006,상암산로1길 24,-,-,-,-,서울특별시 마포구 ,서울특별시 마포구  상암산로1길 24,37.5776672075953,126.889341666118
