no,address,latitude,longitude
2023_21590,서울특별시 중랑구 신내로 155,37.61385898,127.0943227
2023_21591,서울특별시 용산구 이촌로87길 21,37.52030091,126.9786385
2023_21592,서울특별시 동대문구 회기로 14,37.59100885,127.0379097
2023_21593,서울특별시 도봉구 시루봉로 71,37.65716057,127.0275933
2023_21594,서울특별시 도봉구 덕릉로66길 17,37.64371212,127.0539524
2023_21595,서울특별시 광진구 아차산로 345,37.53750524,127.081583
2023_21596,서울특별시 성북구 북악산로 913,37.59655948,127.0229547
2023_21597,서울특별시 중랑구 동일로109가길 5,37.59224009,127.0787069
2023_21598,서울특별시 도봉구 도당로 116,37.6666198,127.039854
2023_21599,서울특별시 도봉구 마들로 616,37.66510797,127.0469105
2023_21600,서울특별시 동대문구 천호대로47길 62,37.57460986,127.044158
2023_21601,서울특별시 중랑구 신내로7가길 31,37.60207313,127.0934243
2023_21602,서울특별시 성북구 정릉로 402-16,37.60385948,127.0276308
2023_21603,서울특별시 구로구 가마산로 97,37.48631501,126.8773887
2023_21604,서울특별시 마포구 독막로28길 10,37.54695507,126.9362273
2023_21605,서울특별시 강서구 양천로69길 58,37.55527197,126.8729604
2023_21606,서울특별시 은평구 통일로 630,37.60284497,126.9359558
2023_21607,서울특별시 강서구 우현로 67,37.54754619,126.8372075
2023_21608,서울특별시 강서구 화곡로 186-28,37.54140153,126.842099
2023_21609,서울특별시 서대문구 통일로 510,37.59457019,126.9411674
2023_21610,서울특별시 구로구 가마산로 285,37.49710512,126.8916862
2023_21611,서울특별시 강서구 수명로1길 16,37.55204782,126.8225609
2023_21612,서울특별시 강서구 강서로47다길 10-3,37.55208767,126.8339757
2023_21613,서울특별시 서대문구 독립문공원길 17,37.57238119,126.9551984
2023_21614,서울특별시 노원구 동일로214길 21,37.65043289,127.0627594
2023_21615,서울특별시 구로구 신도림로 16,37.50512282,126.882191
2023_21616,서울특별시 구로구 신도림로 16,37.50512282,126.882191
2023_21617,서울특별시 양천구 목동동로 258,37.52534139,126.8751427
2023_21618,서울특별시 구로구 디지털로31길 120,37.48847002,126.890773
2023_21619,서울특별시 양천구 목동동로 50,37.51209479,126.8602911
2023_21620,서울특별시 마포구 마포대로 195,37.55243392,126.9542238
2023_21621,서울특별시 마포구 마포대로 195,37.55243392,126.9542238
2023_21622,서울특별시 양천구 목동중앙남로3가길 59,37.5386357,126.8639322
2023_21623,서울특별시 은평구 백련산로 36,37.58845665,126.9247675
2023_21624,서울특별시 은평구 백련산로 37,37.58941333,126.9222745
2023_21625,서울특별시 은평구 은평로 220,37.60053438,126.9320989
2023_21626,서울특별시 마포구 마포대로 167,37.55021872,126.9537358
2023_21627,서울특별시 서대문구 가재울로 45,37.57566143,126.9208517
2023_21628,서울특별시 서대문구 수색로6길 43,37.57256563,126.9124567
2023_21629,서울특별시 서대문구 북아현로1가길 20,37.55806808,126.9513991
2023_21630,서울특별시 마포구 독막로28길 10,37.54695507,126.9362273
2023_21631,서울특별시 송파구 송파대로 345,37.49761457,127.1025318
2023_21632,서울특별시 송파구 문정로 83,37.48920432,127.130232
2023_21633,서울특별시 송파구 중대로 24,37.48812575,127.1110591
2023_21634,서울특별시 강동구 명일로 172,37.53413819,127.1450708
2023_21635,서울특별시 송파구 위례성대로 58,37.51476071,127.1191203
2023_21636,서울특별시 강동구 고덕로 360,37.55668291,127.1695273
2023_21637,서울특별시 강동구 고덕로 360,37.55668291,127.1695273
2023_21638,서울특별시 강동구 고덕로 333,37.55617709,127.1591765
2023_21639,서울특별시 강동구 천호대로 1077,37.53725665,127.1314376
2023_21640,서울특별시 강동구 상암로51길 61,37.5486615,127.1461524
2023_21641,서울특별시 강동구 양재대로 1650,37.55437885,127.1459442
2023_21642,서울특별시 강동구 양재대로 1650,37.55437885,127.1459442
2023_21643,서울특별시 송파구 오금로 405,37.49826218,127.1351623
2023_21644,서울특별시 송파구 오금로56길 16,37.49290941,127.1419818
2023_21645,서울특별시 송파구 양산로8길 8,37.49091614,127.144567
2023_21646,서울특별시 송파구 양산로8길 8,37.49091614,127.144567
2023_21647,서울특별시 강동구 고덕로 130,37.55420667,127.1409011
2023_21648,서울특별시 송파구 오금로32길 42,37.50336425,127.1177008
2023_21649,서울특별시 송파구 동남로 234,37.49735909,127.1333523
2023_21650,서울특별시 영등포구 당산로 214,37.53293123,126.902834
2023_21651,서울특별시 서초구 사임당로 137,37.4916905,127.0245324
2023_21652,서울특별시 서초구 서운로 197,37.49948267,127.0208201
2023_21653,서울특별시 영등포구 국회대로54길 10,37.52365869,126.9064302
2023_21654,서울특별시 영등포구 양산로 177,37.52446352,126.9031483
2023_21655,서울특별시 영등포구 도신로29길 28,37.51175428,126.9023257
2023_21656,서울특별시 강남구 광평로19길 15,37.48553054,127.0847979
2023_21657,서울특별시 강남구 일원로14길 25,37.48476112,127.0808748
2023_21658,서울특별시 관악구 관악로30길 12,37.48413576,126.9606073
2023_21659,서울특별시 관악구 관악로30길 27,37.48896635,126.9606433
2023_21660,서울특별시 서초구 잠원로 88,37.51224894,127.0082261
2023_21661,서울특별시 서초구 사평대로 73,37.49871137,126.9923739
2023_21662,서울특별시 영등포구 선유동2로 29,37.53243219,126.8958797
2023_21663,서울특별시 동작구 상도로55길 47,37.49834009,126.9588505
2023_21664,서울특별시 강남구 광평로19길 10,37.48548535,127.0866017
2023_21665,서울특별시 동작구 현충로 52,37.5096318,126.9622042
2023_21666,서울특별시 서초구 방배선행길 1,37.4741084,126.9825981
2023_21667,서울특별시 서초구 서초대로1길 30,37.48923288,126.9836143
2023_21668,서울특별시 영등포구 도림천로19길 12,37.48689875,126.9005633
2023_21669,서울특별시 강남구 삼성로 150,37.49569534,127.0685647
2023_21670,서울특별시 강남구 도곡로93길 12,37.50151236,127.0654747
2023_21671,서울특별시 영등포구 선유서로9길 5,37.51788813,126.8832611
2023_21672,서울특별시 구로구 고척로 85,37.50107408,126.8438229
2023_21673,서울특별시 동작구 동작대로39길 22,37.49463598,126.981966
2023_21674,서울특별시 영등포구 문래로20길 14,37.51713359,126.893319
2023_21675,서울특별시 영등포구 영등포로 351,37.51531105,126.9180311
2023_21676,서울특별시 강남구 압구정로 201,37.53153417,127.0292731
2023_21677,서울특별시 영등포구 여의대방로61길 19,37.51430122,126.9238469
2023_21678,서울특별시 강남구 선릉로126길 22,37.51625005,127.0451936
2023_21679,서울특별시 강남구 봉은사로73길 23,37.5139475,127.0499735
2023_21680,서울특별시 구로구 경인로8길 75,37.4928695,126.8395728
2023_21681,서울특별시 영등포구 당산로41길 23,37.5314949,126.8966246
2023_21682,서울특별시 구로구 천왕로 10,37.48072633,126.8421621
2023_21683,서울특별시 송파구 올림픽로 99,37.51512525,127.07813
2023_21684,서울특별시 송파구 올림픽로 135,37.51673328,127.0898891
2023_21685,서울특별시 강남구 학동로87길 7,37.51952825,127.0520028
2023_21686,서울특별시 관악구 난곡로 55,37.45974172,126.9207528
2023_21687,서울특별시 서초구 신반포로33길 15,37.50904433,127.0095245
2023_21688,서울특별시 서초구 잠원로 157,37.51779029,127.0105556
2023_21689,서울특별시 서초구 잠원로 157,37.51779029,127.0105556
2023_21690,서울특별시 영등포구 영등포로 17,37.52372108,126.8834845
2023_21691,서울특별시 서초구 신반포로 270,37.50786022,127.011582
2023_21692,서울특별시 관악구 신림로66길 42,37.48557684,126.9320471
2023_21693,서울특별시 금천구 가산로 99,37.47615677,126.8912894
2023_21694,서울특별시 관악구 행운1나길 12,37.4822587,126.955324
2023_21695,서울특별시 송파구 올림픽로 135,37.51673328,127.0898891
2023_21696,서울특별시 강남구 일원로14길 25,37.48476112,127.0808748
2023_21697,서울특별시 관악구 청룡16길 43,37.47663345,126.9431957
2023_21698,서울특별시 관악구 봉천로 387,37.48376028,126.9427012
2023_21699,서울특별시 송파구 올림픽로43길 34,37.5249191,127.1144437
2023_21700,서울특별시 영등포구 양평로24길 9,37.54028033,126.8917458
2023_21701,서울특별시 영등포구 도영로 66,37.51039494,126.9001766
2023_21702,서울특별시 영등포구 의사당대로 127,37.52024054,126.9264067
2023_21703,서울특별시 서초구 청계산로9길 1-12,37.44968266,127.0562414
2023_21704,서울특별시 서초구 청계산로9길 1-12,37.44968266,127.0562414
2023_21705,서울특별시 동작구 동작대로29길 115,37.49041718,126.9758253
2023_21706,서울특별시 관악구 봉천로 387,37.48376028,126.9427012
2023_21707,서울특별시 강남구 광평로51길 27,37.48961473,127.1007301
2023_21708,서울특별시 관악구 봉천로 387,37.48376028,126.9427012
2023_21709,서울특별시 동작구 동작대로29길 119,37.49088863,126.9760567
2023_21710,서울특별시 강남구 선릉로 221,37.49420684,127.0497348
2023_21711,서울특별시 강남구 선릉로 221,37.49420684,127.0497348
2023_21712,서울특별시 관악구 남부순환로260길 119,37.47182618,126.9720005
2023_21713,서울특별시 강남구 삼성로 212,37.49961577,127.0659154
2023_21714,서울특별시 강남구 강남대로120길 58,37.50755454,127.0280533
2023_21715,서울특별시 서초구 서운로 104,37.4934156,127.0264914
2023_21716,서울특별시 서초구 잠원로14길 54,37.51576217,127.0136448
2023_21717,서울특별시 강남구 개포로 264,37.47975035,127.0522282
2023_21718,서울특별시 영등포구 신길로 29,37.49451383,126.9061165
2023_21719,서울특별시 영등포구 가마산로 315,37.49852058,126.8945593
2023_21720,서울특별시 강남구 삼성로 150,37.49569534,127.0685647
2023_21721,서울특별시 동작구 만양로8길 50,37.51030426,126.9468658
2023_21722,서울특별시 송파구 올림픽로 135,37.51673328,127.0898891
2023_21723,서울특별시 강남구 삼성로 212,37.49961577,127.0659154
2023_21724,서울특별시 영등포구 63로 45,37.52135273,126.9373261
2023_21725,서울특별시 구로구 남부순환로 775,37.50156787,126.8471623
2023_21726,서울특별시 구로구 중앙로8길 11,37.50252837,126.8632892
2023_21727,서울특별시 마포구 신촌로 160,37.55630842,126.9432851
2023_21728,서울특별시 마포구 신촌로 160,37.55630842,126.9432851
2023_21729,서울특별시 양천구 중앙로29길 61,37.51954197,126.848125
2023_21730,서울특별시 양천구 목동서로 70,37.53704736,126.8764175
2023_21731,서울특별시 마포구 월드컵북로30길 9-22,37.5691137,126.9079073
2023_21732,서울특별시 마포구 월드컵로31길 77,37.5597471,126.9010812
2023_21733,서울특별시 마포구 월드컵로31길 77,37.5597471,126.9010812
2023_21734,서울특별시 서대문구 수색로 100,37.57473348,126.9079161
2023_21735,서울특별시 구로구 신도림로21길 25,37.51302996,126.8844957
2023_21736,서울특별시 노원구 노원로18길 19,37.64461238,127.0717203
2023_21737,서울특별시 구로구 신도림로 78,37.50938921,126.8847002
2023_21738,서울특별시 노원구 섬밭로 229,37.63661786,127.0645392
2023_21739,서울특별시 은평구 서오릉로21길 15-2,37.61442597,126.907273
2023_21740,서울특별시 노원구 덕릉로94가길 20,37.66250643,127.0781111
2023_21741,서울특별시 강서구 공항대로65가길 4,37.55098531,126.8712303
2023_21742,서울특별시 노원구 노해로 508,37.65470356,127.066191
2023_21743,서울특별시 노원구 노원로28길 15,37.65400888,127.0692161
2023_21744,서울특별시 서대문구 증가로 191,37.57849683,126.9173923
2023_21745,서울특별시 노원구 상계로5길 12,37.65735433,127.0642643
2023_21746,서울특별시 양천구 신정로7길 76,37.51350715,126.8360663
2023_21747,서울특별시 마포구 연남로 52,37.56482028,126.9201571
2023_21748,서울특별시 은평구 불광로2길 16,37.61167741,126.9332696
2023_21749,서울특별시 강서구 우현로 67,37.54754619,126.8372075
2023_21750,서울특별시 양천구 신목로 16,37.51806478,126.8759765
2023_21751,서울특별시 양천구 중앙로36길 15,37.52077533,126.8559455
2023_21752,서울특별시 은평구 통일로 796,37.6163432,126.9257576
2023_21753,서울특별시 서대문구 거북골로 100,37.57572568,126.9183536
2023_21754,서울특별시 서대문구 가재울미래로 2,37.57440199,126.9179078
2023_21755,서울특별시 양천구 목동로29길 7,37.52878893,126.862367
2023_21756,서울특별시 마포구 마포대로 195,37.55243392,126.9542238
2023_21757,서울특별시 마포구 마포대로 195,37.55243392,126.9542238
2023_21758,서울특별시 은평구 수색로 300,37.58509035,126.8904419
2023_21759,서울특별시 노원구 섬밭로 229,37.63661786,127.0645392
2023_21760,서울특별시 서대문구 통일로34길 43,37.58833366,126.9488077
2023_21761,서울특별시 강서구 공항대로65가길 4,37.55098531,126.8712303
2023_21762,서울특별시 노원구 노원로18길 19,37.64461238,127.0717203
2023_21763,서울특별시 은평구 백련산로 67,37.59279721,126.9216198
2023_21764,서울특별시 은평구 백련산로 6,37.58614561,126.9232295
2023_21765,서울특별시 서대문구 가재울미래로 2,37.57440199,126.9179078
2023_21766,서울특별시 동대문구 장안벚꽃로 167,37.5750721,127.0742821
2023_21767,서울특별시 동대문구 사가정로 65,37.57550604,127.0496959
2023_21768,서울특별시 종로구 난계로29가길 19,37.57356204,127.0227367
2023_21769,서울특별시 용산구 이촌로 181,37.5221513,126.9706636
2023_21770,서울특별시 도봉구 노해로70길 119,37.64739119,127.053376
2023_21771,서울특별시 동대문구 답십리로 130,37.57285496,127.0524012
2023_21772,서울특별시 중랑구 봉화산로 130,37.60319039,127.0884681
2023_21773,서울특별시 중랑구 상봉로 131,37.59740662,127.0921776
2023_21774,서울특별시 성북구 솔샘로25길 28,37.61857737,127.0069619
2023_21775,서울특별시 용산구 이촌로 174,37.52111314,126.9668044
2023_21776,서울특별시 동대문구 답십리로56길 105,37.56777026,127.0584014
2023_21777,서울특별시 강북구 삼양로19길 25,37.61569432,127.021139
2023_21778,서울특별시 강북구 도봉로 290,37.63420343,127.0237738
2023_21779,서울특별시 성북구 길음로 118,37.61132476,127.0208497
2023_21780,서울특별시 성북구 길음로 118,37.61132476,127.0208497
2023_21781,서울특별시 성북구 길음로 74,37.60928966,127.0210339
2023_21782,서울특별시 동대문구 휘경로 60,37.59370125,127.0648977
2023_21783,서울특별시 용산구 이촌로 193,37.52159399,126.9683923
2023_21784,서울특별시 성동구 고산자로 160,37.55433983,127.0348842
2023_21785,서울특별시 동대문구 천호대로55길 11,37.57153553,127.046159
2023_21786,서울특별시 도봉구 해등로 286-5,37.65772975,127.0241592
2023_21787,서울특별시 성동구 왕십리로 410,37.56660293,127.0240825
2023_21788,서울특별시 성동구 행당로 82,37.55480888,127.0273997
2023_21789,서울특별시 성동구 고산자로 164,37.55506876,127.0354241
2023_21790,서울특별시 성동구 한림말길 50,37.53993979,127.0168229
2023_21791,서울특별시 동대문구 장한로12길 89,37.56447276,127.0727354
2023_21792,서울특별시 강동구 고덕로 333,37.55617709,127.1591765
2023_21793,서울특별시 강동구 고덕로 333,37.55617709,127.1591765
2023_21794,서울특별시 강동구 아리수로50길 50,37.55768646,127.1485777
2023_21795,서울특별시 강동구 아리수로50길 50,37.55768646,127.1485777
2023_21796,서울특별시 강동구 양재대로 1706,37.55795484,127.1462943
2023_21797,서울특별시 송파구 양재대로 1218,37.51669099,127.1377124
2023_21798,서울특별시 강동구 천중로 253,37.54090932,127.1479462
2023_21799,서울특별시 송파구 송파대로 345,37.49761457,127.1025318
2023_21800,서울특별시 송파구 가락로 187,37.5057008,127.1133108
2023_21801,서울특별시 강동구 천호대로 1089,37.53660488,127.1331156
2023_21802,서울특별시 강동구 천중로39길 19-17,37.54213925,127.1382289
2023_21803,서울특별시 송파구 성내천로 6,37.50833724,127.1348282
2023_21804,서울특별시 송파구 양재대로72길 20,37.50885919,127.1288551
2023_21805,서울특별시 송파구 송파대로 111,37.47968706,127.1249798
2023_21806,서울특별시 송파구 송파대로 111,37.47968706,127.1249798
2023_21807,서울특별시 강동구 상암로79길 88,37.55020472,127.1660592
2023_21808,서울특별시 송파구 마천로 315,37.49500164,127.1510614
2023_21809,서울특별시 강동구 명일로 376,37.55232896,127.1509152
2023_21810,서울특별시 송파구 거마로 56,37.49704548,127.1472821
2023_21811,서울특별시 강동구 아리수로98길 25,37.56529058,127.1782119
2023_21812,서울특별시 송파구 위례광장로 121,37.47686504,127.1382163
2023_21813,서울특별시 강동구 천호대로176길 10-10,37.5341859,127.135788
2023_21814,서울특별시 강동구 고덕로80길 99,37.55079267,127.1664048
2023_21815,서울특별시 송파구 송파대로37길 29,37.50040067,127.1085698
2023_21816,서울특별시 송파구 양재대로72길 15,37.5093643,127.1290966
2023_21817,서울특별시 송파구 중대로 24,37.48812575,127.1110591
2023_21818,서울특별시 송파구 양산로4길 16,37.48920968,127.1449643
2023_21819,서울특별시 송파구 백제고분로 348,37.50408278,127.1052197
2023_21820,서울특별시 송파구 백제고분로 348,37.50408278,127.1052197
2023_21821,서울특별시 송파구 송파대로8길 17,37.47801529,127.129361
2023_21822,서울특별시 강동구 풍성로 127,37.53207383,127.1262281
2023_21823,서울특별시 강동구 고덕로 333,37.55617709,127.1591765
2023_21824,서울특별시 강동구 고덕로 333,37.55617709,127.1591765
2023_21825,서울특별시 강동구 상암로 11,37.55344749,127.12566
2023_21826,서울특별시 강동구 천호대로 1089,37.53660488,127.1331156
2023_21827,서울특별시 강서구 허준로 139,37.56461212,126.8562786
2023_21828,서울특별시 마포구 독막로20나길 21,37.54686782,126.9269792
2023_21829,서울특별시 마포구 토정로 136-11,37.54478165,126.9264053
2023_21830,서울특별시 강서구 공항대로65가길 4,37.55098531,126.8712303
2023_21831,서울특별시 강서구 공항대로63길 16,37.55104647,126.8670605
2023_21832,서울특별시 노원구 덕릉로70가길 21,37.64286937,127.0595073
2023_21833,서울특별시 노원구 동일로227길 86,37.67041003,127.05273
2023_21834,서울특별시 강서구 허준로 47,37.57101357,126.8465852
2023_21835,서울특별시 마포구 월드컵북로 235,37.56970041,126.9014174
2023_21836,서울특별시 마포구 숭문길 106,37.55092488,126.9467959
2023_21837,서울특별시 마포구 숭문길 98,37.55027896,126.9466157
2023_21838,서울특별시 은평구 응암로30길 16,37.59522857,126.9193946
2023_21839,서울특별시 마포구 대흥로 175,37.55577128,126.9433549
2023_21840,서울특별시 마포구 큰우물로 28,37.54387896,126.9415929
2023_21841,서울특별시 마포구 상암산로1길 24,37.57766721,126.8893417
2023_21842,서울특별시 마포구 상암산로1길 24,37.57766721,126.8893417
2023_21843,서울특별시 강서구 마곡중앙로 33,37.5580501,126.8240802
2023_21844,서울특별시 강서구 마곡중앙1로 71,37.55690832,126.8178746
2023_21845,서울특별시 마포구 백범로 202,37.54284813,126.9524686
2023_21846,서울특별시 강서구 공항대로39길 100,37.56361691,126.8473931
2023_21847,서울특별시 강서구 공항대로39길 74,37.56121729,126.8446357
2023_21848,서울특별시 강서구 공항대로59길 64,37.55462322,126.8641847
2023_21849,서울특별시 은평구 가좌로 344,37.59791864,126.9074653
2023_21850,서울특별시 은평구 가좌로 344,37.59791864,126.9074653
2023_21851,서울특별시 서대문구 거북골로 84,37.57822963,126.9184813
2023_21852,서울특별시 노원구 섬밭로 265,37.63828783,127.0627161
2023_21853,서울특별시 은평구 은평터널로 60,37.58516946,126.8996743
2023_21854,서울특별시 구로구 가마산로 283,37.49690482,126.8913849
2023_21855,서울특별시 구로구 디지털로31길 90,37.48873032,126.8920535
2023_21856,서울특별시 구로구 도림로6길 39-34,37.48528039,126.8892524
2023_21857,서울특별시 은평구 연서로 455,37.63739537,126.933915
2023_21858,서울특별시 양천구 남부순환로83길 48,37.51729907,126.8453916
2023_21859,서울특별시 양천구 오목로 300,37.5248304,126.8700225
2023_21860,서울특별시 강서구 우현로 67,37.54754619,126.8372075
2023_21861,서울특별시 강서구 공항대로 382,37.55639458,126.8495467
2023_21862,서울특별시 서대문구 독립문로8길 54,37.56879093,126.9584744
2023_21863,서울특별시 서대문구 홍제천로 136,37.57513727,126.9275107
2023_21864,서울특별시 구로구 신도림로19길 16,37.51158208,126.8846169
2023_21865,서울특별시 서대문구 통일로39길 113-16,37.58599751,126.9404433
2023_21866,서울특별시 마포구 신수로 15,37.54342188,126.9329485
2023_21867,서울특별시 강남구 개포로 264,37.47975035,127.0522282
2023_21868,서울특별시 동작구 매봉로 134,37.51014704,126.9514909
2023_21869,서울특별시 구로구 남부순환로95길 42-15,37.49490799,126.8556794
2023_21870,서울특별시 관악구 봉천로 576,37.47697388,126.961321
2023_21871,서울특별시 영등포구 당산로 222,37.53324478,126.9022911
2023_21872,서울특별시 구로구 경인로 382,37.496373,126.8630822
2023_21873,서울특별시 구로구 경인로 382,37.496373,126.8630822
2023_21874,서울특별시 서초구 방배선행길 1,37.4741084,126.9825981
2023_21875,서울특별시 관악구 신사로 82,37.48576245,126.9118733
2023_21876,서울특별시 관악구 문성로38라길 7,37.47535274,126.9296068
2023_21877,서울특별시 서초구 태봉로2길 60,37.4656521,127.0271812
2023_21878,서울특별시 동작구 현충로 52,37.5096318,126.9622042
2023_21879,서울특별시 송파구 토성로 37,37.53109771,127.1155537
2023_21880,서울특별시 강남구 밤고개로21길 25,37.47504752,127.1076444
2023_21881,서울특별시 동작구 동작대로29길 110,37.48982442,126.9777452
2023_21882,서울특별시 서초구 서운로 104,37.4934156,127.0264914
2023_21883,서울특별시 구로구 고척로52길 53,37.50349452,126.8566024
2023_21884,서울특별시 구로구 중앙로5길 62,37.50293473,126.8607486
2023_21885,서울특별시 영등포구 도신로29길 28,37.51175428,126.9023257
2023_21886,서울특별시 서초구 서초중앙로 220,37.50151093,127.0124717
2023_21887,서울특별시 서초구 신반포로16길 15-20,37.50162244,126.9963386
2023_21888,서울특별시 서초구 고무래로 35,37.50446749,127.0124545
2023_21889,서울특별시 송파구 잠실로 88,37.50753416,127.0932143
2023_21890,서울특별시 송파구 잠실로 88,37.50753416,127.0932143
2023_21891,서울특별시 송파구 잠실로 88,37.50753416,127.0932143
2023_21892,서울특별시 송파구 올림픽로 135,37.51673328,127.0898891
2023_21893,서울특별시 강남구 선릉로 221,37.49420684,127.0497348
2023_21894,서울특별시 서초구 신반포로 270,37.50786022,127.011582
2023_21895,서울특별시 송파구 올림픽로 135,37.51673328,127.0898891
2023_21896,서울특별시 송파구 송파대로 567,37.51313818,127.0930487
2023_21897,서울특별시 영등포구 신길로28길 25,37.50236306,126.9134659
2023_21898,서울특별시 금천구 시흥대로 165,37.44790332,126.9007227
2023_21899,서울특별시 영등포구 신풍로 77,37.50041961,126.9115445
2023_21900,서울특별시 영등포구 가마산로 442,37.50498194,126.9095271
2023_21901,서울특별시 동작구 여의대방로 8,37.49310363,126.9106015
2023_21902,서울특별시 강남구 영동대로 22,37.49109411,127.074164
2023_21903,서울특별시 강남구 일원로14길 25,37.48476112,127.0808748
2023_21904,서울특별시 강남구 강남대로146길 28,37.5150255,127.0230305
2023_21905,서울특별시 강남구 삼성로 212,37.49961577,127.0659154
2023_21906,서울특별시 서초구 신반포로 261,37.50877887,127.0126377
2023_21907,서울특별시 구로구 항동로 43,37.47894239,126.8245712
2023_21908,서울특별시 금천구 가산로 99,37.47615677,126.8912894
2023_21909,서울특별시 영등포구 문래로 82,37.51919147,126.8910328
2023_21910,서울특별시 강북구 오현로 45,37.61693703,127.0346104
2023_21911,서울특별시 성북구 보문사길 111,37.58287311,127.0178911
2023_21912,서울특별시 중랑구 답십리로77길 139,37.57759509,127.0806909
2023_21913,서울특별시 광진구 아차산로 549,37.54335816,127.1017442
2023_21914,서울특별시 성동구 동호로 93,37.54759208,127.015402
2023_21915,서울특별시 성북구 장월로1길 28,37.60877249,127.045612
2023_21916,서울특별시 광진구 광나루로56길 29,37.53695769,127.0965367
2023_21917,서울특별시 도봉구 해등로 50,37.64999808,127.0433017
2023_21918,서울특별시 중랑구 동일로 752,37.59700909,127.0820707
2023_21919,서울특별시 도봉구 도봉로136나길 40,37.6563182,127.0442932
2023_21920,서울특별시 동대문구 장안벚꽃로 107,37.57105683,127.0751137
2023_21921,서울특별시 성동구 독서당로 375,37.54953757,127.0290009
2023_21922,서울특별시 동대문구 답십리로23길 30,37.57671631,127.0497821
2023_21923,서울특별시 동대문구 한천로 248,37.58323604,127.071898
2023_21924,서울특별시 동대문구 외대역동로 14,37.59096838,127.0686732
2023_21925,서울특별시 중구 청계천로 400,37.57081055,127.0214639
2023_21926,서울특별시 종로구 난계로29가길 16,37.57374492,127.0223637
2023_21927,서울특별시 성동구 매봉길 15,37.54605985,127.0138472
2023_21928,서울특별시 종로구 지봉로4길 13,37.57132903,127.0166913
2023_21929,서울특별시 용산구 이촌로71길 10,37.52049032,126.9729806
2023_21930,서울특별시 성동구 성수이로 3,37.53591107,127.0520133
2023_21931,서울특별시 광진구 아차산로69길 19,37.5430015,127.0979673
2023_21932,서울특별시 동대문구 답십리로 130,37.57285496,127.0524012
2023_21933,서울특별시 성동구 행당로 79,37.55820535,127.027507
2023_21934,서울특별시 성동구 고산자로 164,37.55506876,127.0354241
2023_21935,서울특별시 성북구 길음로 119,37.61049908,127.0163726
2023_21936,서울특별시 광진구 아차산로70길 62,37.54037666,127.0989953
2023_21937,서울특별시 광진구 뚝섬로36길 75,37.53125923,127.0696294
2023_21938,서울특별시 노원구 마들로 127,37.62678626,127.0652715
2023_21939,서울특별시 동대문구 한천로11길 10-1,37.56989001,127.061632
2023_21940,서울특별시 동대문구 답십리로56길 105,37.56777026,127.0584014
2023_21941,서울특별시 성동구 매봉길 50,37.54729891,127.0121894
2023_21942,서울특별시 성동구 금호로 140,37.55371603,127.021929
2023_21943,서울특별시 동대문구 전농로10길 20,37.57460947,127.0601291
2023_21944,서울특별시 성동구 왕십리로 410,37.56660293,127.0240825
2023_21945,서울특별시 성북구 정릉로 404,37.60429852,127.0287962
2023_21946,서울특별시 동대문구 사가정로 65,37.57550604,127.0496959
2023_21947,서울특별시 중구 마장로 58,37.56771654,127.0163481
2023_21948,서울특별시 중구 마른내로 127,37.56482834,127.0020073
2023_21949,서울특별시 동대문구 전농로10길 20,37.57460947,127.0601291
2023_21950,서울특별시 노원구 동일로191가길 59,37.62766279,127.0696059
2023_21951,서울특별시 광진구 구의강변로 42,37.53557909,127.092918
2023_21952,서울특별시 용산구 이촌로 174,37.52111314,126.9668044
2023_21953,서울특별시 마포구 월드컵북로47길 46,37.57488209,126.8907326
2023_21954,서울특별시 강서구 강서로56나길 37,37.56108007,126.8408477
2023_21955,서울특별시 서대문구 이화여대길 50-12,37.55945396,126.9465196
2023_21956,서울특별시 서대문구 홍은중앙로 149,37.60389429,126.947316
2023_21957,서울특별시 강서구 강서로 266,37.54826258,126.8409806
2023_21958,서울특별시 강서구 금낭화로24가길 6,37.57880183,126.8161708
2023_21959,서울특별시 마포구 월드컵북로47길 46,37.57488209,126.8907326
2023_21960,서울특별시 양천구 목동남로4길 2,37.5082875,126.8645355
2023_21961,서울특별시 은평구 연서로48길 11,37.6377915,126.936819
2023_21962,서울특별시 강동구 아리수로93가길 110,37.57378021,127.1731798
2023_21963,서울특별시 강동구 양재대로 1650,37.55437885,127.1459442
2023_21964,서울특별시 강동구 고덕로 333,37.55617709,127.1591765
2023_21965,서울특별시 송파구 송이로 88,37.49949103,127.118311
2023_21966,서울특별시 관악구 관악로40길 60,37.49331457,126.9607896
2023_21967,서울특별시 영등포구 영중로 154,37.53118834,126.9060668
2023_21968,서울특별시 영등포구 가마산로 315,37.49852058,126.8945593
2023_21969,서울특별시 동작구 사당로 90,37.49233562,126.9624478
2023_21970,서울특별시 동작구 서달로 91,37.50316562,126.958891
2023_21971,서울특별시 관악구 관악로 304,37.49205057,126.957711
2023_21972,서울특별시 강남구 삼성로64길 5,37.5004475,127.0605138
2023_21973,서울특별시 서초구 신반포로16길 15-20,37.50162244,126.9963386
2023_21974,서울특별시 강남구 언주로 123,37.48760335,127.0497551
2023_21975,서울특별시 금천구 금하로 816,37.44977863,126.9200208
2023_21976,서울특별시 강남구 광평로34길 55,37.48085608,127.0921723
2023_21977,서울특별시 서초구 서초대로74길 30,37.49509032,127.0268041
2023_21978,서울특별시 강남구 언주로 332,37.49822233,127.0473954
2023_21979,서울특별시 금천구 금하로 816,37.44977863,126.9200208
2023_21980,서울특별시 관악구 청룡10길 45,37.47723093,126.9430557
2023_21981,서울특별시 관악구 청룡16길 43,37.47663345,126.9431957
2023_21982,서울특별시 영등포구 국회대로54길 10,37.52365869,126.9064302
2023_21983,서울특별시 서초구 서초대로65길 13-10,37.49742848,127.0191506
2023_21984,서울특별시 서초구 서초대로58길 10,37.4942225,127.017509
2023_21985,서울특별시 서초구 효령로34길 79,,
2023_21986,서울특별시 동작구 장승배기로4길 9,37.5014493,126.9438142
2023_21987,서울특별시 강남구 역삼로25길 17,37.49733453,127.0394016
2023_21988,서울특별시 송파구 올림픽로 435,37.5213593,127.1049717
2023_21989,서울특별시 송파구 올림픽로 435,37.5213593,127.1049717
2023_21990,서울특별시 강남구 언주로30길 57,37.48945731,127.0539647
2023_21991,서울특별시 강남구 선릉로 221,37.49420684,127.0497348
2023_21992,서울특별시 서초구 신반포로 270,37.50786022,127.011582
2023_21993,서울특별시 강남구 역삼로74길 8,37.50136913,127.0549992
2023_21994,서울특별시 강남구 도곡로78길 22,37.49663573,127.0588476
2023_21995,서울특별시 구로구 개봉로3길 87,37.48589874,126.850971
2023_21996,서울특별시 관악구 관악로30길 27,37.48896635,126.9606433
2023_21997,서울특별시 관악구 은천로 93,37.48735272,126.9454289
2023_21998,서울특별시 관악구 남부순환로256라길 11,37.47218016,126.973852
2023_21999,서울특별시 관악구 은천로 93,37.48735272,126.9454289
2023_22000,서울특별시 관악구 은천로 93,37.48735272,126.9454289
2023_22001,서울특별시 금천구 시흥대로 291,37.45995605,126.8966992
2023_22002,서울특별시 관악구 관악로30길 12,37.48413576,126.9606073
2023_22003,서울특별시 관악구 관악로30길 12,37.48413576,126.9606073
2023_22004,서울특별시 관악구 성현로 80,37.48984744,126.9529855
2023_22005,서울특별시 관악구 성현로 80,37.48984744,126.9529855
2023_22006,서울특별시 영등포구 의사당대로 110,37.52040134,126.9246364
2023_22007,서울특별시 동작구 보라매로3길 29,37.49121134,126.9249903
2023_22008,서울특별시 영등포구 버드나루로 130,37.5305725,126.9080121
2023_22009,서울특별시 영등포구 신길로 119,37.50351858,126.909712
2023_22010,서울특별시 영등포구 신길로29길 17,37.50372029,126.9082776
2023_22011,서울특별시 영등포구 신길로29길 17,37.50372029,126.9082776
2023_22012,서울특별시 영등포구 신길로28길 25,37.50236306,126.9134659
2023_22013,서울특별시 송파구 잠실로 88,37.50753416,127.0932143
2023_22014,서울특별시 송파구 잠실로 88,37.50753416,127.0932143
2023_22015,서울특별시 송파구 올림픽로 135,37.51673328,127.0898891
2023_22016,서울특별시 송파구 올림픽로 99,37.51512525,127.07813
2023_22017,서울특별시 송파구 올림픽로 99,37.51512525,127.07813
2023_22018,서울특별시 송파구 올림픽로 99,37.51512525,127.07813
2023_22019,서울특별시 송파구 올림픽로 99,37.51512525,127.07813
2023_22020,서울특별시 강남구 선릉로130길 19,37.51703215,127.0429371
2023_22021,서울특별시 영등포구 당산로42길 16,37.53059009,126.899629
2023_22022,서울특별시 동작구 동작대로29길 110,37.48982442,126.9777452
2023_22023,서울특별시 동작구 동작대로29길 110,37.48982442,126.9777452
2023_22024,서울특별시 강남구 선릉로 8,37.48005758,127.0641534
2023_22025,서울특별시 강남구 개포로 264,37.47975035,127.0522282
2023_22026,서울특별시 동작구 만양로 19,37.50707174,126.9457182
2023_22027,서울특별시 동작구 만양로 19,37.50707174,126.9457182
2023_22028,서울특별시 강남구 광평로31길 27,37.48483786,127.089779
2023_22029,서울특별시 강남구 광평로19길 10,37.48548535,127.0866017
2023_22030,서울특별시 양천구 중앙로36길 15,37.52077533,126.8559455
2023_22031,서울특별시 은평구 진관2로 60,37.63391604,126.922797
2023_22032,서울특별시 서대문구 응암로 33,37.57672076,126.908207
2023_22033,서울특별시 은평구 응암로30길 15,37.59597757,126.9216903
2023_22034,서울특별시 양천구 신정로 290,37.51232428,126.8534546
2023_22035,서울특별시 마포구 마포대로 195,37.55243392,126.9542238
2023_22036,서울특별시 강서구 화곡로63가길 71,37.56308148,126.8488956
2023_22037,서울특별시 강서구 수명로1길 110,37.55185777,126.8247079
2023_22038,서울특별시 마포구 백범로 199,37.54352977,126.952771
2023_22039,서울특별시 마포구 백범로37길 12,37.54266755,126.9556543
2023_22040,서울특별시 노원구 노원로22길 71,37.64855942,127.0758816
2023_22041,서울특별시 노원구 중계로 233,37.64989957,127.0757054
2023_22042,서울특별시 구로구 도림로 59,37.4898994,126.8889619
2023_22043,서울특별시 구로구 구로동로22길 78-15,37.48792042,126.8881861
2023_22044,서울특별시 강서구 우현로 67,37.54754619,126.8372075
2023_22045,서울특별시 강서구 허준로 47,37.57101357,126.8465852
2023_22046,서울특별시 강서구 양천로67길 77,37.55553061,126.870358
2023_22047,서울특별시 은평구 진관3로 77,37.64470829,126.9208769
2023_22048,서울특별시 서대문구 통일로 348,37.58126155,126.9528345
2023_22049,서울특별시 노원구 한글비석로54길 92,37.66858528,127.0611197
2023_22050,서울특별시 양천구 목동동로 250,37.52570885,126.8738176
2023_22051,서울특별시 서대문구 가재울미래로 2,37.57440199,126.9179078
2023_22052,서울특별시 서대문구 가재울미래로 2,37.57440199,126.9179078
2023_22053,서울특별시 서대문구 연희로5길 14,37.56406366,126.928065
2023_22054,서울특별시 서대문구 거북골로 120,37.57548326,126.9160975
2023_22055,서울특별시 마포구 독막로20나길 21,37.54686782,126.9269792
2023_22056,서울특별시 은평구 통일로 1034,37.63528107,126.9176562
2023_22057,서울특별시 서대문구 통일로 279-75,37.57498545,126.9511688
2023_22058,서울특별시 은평구 은평터널로 164,37.59386051,126.9086431
2023_22059,서울특별시 서대문구 수색로 100,37.57473348,126.9079161
2023_22060,서울특별시 마포구 독막로28길 7,37.5470388,126.93763
2023_22061,서울특별시 서대문구 북아현로1길 17,37.55866771,126.9534505
2023_22062,서울특별시 은평구 백련산로 37,37.58941333,126.9222745
2023_22063,서울특별시 은평구 통일로 660,37.60590087,126.9361429
2023_22064,서울특별시 마포구 마포대로 195,37.55243392,126.9542238
2023_22065,서울특별시 마포구 마포대로 195,37.55243392,126.9542238
2023_22066,서울특별시 은평구 증산로3길 26-1,37.58148511,126.9023473
2023_22067,서울특별시 마포구 마포대로11길 50,37.55158802,126.9511914
2023_22068,서울특별시 마포구 마포대로20길 26,37.55157265,126.9588609
2023_22069,서울특별시 서대문구 수색로 100,37.57473348,126.9079161
2023_22070,서울특별시 강서구 마곡중앙1로 71,37.55690832,126.8178746
2023_22071,서울특별시 서대문구 홍은중앙로1길 33,37.59719423,126.9450847
2023_22072,서울특별시 은평구 백련산로 36,37.58845665,126.9247675
2023_22073,서울특별시 은평구 통일로 660,37.60590087,126.9361429
2023_22074,서울특별시 서대문구 홍은중앙로3길 9,37.59900178,126.9446543
2023_22075,서울특별시 서대문구 통일로 510,37.59457019,126.9411674
2023_22076,서울특별시 강서구 금낭화로 287-19,37.57680385,126.8102869
2023_22077,서울특별시 노원구 공릉로59길 25,37.63230916,127.0717249
2023_22078,서울특별시 마포구 광성로 17,37.55032087,126.935286
2023_22079,서울특별시 강서구 방화대로47길 55,37.57594012,126.812403
2023_22080,서울특별시 양천구 남부순환로83길 17,37.51653419,126.8408947
2023_22081,서울특별시 강서구 강서로 266,37.54826258,126.8409806
2023_22082,서울특별시 양천구 남부순환로83길 17,37.51653419,126.8408947
2023_22083,서울특별시 강서구 강서로 266,37.54826258,126.8409806
2023_22084,서울특별시 성동구 고산자로 164,37.55506876,127.0354241
2023_22085,서울특별시 노원구 마들로 127,37.62678626,127.0652715
2023_22086,서울특별시 종로구 통일로 246-9,37.57516917,126.9585004
2023_22087,서울특별시 용산구 새창로 70,37.53860305,126.9549435
2023_22088,서울특별시 중구 마른내로 72,37.56354625,126.995815
2023_22089,서울특별시 성동구 무학봉길 35,37.56060557,127.0268748
2023_22090,서울특별시 동대문구 답십리로 130,37.57285496,127.0524012
2023_22091,서울특별시 성동구 독서당로 441,37.55410505,127.0319539
2023_22092,서울특별시 성동구 마장로 271,37.56648427,127.0402766
2023_22093,서울특별시 중랑구 신내로 110,37.60979996,127.0962946
2023_22094,서울특별시 중구 난계로 130,37.56334224,127.0244518
2023_22095,서울특별시 강북구 인수봉로72길 4,37.64179067,127.0123056
2023_22096,서울특별시 중구 청구로 64,37.55996016,127.015451
2023_22097,서울특별시 동대문구 황물로15길 25,37.56656253,127.0571883
2023_22098,서울특별시 용산구 이촌로87길 14,37.51931853,126.9800705
2023_22099,서울특별시 동대문구 한천로 248,37.58323604,127.071898
2023_22100,서울특별시 광진구 아차산로 549,37.54335816,127.1017442
2023_22101,서울특별시 동대문구 장안벚꽃로 167,37.5750721,127.0742821
2023_22102,서울특별시 중랑구 숙선옹주로 45,37.61562144,127.0827355
2023_22103,서울특별시 동대문구 청계천로 417,37.57200714,127.0239066
2023_22104,서울특별시 성동구 왕십리로 410,37.56660293,127.0240825
2023_22105,서울특별시 용산구 원효로90길 11,37.5403958,126.9697185
2023_22106,서울특별시 중랑구 신내로21길 16,37.61680164,127.0868849
2023_22107,서울특별시 중랑구 망우로26길 43,37.59121306,127.0722004
2023_22108,서울특별시 성동구 고산자로 164,37.55506876,127.0354241
2023_22109,서울특별시 용산구 한강대로 211,37.53718336,126.9726003
2023_22110,서울특별시 성북구 숭인로2길 61,37.60935341,127.0249739
2023_22111,서울특별시 성북구 종암로21길 127,37.60281032,127.029324
2023_22112,서울특별시 동대문구 답십리로 141,37.57334306,127.0552818
2023_22113,서울특별시 강동구 상암로 11,37.55344749,127.12566
2023_22114,서울특별시 강동구 상암로 11,37.55344749,127.12566
2023_22115,서울특별시 송파구 송파대로 111,37.47968706,127.1249798
2023_22116,서울특별시 송파구 문정로 83,37.48920432,127.130232
2023_22117,서울특별시 강동구 고덕로 131,37.55516675,127.1438388
2023_22118,서울특별시 강동구 고덕로 131,37.55516675,127.1438388
2023_22119,서울특별시 송파구 동남로 225,37.49800473,127.1308682
2023_22120,서울특별시 송파구 오금로 407,37.4986414,127.1365867
2023_22121,서울특별시 강동구 양재대로 1650,37.55437885,127.1459442
2023_22122,서울특별시 강동구 천호대로 1077,37.53725665,127.1314376
2023_22123,서울특별시 강동구 천호대로 1077,37.53725665,127.1314376
2023_22124,서울특별시 강동구 천중로43길 17,37.54191321,127.1405045
2023_22125,서울특별시 강동구 고덕로 131,37.55516675,127.1438388
2023_22126,서울특별시 송파구 송파대로32길 15,37.49658241,127.1157571
2023_22127,서울특별시 송파구 위례광장로 170,37.47989602,127.1423248
2023_22128,서울특별시 강동구 고덕로 333,37.55617709,127.1591765
2023_22129,서울특별시 송파구 송파대로8길 58,37.48023216,127.1337902
2023_22130,서울특별시 송파구 위례광장로 121,37.47686504,127.1382163
2023_22131,서울특별시 강동구 고덕로 131,37.55516675,127.1438388
2023_22132,서울특별시 강동구 고덕로 130,37.55420667,127.1409011
2023_22133,서울특별시 강동구 고덕로 130,37.55420667,127.1409011
2023_22134,서울특별시 강동구 고덕로80길 99,37.55079267,127.1664048
2023_22135,서울특별시 강동구 천호대로177길 9,37.53505255,127.1372865
2023_22136,서울특별시 강동구 고덕로 399,37.55744052,127.1696789
2023_22137,서울특별시 강동구 구천면로 366,37.55011366,127.1390467
2023_22138,서울특별시 송파구 송파대로8길 20,37.47813402,127.1311867
2023_22139,서울특별시 송파구 송파대로8길 10,37.47689671,127.1291786
2023_22140,서울특별시 송파구 오금로 432,37.49618328,127.1368189
2023_22141,서울특별시 송파구 송파대로 345,37.49761457,127.1025318
2023_22142,서울특별시 강서구 화곡로13길 107,37.54724497,126.8322439
2023_22143,서울특별시 강서구 강서로7길 107,37.52884106,126.8417698
2023_22144,서울특별시 노원구 동일로 1456,37.66067691,127.0614956
2023_22145,서울특별시 노원구 한글비석로 479,37.66449773,127.0644832
2023_22146,서울특별시 노원구 노원로22길 71,37.64855942,127.0758816
2023_22147,서울특별시 마포구 독막로 266,37.54386754,126.9423896
2023_22148,서울특별시 노원구 중계로12길 24,37.6468185,127.0818703
2023_22149,서울특별시 서대문구 수색로 100,37.57473348,126.9079161
2023_22150,서울특별시 강서구 양천로 507,37.5603957,126.8573626
2023_22151,서울특별시 노원구 섬밭로 265,37.63828783,127.0627161
2023_22152,서울특별시 서대문구 북아현로1가길 20,37.55806808,126.9513991
2023_22153,서울특별시 강서구 우현로 67,37.54754619,126.8372075
2023_22154,서울특별시 강서구 월정로20길 78,37.52983312,126.8430266
2023_22155,서울특별시 은평구 통일로 610,37.60198245,126.9359478
2023_22156,서울특별시 강서구 마곡중앙로 33,37.5580501,126.8240802
2023_22157,서울특별시 마포구 월드컵북로47길 46,37.57488209,126.8907326
2023_22158,서울특별시 양천구 목동중앙로 143,37.54153085,126.8757509
2023_22159,서울특별시 마포구 마포대로 195,37.55243392,126.9542238
2023_22160,서울특별시 강서구 금낭화로 162,37.57957912,126.8139843
2023_22161,서울특별시 노원구 한글비석로 151,37.64132911,127.0756184
2023_22162,서울특별시 서대문구 연희로32길 48,37.57586005,126.937263
2023_22163,서울특별시 양천구 화곡로4길 3,37.53897195,126.8274512
2023_22164,서울특별시 마포구 상암산로1길 24,37.57766721,126.8893417
2023_22165,서울특별시 서대문구 증가로 150,37.57805476,126.9210192
2023_22166,서울특별시 노원구 노원로22길 34,37.64636938,127.0727769
2023_22167,서울특별시 노원구 중계로 230,37.65103585,127.075055
2023_22168,서울특별시 은평구 서오릉로 94,37.60952,126.9217002
2023_22169,서울특별시 서대문구 수색로6길 43,37.57256563,126.9124567
2023_22170,서울특별시 마포구 백범로 152,37.54474774,126.9482582
2023_22171,서울특별시 구로구 도림로3길 35-3,37.48685327,126.8868657
2023_22172,서울특별시 양천구 목동서로 130,37.53151635,126.8709047
2023_22173,서울특별시 양천구 목동서로 38,37.54129134,126.8785038
2023_22174,서울특별시 구로구 경인로 643,37.50884988,126.8855536
2023_22175,서울특별시 양천구 오목로 300,37.5248304,126.8700225
2023_22176,서울특별시 마포구 백범로 152,37.54474774,126.9482582
2023_22177,서울특별시 은평구 통일로 610,37.60198245,126.9359478
2023_22178,서울특별시 송파구 잠실로 62,37.50801505,127.0902835
2023_22179,서울특별시 송파구 올림픽로 99,37.51512525,127.07813
2023_22180,서울특별시 강남구 개포로109길 9,37.49575182,127.0751013
2023_22181,서울특별시 서초구 헌릉로8길 58,37.45324439,127.0624773
2023_22182,서울특별시 동작구 여의대방로 22,37.49109691,126.9118137
2023_22183,서울특별시 영등포구 여의나루로 7,37.52033261,126.9206805
2023_22184,서울특별시 서초구 서초중앙로 26,37.48468721,127.0169918
2023_22185,서울특별시 강남구 삼성로 11,37.48444021,127.0679602
2023_22186,서울특별시 영등포구 여의나루로 7,37.52033261,126.9206805
2023_22187,서울특별시 강남구 언주로30길 56,37.48806952,127.0534832
2023_22188,서울특별시 영등포구 여의대방로 25,37.49471168,126.9089784
2023_22189,서울특별시 관악구 관악로30길 12,37.48413576,126.9606073
2023_22190,서울특별시 강남구 삼성로 150,37.49569534,127.0685647
2023_22191,서울특별시 강남구 양재대로55길 12,37.49362958,127.0897076
2023_22192,서울특별시 강남구 압구정로 321,37.52951197,127.0383765
2023_22193,서울특별시 송파구 토성로 37,37.53109771,127.1155537
2023_22194,서울특별시 송파구 올림픽로43길 34,37.5249191,127.1144437
2023_22195,서울특별시 강남구 광평로47길 17,37.48790865,127.0981863
2023_22196,서울특별시 동작구 사당로17길 52,37.4874249,126.9731525
2023_22197,서울특별시 서초구 서운로 62,37.48943855,127.0284204
2023_22198,서울특별시 서초구 명달로9길 57,37.47934362,127.0024889
2023_22199,서울특별시 서초구 명달로9길 57,37.47934362,127.0024889
2023_22200,서울특별시 동작구 동작대로29길 119,37.49088863,126.9760567
2023_22201,서울특별시 강남구 학동로77길 49,37.52212834,127.0475662
2023_22202,서울특별시 영등포구 도신로29길 28,37.51175428,126.9023257
2023_22203,서울특별시 동작구 여의대방로44길 10,37.50736122,126.9260908
2023_22204,서울특별시 영등포구 가마산로 312,37.49747457,126.8943168
2023_22205,서울특별시 영등포구 당산로41길 23,37.5314949,126.8966246
2023_22206,서울특별시 강남구 개포로 264,37.47975035,127.0522282
2023_22207,서울특별시 구로구 경인로47길 128,37.50458538,126.8639211
2023_22208,서울특별시 강남구 언주로136길 21,37.51784971,127.0373875
2023_22209,서울특별시 강남구 압구정로 151,37.52678582,127.024455
2023_22210,서울특별시 강남구 논현로 213,37.49154881,127.0409542
2023_22211,서울특별시 서초구 서초중앙로29길 28,37.49997334,127.0087056
2023_22212,서울특별시 서초구 방배로33길 29,37.49124224,126.9892705
2023_22213,서울특별시 노원구 석계로 49,37.61721774,127.0625099
2023_22214,서울특별시 성북구 길음로 119,37.61049908,127.0163726
2023_22215,서울특별시 성동구 왕십리로 16,37.53925787,127.0446715
2023_22216,서울특별시 중랑구 동일로91길 23,37.58194768,127.0785833
2023_22217,서울특별시 중구 마른내로 72,37.56354625,126.995815
2023_22218,서울특별시 성북구 숭인로8길 80,37.60947628,127.02711
2023_22219,서울특별시 성동구 금호로 117,37.55306047,127.0214356
2023_22220,서울특별시 동대문구 한천로 248,37.58323604,127.071898
2023_22221,서울특별시 성북구 숭인로 50,37.61198667,127.028784
2023_22222,서울특별시 용산구 이촌로54길 16,37.52091899,126.967188
2023_22223,서울특별시 중랑구 신내로7나길 24,37.6013558,127.0928005
2023_22224,서울특별시 성북구 종암로24가길 53,37.60084117,127.0379642
2023_22225,서울특별시 성북구 종암로5길 26,37.59479891,127.0339276
2023_22226,서울특별시 광진구 아차산로70길 62,37.54037666,127.0989953
2023_22227,서울특별시 성북구 오패산로 46,37.60747384,127.0387095
2023_22228,서울특별시 성북구 장월로 160,37.61792081,127.0522544
2023_22229,서울특별시 성동구 독서당로40길 25,37.5433496,127.0193024
2023_22230,서울특별시 성북구 아리랑로 75,37.59883026,127.0136255
2023_22231,서울특별시 성동구 독서당로 218,37.54262944,127.0155544
2023_22232,서울특별시 종로구 돈화문로11가길 59,37.5751119,126.9900576
2023_22233,서울특별시 노원구 섬밭로 139,37.63028158,127.0657021
2023_22234,서울특별시 광진구 아차산로 549,37.54335816,127.1017442
2023_22235,서울특별시 성동구 행당로 31,37.55599544,127.0230168
2023_22236,서울특별시 성북구 보문사길 111,37.58287311,127.0178911
2023_22237,서울특별시 중구 통일로 86,37.56310596,126.9695695
2023_22238,서울특별시 중구 청계천로 400,37.57081055,127.0214639
2023_22239,서울특별시 중구 청계천로 400,37.57081055,127.0214639
2023_22240,서울특별시 광진구 아차산로 503-23,37.5431621,127.0956083
2023_22241,서울특별시 성동구 고산자로26길 11,37.57082432,127.0388148
2023_22242,서울특별시 성북구 북악산로 813,37.60113925,127.0149455
2023_22243,서울특별시 동대문구 천호대로47길 62,37.57460986,127.044158
2023_22244,서울특별시 동대문구 한천로58길 47,37.60075075,127.0687695
2023_22245,서울특별시 강북구 솔샘로 159,37.62182327,127.0124075
2023_22246,서울특별시 강북구 삼양로19길 113,37.61705556,127.0177233
2023_22247,서울특별시 용산구 효창원로 88,37.53665117,126.9590341
2023_22248,서울특별시 강북구 숭인로 39,37.61274096,127.0269652
2023_22249,서울특별시 동대문구 장안벚꽃로 107,37.57105683,127.0751137
2023_22250,서울특별시 동대문구 서울시립대로 14,37.57207425,127.0472735
2023_22251,서울특별시 용산구 백범로 341,37.53793867,126.9679734
2023_22252,서울특별시 동대문구 답십리로56길 105,37.56777026,127.0584014
2023_22253,서울특별시 동대문구 전농로3길 20,37.56886566,127.0564296
2023_22254,서울특별시 종로구 통일로 246-20,37.5769322,126.9618517
2023_22255,서울특별시 용산구 이촌로87길 21,37.52030091,126.9786385
2023_22256,서울특별시 성동구 금호로 100,37.55453147,127.0261866
2023_22257,서울특별시 광진구 능동로 69,37.53784123,127.0689943
2023_22258,서울특별시 중랑구 망우로75길 19,37.60172625,127.1048961
2023_22259,서울특별시 도봉구 덕릉로60바길 21,37.63901231,127.0409746
2023_22260,서울특별시 성동구 매봉길 50,37.54729891,127.0121894
2023_22261,서울특별시 성동구 매봉길 50,37.54729891,127.0121894
2023_22262,서울특별시 중구 다산로 32,37.54715055,127.0057062
2023_22263,서울특별시 중랑구 봉우재로 165-1,37.59399171,127.0913257
2023_22264,서울특별시 강북구 삼양로27길 19,37.61612381,127.0217414
2023_22265,서울특별시 강북구 솔샘로 174,37.61763836,127.0105997
2023_22266,서울특별시 강북구 솔샘로 174,37.61763836,127.0105997
2023_22267,서울특별시 강북구 솔샘로 174,37.61763836,127.0105997
2023_22268,서울특별시 용산구 한강대로62길 32,37.53343809,126.9730586
2023_22269,서울특별시 도봉구 마들로 859-19,37.68604183,127.0467647
2023_22270,서울특별시 중구 청파로 464,37.56081879,126.9682259
2023_22271,서울특별시 중랑구 신내로19길 42,37.61410176,127.0910347
2023_22272,서울특별시 동대문구 외대역동로 14,37.59096838,127.0686732
2023_22273,서울특별시 성북구 월계로36길 27,37.62144228,127.0463268
2023_22274,서울특별시 성북구 한천로 713,37.62129906,127.0518475
2023_22275,서울특별시 성북구 돌곶이로40길 46,37.61982239,127.0496604
2023_22276,서울특별시 성동구 독서당로 431,37.55371005,127.0329489
2023_22277,서울특별시 용산구 백범로 341,37.53793867,126.9679734
2023_22278,서울특별시 노원구 동일로198가길 13,37.62980243,127.0726188
2023_22279,서울특별시 성동구 행당로 82,37.55480888,127.0273997
2023_22280,서울특별시 성북구 성북로4길 52,37.59447253,127.012706
2023_22281,서울특별시 성북구 서경로 60,37.60992599,127.0154584
2023_22282,서울특별시 동대문구 답십리로41길 33,37.57322241,127.0535453
2023_22283,서울특별시 동대문구 답십리로 130,37.57285496,127.0524012
2023_22284,서울특별시 성동구 왕십리로 16,37.53925787,127.0446715
2023_22285,서울특별시 노원구 마들로3길 37,37.62860679,127.0627968
2023_22286,서울특별시 노원구 마들로 31,37.61872537,127.0670846
2023_22287,서울특별시 노원구 마들로 31,37.61872537,127.0670846
2023_22288,서울특별시 중랑구 숙선옹주로 91,37.61726537,127.0855444
2023_22289,서울특별시 성북구 오패산로 90,37.60994709,127.0369136
2023_22290,서울특별시 양천구 목동동로 100,37.51498201,126.8651323
2023_22291,서울특별시 마포구 월드컵북로 260,37.57306208,126.9010479
2023_22292,서울특별시 강서구 우현로 67,37.54754619,126.8372075
2023_22293,서울특별시 강서구 우현로 67,37.54754619,126.8372075
2023_22294,서울특별시 강서구 우현로 67,37.54754619,126.8372075
2023_22295,서울특별시 강서구 강서로 266,37.54826258,126.8409806
2023_22296,서울특별시 마포구 서강대길 40,37.54919004,126.9411697
2023_22297,서울특별시 노원구 노원로22길 71,37.64855942,127.0758816
2023_22298,서울특별시 노원구 동일로207길 17,37.64273683,127.0641728
2023_22299,서울특별시 마포구 도화4길 41,37.54013309,126.9520954
2023_22300,서울특별시 노원구 동일로227길 25,37.66689676,127.0560392
2023_22301,서울특별시 노원구 동일로 1456,37.66067691,127.0614956
2023_22302,서울특별시 강서구 양천로47길 94,37.57444181,126.8372073
2023_22303,서울특별시 강서구 공항대로 103,37.56226697,126.819206
2023_22304,서울특별시 강서구 허준로 47,37.57101357,126.8465852
2023_22305,서울특별시 은평구 불광로 64,37.61313205,126.9324706
2023_22306,서울특별시 구로구 가마산로 271,37.4963996,126.890291
2023_22307,서울특별시 강서구 우장산로2길 25,37.55357778,126.8376303
2023_22308,서울특별시 양천구 중앙로29길 61,37.51954197,126.848125
2023_22309,서울특별시 강서구 화곡로66길 80,37.55628767,126.8573413
2023_22310,서울특별시 강서구 금낭화로 287-19,37.57680385,126.8102869
2023_22311,서울특별시 마포구 대흥로24길 24,37.55396071,126.9476103
2023_22312,서울특별시 마포구 백범로 152,37.54474774,126.9482582
2023_22313,서울특별시 은평구 통일로 610,37.60198245,126.9359478
2023_22314,서울특별시 마포구 월드컵북로47길 46,37.57488209,126.8907326
2023_22315,서울특별시 양천구 목동서로 70,37.53704736,126.8764175
2023_22316,서울특별시 서대문구 증가로 191,37.57849683,126.9173923
2023_22317,서울특별시 양천구 남부순환로83길 47,37.51884602,126.8445769
2023_22318,서울특별시 강서구 허준로 47,37.57101357,126.8465852
2023_22319,서울특별시 은평구 진관2로 57-7,37.63437375,126.9232361
2023_22320,서울특별시 은평구 연서로44길 7,37.6282682,126.9355441
2023_22321,서울특별시 양천구 목동동로 50,37.51209479,126.8602911
2023_22322,서울특별시 양천구 목동동로 100,37.51498201,126.8651323
2023_22323,서울특별시 양천구 목동동로 100,37.51498201,126.8651323
2023_22324,서울특별시 강동구 천호대로193길 37,37.53753608,127.1435606
2023_22325,서울특별시 송파구 송이로31길 56,37.49086162,127.1363837
2023_22326,서울특별시 송파구 송파대로 111,37.47968706,127.1249798
2023_22327,서울특별시 강동구 고덕로 131,37.55516675,127.1438388
2023_22328,서울특별시 송파구 오금로32길 42,37.50336425,127.1177008
2023_22329,서울특별시 강동구 천호대로 1077,37.53725665,127.1314376
2023_22330,서울특별시 강동구 풍성로 127,37.53207383,127.1262281
2023_22331,서울특별시 강동구 천중로50길 48-12,37.5391494,127.1418579
2023_22332,서울특별시 강동구 아리수로97길 20,37.56851427,127.1781372
2023_22333,서울특별시 강동구 상일로 55,37.55331821,127.1687882
2023_22334,서울특별시 서초구 서운로 62,37.48943855,127.0284204
2023_22335,서울특별시 서초구 서운로 62,37.48943855,127.0284204
2023_22336,서울특별시 동작구 여의대방로 28,37.49527344,126.9116905
2023_22337,서울특별시 영등포구 버드나루로 130,37.5305725,126.9080121
2023_22338,서울특별시 영등포구 여의대방로61길 6,37.51438599,126.925371
2023_22339,서울특별시 영등포구 여의대방로35가길 19,37.50373534,126.9174406
2023_22340,서울특별시 서초구 남부순환로 2614,37.48447416,127.0366745
2023_22341,서울특별시 서초구 잠원로 166-4,37.51730271,127.0110745
2023_22342,서울특별시 서초구 잠원로 157,37.51779029,127.0105556
2023_22343,서울특별시 영등포구 63로 45,37.52135273,126.9373261
2023_22344,서울특별시 영등포구 의사당대로 110,37.52040134,126.9246364
2023_22345,서울특별시 영등포구 국제금융로7길 20,37.52273255,126.9337309
2023_22346,서울특별시 영등포구 여의나루로 12,37.51966965,126.9216224
2023_22347,서울특별시 송파구 잠실로 88,37.50753416,127.0932143
2023_22348,서울특별시 송파구 잠실로 88,37.50753416,127.0932143
2023_22349,서울특별시 송파구 올림픽로 135,37.51673328,127.0898891
2023_22350,서울특별시 송파구 올림픽로 135,37.51673328,127.0898891
2023_22351,서울특별시 금천구 금하로 750,37.44907344,126.9136586
2023_22352,서울특별시 강남구 선릉로 221,37.49420684,127.0497348
2023_22353,서울특별시 관악구 행운10길 21,37.48225902,126.9621511
2023_22354,서울특별시 강남구 개포로 264,37.47975035,127.0522282
2023_22355,서울특별시 강남구 선릉로 8,37.48005758,127.0641534
2023_22356,서울특별시 동작구 노량진로23가길 23,37.51330347,126.9517825
2023_22357,서울특별시 강남구 선릉로 221,37.49420684,127.0497348
2023_22358,서울특별시 강남구 선릉로 221,37.49420684,127.0497348
2023_22359,서울특별시 송파구 올림픽로 435,37.5213593,127.1049717
2023_22360,서울특별시 서초구 잠원로 157,37.51779029,127.0105556
2023_22361,서울특별시 강남구 선릉로130길 19,37.51703215,127.0429371
2023_22362,서울특별시 송파구 올림픽로35길 104,37.51981736,127.0992977
2023_22363,서울특별시 강남구 개포로109길 9,37.49575182,127.0751013
2023_22364,서울특별시 영등포구 경인로114길 12,37.51833843,126.9143727
2023_22365,서울특별시 영등포구 경인로114길 12,37.51833843,126.9143727
2023_22366,서울특별시 구로구 중앙로12길 12,37.50495917,126.8618782
2023_22367,서울특별시 동작구 동작대로29길 115,37.49041718,126.9758253
2023_22368,서울특별시 동작구 남부순환로255나길 8,37.47697732,126.97155
2023_22369,서울특별시 금천구 시흥대로 165,37.44790332,126.9007227
2023_22370,서울특별시 구로구 중앙로12길 12,37.50495917,126.8618782
2023_22371,서울특별시 구로구 중앙로5길 62,37.50293473,126.8607486
2023_22372,서울특별시 송파구 올림픽로 525,37.53011301,127.1193553
2023_22373,서울특별시 강남구 자곡로3길 45,37.47224324,127.09066
2023_22374,서울특별시 강남구 개포로110길 50,37.48954101,127.0796242
2023_22375,서울특별시 구로구 개봉로20길 6,37.49288023,126.8593081
2023_22376,서울특별시 동작구 동작대로39길 22,37.49463598,126.981966
2023_22377,서울특별시 금천구 한내로 69-54,37.46021679,126.8858148
2023_22378,서울특별시 강남구 언주로130길 30,37.51508569,127.0382684
2023_22379,서울특별시 서초구 신반포로33길 15,37.50904433,127.0095245
2023_22380,서울특별시 구로구 항동로 42,37.47791788,126.8251357
2023_22381,서울특별시 관악구 봉천로 387,37.48376028,126.9427012
2023_22382,서울특별시 강남구 도곡로78길 22,37.49663573,127.0588476
2023_22383,서울특별시 강남구 테헤란로 428,37.50569199,127.0541832
2023_22384,서울특별시 관악구 관악로 304,37.49205057,126.957711
2023_22385,서울특별시 관악구 관악로 304,37.49205057,126.957711
2023_22386,서울특별시 영등포구 신길로61길 28,37.51582995,126.9097749
2023_22387,서울특별시 서초구 양재대로2길 90,37.45760527,127.0175705
2023_22388,서울특별시 금천구 독산로 78-1,37.45457051,126.9069992
2023_22389,서울특별시 관악구 관악로 304,37.49205057,126.957711
2023_22390,서울특별시 관악구 은천로 93,37.48735272,126.9454289
2023_22391,서울특별시 강남구 삼성로 212,37.49961577,127.0659154
2023_22392,서울특별시 영등포구 여의동로3길 10,37.51811729,126.925196
2023_22393,서울특별시 강남구 자곡로 175,37.47427422,127.1026422
2023_22394,서울특별시 송파구 올림픽로 135,37.51673328,127.0898891
2023_22395,서울특별시 동작구 동작대로39길 22,37.49463598,126.981966
2023_22396,서울특별시 동작구 동작대로39길 22,37.49463598,126.981966
2023_22397,서울특별시 강남구 삼성로51길 35,37.49490423,127.0601787
2023_22398,서울특별시 강남구 영동대로138길 12,37.52410147,127.0572498
2023_22399,서울특별시 서초구 서초대로 17,37.48602729,126.9844082
2023_22400,서울특별시 송파구 잠실로 88,37.50753416,127.0932143
2023_22401,서울특별시 관악구 봉천로 387,37.48376028,126.9427012
2023_22402,서울특별시 관악구 참숯1길 19,37.47730422,126.9423824
2023_22403,서울특별시 관악구 관악로 195,37.48256382,126.9530987
2023_22404,서울특별시 영등포구 디지털로 420,37.49340383,126.9049351
2023_22405,서울특별시 관악구 관악로30길 12,37.48413576,126.9606073
2023_22406,서울특별시 동작구 만양로 6,37.5049819,126.9467885
2023_22407,서울특별시 영등포구 국제금융로7길 1,37.5231724,126.9311803
2023_22408,서울특별시 동작구 장승배기로4길 9,37.5014493,126.9438142
2023_22409,서울특별시 강남구 선릉로 120,37.49159304,127.0579797
2023_22410,서울특별시 금천구 시흥대로 291,37.45995605,126.8966992
2023_22411,서울특별시 동작구 동작대로29길 115,37.49041718,126.9758253
2023_22412,서울특별시 강남구 테헤란로52길 16,37.50250061,127.046384
2023_22413,서울특별시 강남구 언주로130길 30,37.51508569,127.0382684
2023_22414,서울특별시 강남구 선릉로130길 20,37.51566608,127.0433438
2023_22415,서울특별시 송파구 올림픽로35길 104,37.51981736,127.0992977
2023_22416,서울특별시 영등포구 신풍로 77,37.50041961,126.9115445
2023_22417,서울특별시 강남구 언주로30길 57,37.48945731,127.0539647
2023_22418,서울특별시 서초구 신반포로 270,37.50786022,127.011582
2023_22419,서울특별시 강남구 광평로31길 27,37.48483786,127.089779
2023_22420,서울특별시 강남구 도곡로78길 22,37.49663573,127.0588476
2023_22421,서울특별시 양천구 목동중앙북로 38,37.54790385,126.8669548
2023_22422,서울특별시 은평구 응암로30길 15,37.59597757,126.9216903
2023_22423,서울특별시 강서구 방화대로48길 40,37.57425563,126.8201679
2023_22424,서울특별시 양천구 신정로 260,37.51119304,126.8519831
2023_22425,서울특별시 양천구 신정로 293,37.51430989,126.8550432
2023_22426,서울특별시 노원구 동일로207길 186,37.63795562,127.0598022
2023_22427,서울특별시 노원구 한글비석로 91,37.63982606,127.0711674
2023_22428,서울특별시 양천구 목동서로 400,37.51500787,126.8578385
2023_22429,서울특별시 강서구 우현로 67,37.54754619,126.8372075
2023_22430,서울특별시 노원구 섬밭로 265,37.63828783,127.0627161
2023_22431,서울특별시 노원구 덕릉로71길 30,37.6508593,127.0696948
2023_22432,서울특별시 노원구 한글비석로14길 8,37.65747634,127.0774342
2023_22433,서울특별시 노원구 중계로 230,37.65103585,127.075055
2023_22434,서울특별시 서대문구 독립문로8길 54,37.56879093,126.9584744
2023_22435,서울특별시 서대문구 홍제천로 136,37.57513727,126.9275107
2023_22436,서울특별시 노원구 노원로 532,37.66462073,127.0598242
2023_22437,서울특별시 노원구 노원로 532,37.66462073,127.0598242
2023_22438,서울특별시 서대문구 가재울미래로 2,37.57440199,126.9179078
2023_22439,서울특별시 마포구 독막로42길 2,37.5436033,126.9458539
2023_22440,서울특별시 은평구 백련산로 37,37.58941333,126.9222745
2023_22441,서울특별시 강서구 마곡서1로 131,37.56847265,126.8183172
2023_22442,서울특별시 양천구 남부순환로83길 17,37.51653419,126.8408947
2023_22443,서울특별시 강서구 양천로 507,37.5603957,126.8573626
2023_22444,서울특별시 마포구 만리재로 113,37.55027838,126.9604849
2023_22445,서울특별시 은평구 백련산로 37,37.58941333,126.9222745
2023_22446,서울특별시 구로구 신도림로 78,37.50938921,126.8847002
2023_22447,서울특별시 구로구 신도림로 78,37.50938921,126.8847002
2023_22448,서울특별시 은평구 은평터널로 167,37.59365608,126.90727
2023_22449,서울특별시 양천구 목동로 212,37.52924989,126.8670932
2023_22450,서울특별시 양천구 목동동로 350,37.53515661,126.8818744
2023_22451,서울특별시 마포구 상암산로1길 24,37.57766721,126.8893417
2023_22452,서울특별시 마포구 상암산로1길 24,37.57766721,126.8893417
2023_22453,서울특별시 양천구 목동서로 38,37.54129134,126.8785038
2023_22454,서울특별시 은평구 통일로 660,37.60590087,126.9361429
2023_22455,서울특별시 은평구 증산로 285,37.58310763,126.9083126
2023_22456,서울특별시 양천구 곰달래로11길 21,37.53137735,126.8356775
2023_22457,서울특별시 강서구 강서로 266,37.54826258,126.8409806
2023_22458,서울특별시 강서구 강서로47마길 71,37.55013325,126.8326532
2023_22459,서울특별시 구로구 구로동로12길 52,37.4888493,126.8867141
2023_22460,서울특별시 용산구 한강대로 205,37.53668353,126.9728087
2023_22461,서울특별시 도봉구 마들로 859-19,37.68604183,127.0467647
2023_22462,서울특별시 노원구 동일로198가길 13,37.62980243,127.0726188
2023_22463,서울특별시 성북구 성북로4길 52,37.59447253,127.012706
2023_22464,서울특별시 동대문구 겸재로 24,37.58449258,127.0709746
2023_22465,서울특별시 종로구 숭인동길 21,37.57578476,127.0209594
2023_22466,서울특별시 동대문구 사가정로 65,37.57550604,127.0496959
2023_22467,서울특별시 성북구 월곡로14길 26,37.60023402,127.0426519
2023_22468,서울특별시 동대문구 천호대로97길 9,37.56136855,127.0699154
2023_22469,서울특별시 성동구 금호로 140,37.55371603,127.021929
2023_22470,서울특별시 종로구 통일로18길 9,37.57767072,126.9553549
2023_22471,서울특별시 성동구 독서당로 343,37.54981177,127.0270079
2023_22472,서울특별시 성동구 성수일로8길 47,37.54678648,127.055596
2023_22473,서울특별시 노원구 초안산로1길 18,37.62915542,127.0516038
2023_22474,서울특별시 용산구 이촌로87길 14,37.51931853,126.9800705
2023_22475,서울특별시 성동구 무학봉28길 3-1,37.56241872,127.0326673
2023_22476,서울특별시 광진구 광나루로 382,37.54746,127.0720651
2023_22477,서울특별시 중랑구 상봉중앙로8길 76,37.60270473,127.0914659
2023_22478,서울특별시 성동구 행당로 82,37.55480888,127.0273997
2023_22479,서울특별시 노원구 섬밭로 139,37.63028158,127.0657021
2023_22480,서울특별시 도봉구 시루봉로2길 90,37.6549784,127.0328394
2023_22481,서울특별시 동대문구 고산자로 534,37.58839329,127.0392185
2023_22482,서울특별시 노원구 공릉로51길 14-17,37.62903928,127.0756554
2023_22483,서울특별시 강북구 솔샘로 174,37.61763836,127.0105997
2023_22484,서울특별시 성동구 독서당로 431,37.55371005,127.0329489
2023_22485,서울특별시 성동구 독서당로62길 43,37.55190095,127.0335265
2023_22486,서울특별시 성북구 성북로4길 52,37.59447253,127.012706
2023_22487,서울특별시 광진구 천호대로 716,37.54827528,127.0935711
2023_22488,서울특별시 동대문구 한천로58길 47,37.60075075,127.0687695
2023_22489,서울특별시 동대문구 답십리로56길 105,37.56777026,127.0584014
2023_22490,서울특별시 성동구 행당로 82,37.55480888,127.0273997
2023_22491,서울특별시 성북구 종암로24가길 53,37.60084117,127.0379642
2023_22492,서울특별시 송파구 송파대로8길 10,37.47689671,127.1291786
2023_22493,서울특별시 강동구 구천면로42길 16,37.54537415,127.1344457
2023_22494,서울특별시 강동구 천호대로 1077,37.53725665,127.1314376
2023_22495,서울특별시 강동구 아리수로50길 50,37.55768646,127.1485777
2023_22496,서울특별시 강동구 상암로 251,37.54859381,127.1506883
2023_22497,서울특별시 강동구 천호대로175길 10,37.53510852,127.1369564
2023_22498,서울특별시 강동구 천호대로175길 10,37.53510852,127.1369564
2023_22499,서울특별시 강동구 아리수로93가길 110,37.57378021,127.1731798
2023_22500,서울특별시 강동구 구천면로 278,37.54464714,127.1338815
2023_22501,서울특별시 송파구 위례광장로 163,37.4796684,127.1393228
2023_22502,서울특별시 송파구 오금로 551,37.49318241,127.1503678
2023_22503,서울특별시 송파구 오금로35길 17,37.5063971,127.1273634
2023_22504,서울특별시 송파구 위례성대로 176,37.51063671,127.1287586
2023_22505,서울특별시 강동구 천중로 253,37.54090932,127.1479462
2023_22506,서울특별시 강동구 천호대로 1092,37.53524776,127.1326638
2023_22507,서울특별시 송파구 문정로 125,37.49237912,127.1340033
2023_22508,서울특별시 송파구 동남로 193,37.49469823,127.1292231
2023_22509,서울특별시 송파구 송파대로32길 33,37.49833241,127.1163372
2023_22510,서울특별시 송파구 송파대로 345,37.49761457,127.1025318
2023_22511,서울특별시 강동구 아리수로98길 25,37.56529058,127.1782119
2023_22512,서울특별시 강동구 천호대로186길 23-9,37.53267365,127.1426682
2023_22513,서울특별시 송파구 송파대로 345,37.49761457,127.1025318
2023_22514,서울특별시 강동구 상암로 11,37.55344749,127.12566
2023_22515,서울특별시 강서구 양천로6길 28,37.57102749,126.8063998
2023_22516,서울특별시 강서구 곰달래로18길 3,37.529992,126.8415018
2023_22517,서울특별시 은평구 불광로 64,37.61313205,126.9324706
2023_22518,서울특별시 서대문구 이화여대길 50-12,37.55945396,126.9465196
2023_22519,서울특별시 강서구 강서로 490,37.56909256,126.8418057
2023_22520,서울특별시 마포구 마포대로 195,37.55243392,126.9542238
2023_22521,서울특별시 양천구 신월로 99,37.5184159,126.8351572
2023_22522,서울특별시 구로구 경인로65길 16-15,37.50935488,126.8865614
2023_22523,서울특별시 강서구 강서로 490,37.56909256,126.8418057
2023_22524,서울특별시 은평구 응암로18길 18-9,37.59185795,126.9200529
2023_22525,서울특별시 양천구 오목로 300,37.5248304,126.8700225
2023_22526,서울특별시 마포구 토정로 158,37.54516126,126.9280535
2023_22527,서울특별시 양천구 남부순환로83길 47,37.51884602,126.8445769
2023_22528,서울특별시 노원구 동일로208길 20,37.64325657,127.0669948
2023_22529,서울특별시 양천구 오목로7길 25,37.52408568,126.8410408
2023_22530,서울특별시 마포구 서강로 95,37.55204413,126.9321001
2023_22531,서울특별시 구로구 구일로4길 22,37.49116709,126.8756454
2023_22532,서울특별시 서대문구 북아현로1가길 20,37.55806808,126.9513991
2023_22533,서울특별시 은평구 증산로13길 44-5,37.58760013,126.9076967
2023_22534,서울특별시 서대문구 증가로 150,37.57805476,126.9210192
2023_22535,서울특별시 마포구 독막로42길 2,37.5436033,126.9458539
2023_22536,서울특별시 마포구 창전로2길 10,37.54783172,126.9340479
2023_22537,서울특별시 강서구 양천로 507,37.5603957,126.8573626
2023_22538,서울특별시 구로구 구로중앙로7길 28,37.49124272,126.8894496
2023_22539,서울특별시 노원구 중계로 233,37.64989957,127.0757054
2023_22540,서울특별시 강서구 양천로 125,37.57384876,126.8172458
2023_22541,서울특별시 구로구 디지털로31길 85,37.48589832,126.890629
2023_22542,서울특별시 구로구 도림로 59,37.4898994,126.8889619
2023_22543,서울특별시 강남구 압구정로 201,37.53153417,127.0292731
2023_22544,서울특별시 영등포구 국회대로54길 10,37.52365869,126.9064302
2023_22545,서울특별시 영등포구 여의동로 213,37.51859533,126.9396296
2023_22546,서울특별시 영등포구 여의나루로 126,37.52616298,126.9328532
2023_22547,서울특별시 영등포구 국회대로76가길 11,37.53081566,126.9239329
2023_22548,서울특별시 영등포구 국제금융로7길 32,37.52330855,126.9338821
2023_22549,서울특별시 영등포구 국제금융로 108-6,37.51875341,126.9327114
2023_22550,서울특별시 영등포구 국제금융로 108-6,37.51875341,126.9327114
2023_22551,서울특별시 강남구 일원로14길 25,37.48476112,127.0808748
2023_22552,서울특별시 서초구 신반포로 270,37.50786022,127.011582
2023_22553,서울특별시 서초구 신반포로 270,37.50786022,127.011582
2023_22554,서울특별시 동작구 상도로 346-1,37.49678998,126.9516675
2023_22555,서울특별시 동작구 양녕로 220,37.50069236,126.9455364
2023_22556,서울특별시 동작구 상도로53길 8,37.50086276,126.9540532
2023_22557,서울특별시 금천구 독산로 78-1,37.45457051,126.9069992
2023_22558,서울특별시 동작구 현충로 52,37.5096318,126.9622042
2023_22559,서울특별시 강남구 선릉로69길 20,37.49874723,127.0509235
2023_22560,서울특별시 강남구 선릉로69길 20,37.49874723,127.0509235
2023_22561,서울특별시 강남구 삼성로 212,37.49961577,127.0659154
2023_22562,서울특별시 강남구 도곡로78길 22,37.49663573,127.0588476
2023_22563,서울특별시 송파구 잠실로 88,37.50753416,127.0932143
2023_22564,서울특별시 송파구 올림픽로 135,37.51673328,127.0898891
2023_22565,서울특별시 송파구 올림픽로 135,37.51673328,127.0898891
2023_22566,서울특별시 송파구 송파대로 567,37.51313818,127.0930487
2023_22567,서울특별시 동작구 사당로23길 112,37.48779573,126.9734721
2023_22568,서울특별시 영등포구 당산로 214,37.53293123,126.902834
2023_22569,서울특별시 서초구 효령로 391,37.48932255,127.024591
2023_22570,서울특별시 서초구 사임당로 137,37.4916905,127.0245324
2023_22571,서울특별시 서초구 사임당로 137,37.4916905,127.0245324
2023_22572,서울특별시 서초구 서초대로74길 30,37.49509032,127.0268041
2023_22573,서울특별시 동작구 여의대방로44길 10,37.50736122,126.9260908
2023_22574,서울특별시 영등포구 신길로 108,37.50218174,126.9124361
2023_22575,서울특별시 영등포구 버드나루로 97,37.52691647,126.9083063
2023_22576,서울특별시 영등포구 버드나루로 130,37.5305725,126.9080121
2023_22577,서울특별시 영등포구 문래로 82,37.51919147,126.8910328
2023_22578,서울특별시 구로구 고척로22길 84,37.49814512,126.8468094
2023_22579,서울특별시 구로구 남부순환로95길 88,37.49532522,126.8517306
2023_22580,서울특별시 송파구 올림픽로35길 94,37.51851995,127.1039749
2023_22581,서울특별시 영등포구 영등포로12길 8,37.52235537,126.887037
2023_22582,서울특별시 영등포구 선유서로 115,37.52618309,126.885347
2023_22583,서울특별시 관악구 성현로 80,37.48984744,126.9529855
2023_22584,서울특별시 관악구 성현로 80,37.48984744,126.9529855
2023_22585,서울특별시 강남구 자곡로 101,37.47265508,127.0958055
2023_22586,서울특별시 도봉구 노해로69길 103,37.65778635,127.0492757
2023_22587,서울특별시 성동구 금호로 140,37.55371603,127.021929
2023_22588,서울특별시 노원구 화랑로 443,37.61828027,127.0765852
2023_22589,서울특별시 동대문구 사가정로 65,37.57550604,127.0496959
2023_22590,서울특별시 동대문구 약령시로 25,37.583147,127.0316997
2023_22591,서울특별시 성북구 북악산로 813,37.60113925,127.0149455
2023_22592,서울특별시 성북구 숭인로8길 80,37.60947628,127.02711
2023_22593,서울특별시 성북구 길음로 119,37.61049908,127.0163726
2023_22594,서울특별시 중랑구 신내역로1길 85,37.61680909,127.1062937
2023_22595,서울특별시 동대문구 정릉천동로 16,37.57346786,127.0353065
2023_22596,서울특별시 도봉구 마들로 859-19,37.68604183,127.0467647
2023_22597,서울특별시 동대문구 한천로63길 10,37.6049031,127.0637064
2023_22598,서울특별시 성북구 성북로4길 52,37.59447253,127.012706
2023_22599,서울특별시 용산구 이촌로65가길 51,37.5219938,126.9736746
2023_22600,서울특별시 성동구 뚝섬로1길 4,37.54143112,127.0468855
2023_22601,서울특별시 중랑구 사가정로71길 19,37.5808369,127.0950526
2023_22602,서울특별시 강북구 오패산로30길 30,37.61635558,127.0356712
2023_22603,서울특별시 성동구 금호로 140,37.55371603,127.021929
2023_22604,서울특별시 노원구 광운로2나길 30,37.61615154,127.0607264
2023_22605,서울특별시 노원구 마들로 31,37.61872537,127.0670846
2023_22606,서울특별시 성북구 성북로4길 52,37.59447253,127.012706
2023_22607,서울특별시 동대문구 장안벚꽃로1길 7,37.5763379,127.0745726
2023_22608,서울특별시 동대문구 장안벚꽃로1길 7,37.5763379,127.0745726
2023_22609,서울특별시 동대문구 장안벚꽃로 167,37.5750721,127.0742821
2023_22610,서울특별시 광진구 아차산로 503-23,37.5431621,127.0956083
2023_22611,서울특별시 중구 마른내로 126-1,37.56438847,127.0019569
2023_22612,서울특별시 성북구 안암로9나길 14,37.58227743,127.0246218
2023_22613,서울특별시 성북구 오패산로16가길 40,37.60990552,127.0386975
2023_22614,서울특별시 강북구 4.19로9길 17,37.64623537,127.0097641
2023_22615,서울특별시 동대문구 천호대로 257,37.56895705,127.0505799
2023_22616,서울특별시 동대문구 전농로10길 20,37.57460947,127.0601291
2023_22617,서울특별시 동대문구 답십리로56길 21,37.57006932,127.0598603
2023_22618,서울특별시 광진구 광나루로 369,37.54846108,127.0710495
2023_22619,서울특별시 성동구 왕십리로 410,37.56660293,127.0240825
2023_22620,서울특별시 동대문구 한천로58길 47,37.60075075,127.0687695
2023_22621,서울특별시 광진구 아차산로70길 62,37.54037666,127.0989953
2023_22622,서울특별시 중구 퇴계로75길 7,37.56575366,127.0154437
2023_22623,서울특별시 성북구 성북로4길 52,37.59447253,127.012706
2023_22624,서울특별시 성북구 성북로4길 52,37.59447253,127.012706
2023_22625,서울특별시 동대문구 답십리로 130,37.57285496,127.0524012
2023_22626,서울특별시 성북구 화랑로48길 16,37.61376289,127.0689946
2023_22627,서울특별시 성동구 독서당로39길 33,37.54090663,127.0097737
2023_22628,서울특별시 성북구 개운사길 83-15,37.59044759,127.0287636
2023_22629,서울특별시 성동구 행당로 82,37.55480888,127.0273997
2023_22630,서울특별시 종로구 종로66길 28,37.57353124,127.0217078
2023_22631,서울특별시 성동구 고산자로4길 34,37.55265337,127.03686
2023_22632,서울특별시 성동구 금호로 140,37.55371603,127.021929
2023_22633,서울특별시 성북구 개운사길 83-15,37.59044759,127.0287636
2023_22634,서울특별시 강북구 오패산로30길 30,37.61635558,127.0356712
2023_22635,서울특별시 도봉구 도당로 37,37.66150368,127.0337612
2023_22636,서울특별시 도봉구 해등로 242-12,37.65866831,127.0307242
2023_22637,서울특별시 중랑구 망우로 304,37.59614433,127.0863473
2023_22638,서울특별시 중랑구 봉화산로48길 62,37.60347534,127.0936543
2023_22639,서울특별시 성동구 고산자로4길 34,37.55265337,127.03686
2023_22640,서울특별시 성북구 개운사길 83-15,37.59044759,127.0287636
2023_22641,서울특별시 성동구 고산자로4길 34,37.55265337,127.03686
2023_22642,서울특별시 도봉구 덕릉로66길 17,37.64371212,127.0539524
2023_22643,서울특별시 종로구 경교장길 35,37.56885372,126.9651149
2023_22644,서울특별시 중랑구 숙선옹주로 45,37.61562144,127.0827355
2023_22645,서울특별시 노원구 마들로 31,37.61872537,127.0670846
2023_22646,서울특별시 성북구 보문로29다길 31,37.58417735,127.0126186
2023_22647,서울특별시 성북구 개운사길 83-15,37.59044759,127.0287636
2023_22648,서울특별시 성북구 서경로 60,37.60992599,127.0154584
2023_22649,서울특별시 동대문구 사가정로 148,37.57665904,127.0615677
2023_22650,서울특별시 광진구 아차산로 549,37.54335816,127.1017442
2023_22651,서울특별시 도봉구 도봉로180길 6-83,37.6812386,127.0492684
2023_22652,서울특별시 도봉구 마들로 684-19,37.67521459,127.048765
2023_22653,서울특별시 노원구 월계로55길 15,37.63239642,127.059849
2023_22654,서울특별시 용산구 이촌로87길 14,37.51931853,126.9800705
2023_22655,서울특별시 동대문구 답십리로 130,37.57285496,127.0524012
2023_22656,서울특별시 노원구 덕릉로 780,37.66669198,127.079126
2023_22657,서울특별시 강서구 강서로7길 86,37.52939713,126.8429631
2023_22658,서울특별시 강서구 수명로1길 16,37.55204782,126.8225609
2023_22659,서울특별시 강서구 우장산로2길 21-27,37.55372182,126.839061
2023_22660,서울특별시 강서구 강서로45나길 15,37.54871001,126.8351963
2023_22661,서울특별시 서대문구 응암로 28,37.57627162,126.9098441
2023_22662,서울특별시 은평구 증산로 291,37.5834678,126.908609
2023_22663,서울특별시 은평구 백련산로 67,37.59279721,126.9216198
2023_22664,서울특별시 강서구 방화대로44길 42,37.57135761,126.8175428
2023_22665,서울특별시 노원구 덕릉로71길 30,37.6508593,127.0696948
2023_22666,서울특별시 서대문구 증가로30길 8,37.583238,126.9130687
2023_22667,서울특별시 구로구 도림로3길 35-3,37.48685327,126.8868657
2023_22668,서울특별시 마포구 마포대로 195,37.55243392,126.9542238
2023_22669,서울특별시 강서구 양천로6길 57,37.56965202,126.8078287
2023_22670,서울특별시 구로구 경인로65길 16-15,37.50935488,126.8865614
2023_22671,서울특별시 강서구 양천로 507,37.5603957,126.8573626
2023_22672,서울특별시 마포구 월드컵북로47길 46,37.57488209,126.8907326
2023_22673,서울특별시 서대문구 통일로34길 46,37.5858576,126.9499746
2023_22674,서울특별시 서대문구 가재울미래로 2,37.57440199,126.9179078
2023_22675,서울특별시 서대문구 홍제천로 204,37.57929656,126.9354818
2023_22676,서울특별시 노원구 노원로 532,37.66462073,127.0598242
2023_22677,서울특별시 노원구 동일로 1456,37.66067691,127.0614956
2023_22678,서울특별시 노원구 노해로 508,37.65470356,127.066191
2023_22679,서울특별시 노원구 동일로213길 21,37.6477074,127.0600103
2023_22680,서울특별시 마포구 서강로9길 19,37.55289736,126.9322264
2023_22681,서울특별시 은평구 진관3로 70,37.64225983,126.9231411
2023_22682,서울특별시 노원구 중계로 230,37.65103585,127.075055
2023_22683,서울특별시 양천구 곰달래로2길 16,37.52794741,126.8343168
2023_22684,서울특별시 양천구 신월로20길 7,37.51928262,126.8460734
2023_22685,서울특별시 양천구 가로공원로 82,37.53520757,126.8249996
2023_22686,서울특별시 마포구 대흥로24길 24,37.55396071,126.9476103
2023_22687,서울특별시 마포구 백범로 230,37.54181716,126.9546186
2023_22688,서울특별시 강동구 양재대로134길 87,37.54868085,127.1489071
2023_22689,서울특별시 강동구 천호대로 1077,37.53725665,127.1314376
2023_22690,서울특별시 강동구 고덕로80길 99,37.55079267,127.1664048
2023_22691,서울특별시 송파구 송파대로32길 15,37.49658241,127.1157571
2023_22692,서울특별시 송파구 송파대로 345,37.49761457,127.1025318
2023_22693,서울특별시 강동구 천호대로 1077,37.53725665,127.1314376
2023_22694,서울특별시 송파구 중대로 24,37.48812575,127.1110591
2023_22695,서울특별시 강동구 고덕로 360,37.55668291,127.1695273
2023_22696,서울특별시 강동구 고덕로 131,37.55516675,127.1438388
2023_22697,서울특별시 송파구 양산로4길 16,37.48920968,127.1449643
2023_22698,서울특별시 송파구 송파대로 345,37.49761457,127.1025318
2023_22699,서울특별시 강동구 고덕로 360,37.55668291,127.1695273
2023_22700,서울특별시 강동구 진황도로61길 7,37.52940171,127.1438252
2023_22701,서울특별시 관악구 봉천로12길 39,37.4870239,126.9301109
2023_22702,서울특별시 관악구 봉천로12길 39,37.4870239,126.9301109
2023_22703,서울특별시 관악구 봉천로12길 39,37.4870239,126.9301109
2023_22704,서울특별시 관악구 봉천로12길 39,37.4870239,126.9301109
2023_22705,서울특별시 관악구 봉천로12길 39,37.4870239,126.9301109
2023_22706,서울특별시 관악구 봉천로12길 39,37.4870239,126.9301109
2023_22707,서울특별시 관악구 봉천로12길 39,37.4870239,126.9301109
2023_22708,서울특별시 영등포구 영중로 145,37.52995985,126.90508
2023_22709,서울특별시 관악구 봉천로12길 39,37.4870239,126.9301109
2023_22710,서울특별시 관악구 봉천로12길 39,37.4870239,126.9301109
2023_22711,서울특별시 관악구 봉천로12길 39,37.4870239,126.9301109
2023_22712,서울특별시 관악구 봉천로12길 39,37.4870239,126.9301109
2023_22713,서울특별시 관악구 봉천로12길 39,37.4870239,126.9301109
2023_22714,서울특별시 관악구 봉천로12길 39,37.4870239,126.9301109
2023_22715,서울특별시 관악구 봉천로12길 39,37.4870239,126.9301109
2023_22716,서울특별시 관악구 봉천로12길 39,37.4870239,126.9301109
2023_22717,서울특별시 관악구 봉천로12길 39,37.4870239,126.9301109
2023_22718,서울특별시 관악구 봉천로12길 39,37.4870239,126.9301109
2023_22719,서울특별시 관악구 봉천로12길 39,37.4870239,126.9301109
2023_22720,서울특별시 관악구 봉천로12길 39,37.4870239,126.9301109
2023_22721,서울특별시 관악구 봉천로12길 39,37.4870239,126.9301109
2023_22722,서울특별시 관악구 봉천로12길 39,37.4870239,126.9301109
2023_22723,서울특별시 관악구 봉천로12길 39,37.4870239,126.9301109
2023_22724,서울특별시 관악구 봉천로12길 39,37.4870239,126.9301109
2023_22725,서울특별시 관악구 봉천로12길 39,37.4870239,126.9301109
2023_22726,서울특별시 관악구 봉천로12길 39,37.4870239,126.9301109
2023_22727,서울특별시 관악구 봉천로12길 39,37.4870239,126.9301109
2023_22728,서울특별시 관악구 봉천로12길 39,37.4870239,126.9301109
2023_22729,서울특별시 관악구 봉천로12길 39,37.4870239,126.9301109
2023_22730,서울특별시 관악구 봉천로12길 39,37.4870239,126.9301109
2023_22731,서울특별시 관악구 봉천로12길 39,37.4870239,126.9301109
2023_22732,서울특별시 관악구 봉천로12길 39,37.4870239,126.9301109
2023_22733,서울특별시 관악구 봉천로12길 39,37.4870239,126.9301109
2023_22734,서울특별시 관악구 봉천로12길 39,37.4870239,126.9301109
2023_22735,서울특별시 관악구 봉천로12길 39,37.4870239,126.9301109
2023_22736,서울특별시 관악구 봉천로12길 39,37.4870239,126.9301109
2023_22737,서울특별시 관악구 봉천로12길 39,37.4870239,126.9301109
2023_22738,서울특별시 관악구 봉천로12길 39,37.4870239,126.9301109
2023_22739,서울특별시 관악구 봉천로12길 39,37.4870239,126.9301109
2023_22740,서울특별시 관악구 봉천로12길 39,37.4870239,126.9301109
2023_22741,서울특별시 관악구 봉천로12길 39,37.4870239,126.9301109
2023_22742,서울특별시 관악구 봉천로12길 39,37.4870239,126.9301109
2023_22743,서울특별시 관악구 봉천로12길 39,37.4870239,126.9301109
2023_22744,서울특별시 관악구 봉천로12길 39,37.4870239,126.9301109
2023_22745,서울특별시 관악구 봉천로12길 39,37.4870239,126.9301109
2023_22746,서울특별시 관악구 봉천로12길 39,37.4870239,126.9301109
2023_22747,서울특별시 관악구 봉천로12길 39,37.4870239,126.9301109
2023_22748,서울특별시 관악구 봉천로12길 39,37.4870239,126.9301109
2023_22749,서울특별시 관악구 봉천로12길 39,37.4870239,126.9301109
2023_22750,서울특별시 관악구 봉천로12길 39,37.4870239,126.9301109
2023_22751,서울특별시 관악구 봉천로12길 39,37.4870239,126.9301109
2023_22752,서울특별시 관악구 봉천로12길 39,37.4870239,126.9301109
2023_22753,서울특별시 관악구 봉천로12길 39,37.4870239,126.9301109
2023_22754,서울특별시 관악구 봉천로12길 39,37.4870239,126.9301109
2023_22755,서울특별시 관악구 봉천로12길 39,37.4870239,126.9301109
2023_22756,서울특별시 관악구 봉천로12길 39,37.4870239,126.9301109
2023_22757,서울특별시 관악구 봉천로12길 39,37.4870239,126.9301109
2023_22758,서울특별시 관악구 봉천로12길 39,37.4870239,126.9301109
2023_22759,서울특별시 관악구 봉천로12길 39,37.4870239,126.9301109
2023_22760,서울특별시 관악구 봉천로12길 39,37.4870239,126.9301109
2023_22761,서울특별시 관악구 봉천로12길 39,37.4870239,126.9301109
2023_22762,서울특별시 관악구 신사로 134,37.48878884,126.9167063
2023_22763,서울특별시 서초구 서초중앙로24길 57,37.49697279,127.0194178
2023_22764,서울특별시 관악구 봉천로12길 39,37.4870239,126.9301109
2023_22765,서울특별시 관악구 봉천로12길 39,37.4870239,126.9301109
2023_22766,서울특별시 관악구 봉천로12길 39,37.4870239,126.9301109
2023_22767,서울특별시 관악구 봉천로12길 39,37.4870239,126.9301109
2023_22768,서울특별시 관악구 봉천로12길 39,37.4870239,126.9301109
2023_22769,서울특별시 관악구 봉천로12길 39,37.4870239,126.9301109
2023_22770,서울특별시 관악구 봉천로12길 39,37.4870239,126.9301109
2023_22771,서울특별시 관악구 봉천로12길 39,37.4870239,126.9301109
2023_22772,서울특별시 관악구 봉천로12길 39,37.4870239,126.9301109
2023_22773,서울특별시 관악구 봉천로12길 39,37.4870239,126.9301109
2023_22774,서울특별시 관악구 봉천로12길 39,37.4870239,126.9301109
2023_22775,서울특별시 관악구 봉천로12길 39,37.4870239,126.9301109
2023_22776,서울특별시 서초구 효령로 391,37.48932255,127.024591
2023_22777,서울특별시 관악구 보라매로5길 5,37.49238829,126.9253587
2023_22778,서울특별시 관악구 관악로40길 60,37.49331457,126.9607896
2023_22779,서울특별시 관악구 관악로40길 60,37.49331457,126.9607896
2023_22780,서울특별시 서초구 신반포로33길 15,37.50904433,127.0095245
2023_22781,서울특별시 동작구 보라매로5가길 16,37.4912751,126.9240947
2023_22782,서울특별시 영등포구 여의동로3길 10,37.51811729,126.925196
2023_22783,서울특별시 서초구 서초중앙로 188,37.49735041,127.013538
2023_22784,서울특별시 영등포구 국제금융로7길 20,37.52273255,126.9337309
2023_22785,서울특별시 영등포구 당산로 95,37.52402305,126.894863
2023_22786,서울특별시 송파구 백제고분로18길 30,37.50269143,127.0821835
2023_22787,서울특별시 송파구 올림픽로 99,37.51512525,127.07813
2023_22788,서울특별시 송파구 잠실로 88,37.50753416,127.0932143
2023_22789,서울특별시 송파구 잠실로 88,37.50753416,127.0932143
2023_22790,서울특별시 송파구 잠실로 88,37.50753416,127.0932143
2023_22791,서울특별시 서초구 서초중앙로 188,37.49735041,127.013538
2023_22792,서울특별시 서초구 서초중앙로24길 43,37.49594752,127.0189851
2023_22793,서울특별시 영등포구 국제금융로7길 27,37.52426326,126.9330953
2023_22794,서울특별시 영등포구 국제금융로7길 27,37.52426326,126.9330953
2023_22795,서울특별시 영등포구 영등포로62길 42,37.51656799,126.913539
2023_22796,서울특별시 강남구 일원로14길 25,37.48476112,127.0808748
2023_22797,서울특별시 강남구 개포로110길 50,37.48954101,127.0796242
2023_22798,서울특별시 강남구 영동대로 22,37.49109411,127.074164
2023_22799,서울특별시 서초구 사평대로 240,37.50288909,127.0073188
2023_22800,서울특별시 구로구 항동로 43,37.47894239,126.8245712
2023_22801,서울특별시 금천구 금하로 816,37.44977863,126.9200208
2023_22802,서울특별시 서초구 서초중앙로 15,37.48301089,127.0156416
2023_22803,서울특별시 강남구 영동대로 210,37.49885567,127.0713671
2023_22804,서울특별시 관악구 봉천로12길 39,37.4870239,126.9301109
2023_22805,서울특별시 관악구 봉천로12길 39,37.4870239,126.9301109
2023_22806,서울특별시 송파구 올림픽로 435,37.5213593,127.1049717
2023_22807,서울특별시 강남구 언주로30길 21,37.48886577,127.0520146
2023_22808,서울특별시 강남구 논현로 205,37.48794787,127.0406182
2023_22809,서울특별시 강남구 언주로 123,37.48760335,127.0497551
2023_22810,서울특별시 강남구 언주로 118,37.48691597,127.0518555
2023_22811,서울특별시 강남구 개포로109길 9,37.49575182,127.0751013
2023_22812,서울특별시 강남구 개포로 264,37.47975035,127.0522282
2023_22813,서울특별시 영등포구 대림로29길 13,37.49530067,126.8980583
2023_22814,서울특별시 강남구 광평로51길 27,37.48961473,127.1007301
2023_22815,서울특별시 동작구 만양로 19,37.50707174,126.9457182
2023_22816,서울특별시 관악구 봉천로12길 39,37.4870239,126.9301109
2023_22817,서울특별시 관악구 봉천로12길 39,37.4870239,126.9301109
2023_22818,서울특별시 관악구 봉천로12길 39,37.4870239,126.9301109
2023_22819,서울특별시 서초구 효령로 84,37.47982045,126.9933557
2023_22820,서울특별시 동작구 현충로 52,37.5096318,126.9622042
2023_22821,서울특별시 관악구 봉천로12길 39,37.4870239,126.9301109
2023_22822,서울특별시 관악구 봉천로12길 39,37.4870239,126.9301109
2023_22823,서울특별시 관악구 봉천로12길 39,37.4870239,126.9301109
2023_22824,서울특별시 관악구 봉천로12길 39,37.4870239,126.9301109
2023_22825,서울특별시 관악구 봉천로12길 39,37.4870239,126.9301109
2023_22826,서울특별시 관악구 봉천로12길 39,37.4870239,126.9301109
2023_22827,서울특별시 관악구 봉천로12길 39,37.4870239,126.9301109
2023_22828,서울특별시 관악구 봉천로12길 39,37.4870239,126.9301109
2023_22829,서울특별시 관악구 봉천로12길 39,37.4870239,126.9301109
2023_22830,서울특별시 관악구 봉천로12길 39,37.4870239,126.9301109
2023_22831,서울특별시 관악구 봉천로12길 39,37.4870239,126.9301109
2023_22832,서울특별시 관악구 봉천로12길 39,37.4870239,126.9301109
2023_22833,서울특별시 관악구 봉천로12길 39,37.4870239,126.9301109
2023_22834,서울특별시 강남구 삼성로 212,37.49961577,127.0659154
2023_22835,서울특별시 영등포구 영신로 237,37.5287757,126.9028077
2023_22836,서울특별시 영등포구 당산로 214,37.53293123,126.902834
2023_22837,서울특별시 영등포구 영신로 247,37.5304831,126.9028128
2023_22838,서울특별시 구로구 중앙로5길 24,37.50137485,126.8616178
2023_22839,서울특별시 동작구 상도로 346-1,37.49678998,126.9516675
2023_22840,서울특별시 관악구 관악로 195,37.48256382,126.9530987
2023_22841,서울특별시 동작구 노량진로23가길 23,37.51330347,126.9517825
2023_22842,서울특별시 서초구 신반포로33길 15,37.50904433,127.0095245
2023_22843,서울특별시 강남구 자곡로 175,37.47427422,127.1026422
2023_22844,서울특별시 강남구 광평로19길 10,37.48548535,127.0866017
2023_22845,서울특별시 영등포구 여의대방로35가길 19,37.50373534,126.9174406
2023_22846,서울특별시 강남구 자곡로 175,37.47427422,127.1026422
2023_22847,서울특별시 동작구 현충로 52,37.5096318,126.9622042
2023_22848,서울특별시 동작구 장승배기로4길 9,37.5014493,126.9438142
2023_22849,서울특별시 마포구 백범로37길 12,37.54266755,126.9556543
2023_22850,서울특별시 마포구 독막로 266,37.54386754,126.9423896
2023_22851,서울특별시 마포구 마포대로20길 26,37.55157265,126.9588609
2023_22852,서울특별시 은평구 불광로2길 33,37.61282127,126.9354737
2023_22853,서울특별시 은평구 백련산로 67,37.59279721,126.9216198
2023_22854,서울특별시 강서구 양천로75길 19,37.55181162,126.8740724
2023_22855,서울특별시 노원구 동일로 1389,37.65256166,127.0606568
2023_22856,서울특별시 마포구 백범로25길 63,37.54933876,126.9467788
2023_22857,서울특별시 서대문구 가재울미래로 2,37.57440199,126.9179078
2023_22858,서울특별시 은평구 응암로30길 16,37.59522857,126.9193946
2023_22859,서울특별시 노원구 노원로 62,37.62769787,127.0872999
2023_22860,서울특별시 종로구 새문안로3길 23,37.57263082,126.9724408
2023_22861,서울특별시 동대문구 외대역동로 14,37.59096838,127.0686732
2023_22862,서울특별시 성북구 오패산로16가길 40,37.60990552,127.0386975
2023_22863,서울특별시 동대문구 회기로26길 15,37.58997355,127.0542271
2023_22864,서울특별시 광진구 아차산로 537-17,37.54296206,127.099659
2023_22865,서울특별시 송파구 송파대로 345,37.49761457,127.1025318
2023_22866,서울특별시 송파구 송파대로32길 15,37.49658241,127.1157571
2023_22867,서울특별시 강동구 고덕로 131,37.55516675,127.1438388
2023_22868,서울특별시 강동구 고덕로 333,37.55617709,127.1591765
2023_22869,서울특별시 강동구 고덕로 333,37.55617709,127.1591765
2023_22870,서울특별시 강동구 암사13길 7,37.55237986,127.1364056
2023_22871,서울특별시 강동구 양재대로 1650,37.55437885,127.1459442
2023_22872,서울특별시 송파구 오금로 551,37.49318241,127.1503678
2023_22873,서울특별시 강동구 고덕로80길 99,37.55079267,127.1664048
2023_22874,서울특별시 송파구 위례성대로2길 13,37.51576852,127.1133118
2023_22875,서울특별시 송파구 위례성대로8길 13,37.51346772,127.1192593
2023_22876,서울특별시 송파구 송이로31길 56,37.49086162,127.1363837
2023_22877,서울특별시 송파구 오금로32길 31,37.50298368,127.1194889
2023_22878,서울특별시 송파구 오금로32길 14,37.50525374,127.1178045
2023_22879,서울특별시 송파구 오금로32길 14,37.50525374,127.1178045
2023_22880,서울특별시 강동구 천호대로 1077,37.53725665,127.1314376
2023_22881,서울특별시 강동구 천호대로 1055,37.53836972,127.1294245
2023_22882,서울특별시 강동구 구천면로41길 79,37.54740659,127.1299635
2023_22883,서울특별시 강동구 구천면로41길 79,37.54740659,127.1299635
2023_22884,서울특별시 강동구 성내로 20,37.52970906,127.122638
2023_22885,서울특별시 강동구 성내로 80,37.52717962,127.1279653
2023_22886,서울특별시 강동구 풍성로 128,37.52994395,127.1259811
2023_22887,서울특별시 강동구 상암로51길 54,37.54936336,127.1465279
2023_22888,서울특별시 강동구 고덕로 210,37.5538093,127.147061
2023_22889,서울특별시 송파구 송파대로8길 42,37.4787578,127.1321394
2023_22890,서울특별시 강동구 고덕로 131,37.55516675,127.1438388
2023_22891,서울특별시 강동구 고덕로 131,37.55516675,127.1438388
2023_22892,서울특별시 강동구 고덕로 131,37.55516675,127.1438388
2023_22893,서울특별시 강동구 암사19길 25,37.55182509,127.1403557
2023_22894,서울특별시 강동구 상암로 11,37.55344749,127.12566
2023_22895,서울특별시 강동구 상암로 11,37.55344749,127.12566
2023_22896,서울특별시 강동구 고덕로 333,37.55617709,127.1591765
2023_22897,서울특별시 강동구 고덕로 333,37.55617709,127.1591765
2023_22898,서울특별시 강동구 고덕로 399,37.55744052,127.1696789
2023_22899,서울특별시 송파구 송파대로 345,37.49761457,127.1025318
2023_22900,서울특별시 강동구 상일로 55,37.55331821,127.1687882
2023_22901,서울특별시 강동구 상일로 55,37.55331821,127.1687882
2023_22902,서울특별시 강서구 강서로 266,37.54826258,126.8409806
2023_22903,서울특별시 마포구 큰우물로 28,37.54387896,126.9415929
2023_22904,서울특별시 노원구 동일로208길 20,37.64325657,127.0669948
2023_22905,서울특별시 은평구 가좌로12길 12,37.5980727,126.9080308
2023_22906,서울특별시 서대문구 증가로 191,37.57849683,126.9173923
2023_22907,서울특별시 서대문구 증가로 191,37.57849683,126.9173923
2023_22908,서울특별시 마포구 백범로 199,37.54352977,126.952771
2023_22909,서울특별시 노원구 덕릉로 613,37.65217998,127.0731
2023_22910,서울특별시 서대문구 북아현로22길 24,37.56494784,126.9539172
2023_22911,서울특별시 서대문구 이화여대8길 62,37.55972348,126.9507324
2023_22912,서울특별시 구로구 디지털로31길 90,37.48873032,126.8920535
2023_22913,서울특별시 마포구 토정로32길 11,37.53984722,126.9409866
2023_22914,서울특별시 노원구 덕릉로73길 28,37.65247558,127.0719352
2023_22915,서울특별시 노원구 중계로 230,37.65103585,127.075055
2023_22916,서울특별시 구로구 신도림로 11,37.50727521,126.878181
2023_22917,서울특별시 구로구 신도림로 105,37.51215759,126.8853091
2023_22918,서울특별시 마포구 마포대로7길 22,37.54919304,126.9515251
2023_22919,서울특별시 마포구 마포대로7길 22,37.54919304,126.9515251
2023_22920,서울특별시 마포구 마포대로20길 26,37.55157265,126.9588609
2023_22921,서울특별시 노원구 동일로214길 21,37.65043289,127.0627594
2023_22922,서울특별시 양천구 목동서로 340,37.51942468,126.8640382
2023_22923,서울특별시 마포구 도화길 28,37.53960372,126.9496292
2023_22924,서울특별시 양천구 신정로7길 76,37.51350715,126.8360663
2023_22925,서울특별시 은평구 통일로 610,37.60198245,126.9359478
2023_22926,서울특별시 노원구 동일로208길 19,37.64559563,127.0656766
2023_22927,서울특별시 노원구 노원로30길 81,37.65668487,127.0712093
2023_22928,서울특별시 은평구 가좌로 344,37.59791864,126.9074653
2023_22929,서울특별시 노원구 동일로 1456,37.66067691,127.0614956
2023_22930,서울특별시 마포구 숭문길 106,37.55092488,126.9467959
2023_22931,서울특별시 양천구 신월로 99,37.5184159,126.8351572
2023_22932,서울특별시 서대문구 이화여대8길 62,37.55972348,126.9507324
2023_22933,서울특별시 마포구 만리재로 74,37.54645194,126.9589123
2023_22934,서울특별시 서대문구 독립문로8길 54,37.56879093,126.9584744
2023_22935,서울특별시 노원구 노원로22길 34,37.64636938,127.0727769
2023_22936,서울특별시 서대문구 세검정로1길 35,37.59363936,126.9439082
2023_22937,서울특별시 강서구 양천로10길 38,37.57100528,126.8086413
2023_22938,서울특별시 양천구 남부순환로83길 47,37.51884602,126.8445769
2023_22939,서울특별시 노원구 한글비석로 530,37.66693298,127.0591649
2023_22940,서울특별시 강서구 강서로 266,37.54826258,126.8409806
2023_22941,서울특별시 양천구 목동서로 280,37.52234027,126.8675633
2023_22942,서울특별시 노원구 노원로22길 34,37.64636938,127.0727769
2023_22943,서울특별시 양천구 목동서로 70,37.53704736,126.8764175
2023_22944,서울특별시 양천구 목동로 212,37.52924989,126.8670932
2023_22945,서울특별시 양천구 목동동로 240,37.52614419,126.872786
2023_22946,서울특별시 은평구 은평로 123,37.60055197,126.9215191
2023_22947,서울특별시 은평구 응암로30길 16,37.59522857,126.9193946
2023_22948,서울특별시 은평구 백련산로 6,37.58614561,126.9232295
2023_22949,서울특별시 은평구 응암로 319,37.59971094,126.9214509
2023_22950,서울특별시 마포구 마포대로 195,37.55243392,126.9542238
2023_22951,서울특별시 마포구 방울내로 37,37.55899722,126.8991892
2023_22952,서울특별시 노원구 상계로1길 92,37.65993024,127.0620579
2023_22953,서울특별시 양천구 목동동로 100,37.51498201,126.8651323
2023_22954,서울특별시 노원구 노원로22길 53,37.64784506,127.0729868
2023_22955,서울특별시 강서구 마곡서1로 81,37.56436639,126.8191544
2023_22956,서울특별시 마포구 마포대로 33,37.53998479,126.9454475
2023_22957,서울특별시 관악구 관악로30길 27,37.48896635,126.9606433
2023_22958,서울특별시 강남구 자곡로 21,37.46734665,127.0932645
2023_22959,서울특별시 강남구 삼성로111길 8,37.51473151,127.0517391
2023_22960,서울특별시 구로구 오리로13길 105,37.48671028,126.8299556
2023_22961,서울특별시 영등포구 문래로8길 5,37.51987702,126.8864189
2023_22962,서울특별시 강남구 개포로109길 9,37.49575182,127.0751013
2023_22963,서울특별시 동작구 사당로16다길 57,37.48268743,126.9692541
2023_22964,서울특별시 동작구 동작대로29길 91,37.48802893,126.9765166
2023_22965,서울특별시 강남구 개포로109길 9,37.49575182,127.0751013
2023_22966,서울특별시 강남구 삼성로 11,37.48444021,127.0679602
2023_22967,서울특별시 영등포구 당산로42길 7,37.53066658,126.9003635
2023_22968,서울특별시 강남구 개포로 264,37.47975035,127.0522282
2023_22969,서울특별시 영등포구 양산로25길 12,37.5246219,126.8989366
2023_22970,서울특별시 강남구 광평로47길 17,37.48790865,127.0981863
2023_22971,서울특별시 송파구 올림픽로 435,37.5213593,127.1049717
2023_22972,서울특별시 송파구 올림픽로35길 104,37.51981736,127.0992977
2023_22973,서울특별시 관악구 관악로 285,37.48936831,126.9551316
2023_22974,서울특별시 동작구 사당로23길 112,37.48779573,126.9734721
2023_22975,서울특별시 관악구 관악로30길 12,37.48413576,126.9606073
2023_22976,서울특별시 관악구 관악로30길 12,37.48413576,126.9606073
2023_22977,서울특별시 송파구 올림픽로43길 34,37.5249191,127.1144437
2023_22978,서울특별시 송파구 한가람로 448,37.53750523,127.1152272
2023_22979,서울특별시 동작구 매봉로 99,37.50920747,126.9491303
2023_22980,서울특별시 동작구 현충로 52,37.5096318,126.9622042
2023_22981,서울특별시 서초구 명달로1길 51,37.4781929,127.0038603
2023_22982,서울특별시 서초구 서초대로1길 34,37.49063982,126.983719
2023_22983,서울특별시 동작구 등용로 127,37.51255874,126.9309884
2023_22984,서울특별시 구로구 경인로 382,37.496373,126.8630822
2023_22985,서울특별시 동작구 사당로23길 112,37.48779573,126.9734721
2023_22986,서울특별시 동작구 사당로 158,37.48738002,126.9667674
2023_22987,서울특별시 동작구 사당로 158,37.48738002,126.9667674
2023_22988,서울특별시 강남구 개포로 264,37.47975035,127.0522282
2023_22989,서울특별시 영등포구 도영로 2-5,37.50714272,126.894325
2023_22990,서울특별시 영등포구 여의대방로61길 50,37.51623169,126.9211997
2023_22991,서울특별시 영등포구 여의대방로61길 50,37.51623169,126.9211997
2023_22992,서울특별시 영등포구 여의대방로61길 50,37.51623169,126.9211997
2023_22993,서울특별시 영등포구 신길로 29,37.49451383,126.9061165
2023_22994,서울특별시 영등포구 도신로29길 28,37.51175428,126.9023257
2023_22995,서울특별시 영등포구 신길로 276,37.51610581,126.9127311
2023_22996,서울특별시 영등포구 양평로28가길 44,37.54366909,126.8887583
2023_22997,서울특별시 강남구 압구정로 151,37.52678582,127.024455
2023_22998,서울특별시 강남구 개포로110길 15,37.49324377,127.0791148
2023_22999,서울특별시 강남구 개포로110길 50,37.48954101,127.0796242
2023_23000,서울특별시 강남구 선릉로 221,37.49420684,127.0497348
2023_23001,서울특별시 강남구 논현로 213,37.49154881,127.0409542
2023_23002,서울특별시 서초구 고무래로 89,37.5009526,127.0185009
2023_23003,서울특별시 강남구 언주로 332,37.49822233,127.0473954
2023_23004,서울특별시 강남구 도곡로57길 12,37.49666944,127.0512877
2023_23005,서울특별시 구로구 연동로13길 25,37.48506387,126.8195703
2023_23006,서울특별시 강남구 역삼로34길 12,37.49634534,127.0421895
2023_23007,서울특별시 영등포구 국회대로54길 10,37.52365869,126.9064302
2023_23008,서울특별시 금천구 금하로 816,37.44977863,126.9200208
2023_23009,서울특별시 구로구 중앙로5길 62,37.50293473,126.8607486
2023_23010,서울특별시 관악구 신림로3길 40,37.46678342,126.9418862
2023_23011,서울특별시 관악구 문성로 74,37.47675611,126.9120581
2023_23012,서울특별시 관악구 관악로28길 80,37.48352492,126.9591453
2023_23013,서울특별시 관악구 청룡10길 45,37.47723093,126.9430557
2023_23014,서울특별시 관악구 성현로 80,37.48984744,126.9529855
2023_23015,서울특별시 관악구 성현로 80,37.48984744,126.9529855
2023_23016,서울특별시 동작구 노량진로23가길 23,37.51330347,126.9517825
2023_23017,서울특별시 서초구 서초중앙로 200,37.50045322,127.0156476
2023_23018,서울특별시 영등포구 경인로114길 6,37.51839657,126.9136605
2023_23019,서울특별시 강남구 광평로47길 17,37.48790865,127.0981863
2023_23020,서울특별시 동대문구 한천로 248,37.58323604,127.071898
2023_23021,서울특별시 광진구 아차산로 503-23,37.5431621,127.0956083
2023_23022,서울특별시 성북구 아리랑로 75,37.59883026,127.0136255
2023_23023,서울특별시 중구 동호로20가길 38,37.55975663,127.006858
2023_23024,서울특별시 중구 동호로20가길 38,37.55975663,127.006858
2023_23025,서울특별시 성동구 마장로 137,37.56782502,127.0250536
2023_23026,서울특별시 성동구 마장로 137,37.56782502,127.0250536
2023_23027,서울특별시 중랑구 신내역로1길 85,37.61680909,127.1062937
2023_23028,서울특별시 강북구 솔샘로 174,37.61763836,127.0105997
2023_23029,서울특별시 강북구 솔샘로 174,37.61763836,127.0105997
2023_23030,서울특별시 강북구 삼양로27길 19,37.61612381,127.0217414
2023_23031,서울특별시 강북구 숭인로7가길 37,37.61389583,127.0262234
2023_23032,서울특별시 성북구 서경로 28,37.60615015,127.0159232
2023_23033,서울특별시 중랑구 숙선옹주로 91,37.61726537,127.0855444
2023_23034,서울특별시 성동구 금호로 140,37.55371603,127.021929
2023_23035,서울특별시 중구 다산로 32,37.54715055,127.0057062
2023_23036,서울특별시 중구 다산로 32,37.54715055,127.0057062
2023_23037,서울특별시 중랑구 봉우재로37길 17,37.59362566,127.0877347
2023_23038,서울특별시 성동구 금호로 107,37.55227227,127.0242376
2023_23039,서울특별시 중랑구 용마산로 209,37.5721215,127.0857496
2023_23040,서울특별시 강북구 한천로109길 69,37.62681083,127.0414226
2023_23041,서울특별시 동대문구 한천로58길 47,37.60075075,127.0687695
2023_23042,서울특별시 종로구 새문안로3길 23,37.57263082,126.9724408
2023_23043,서울특별시 동대문구 외대역동로1길 60-3,37.59160372,127.0629316
2023_23044,서울특별시 강북구 4.19로1길 33,37.64659299,127.0140368
2023_23045,서울특별시 중구 청계천로 400,37.57081055,127.0214639
2023_23046,서울특별시 중구 청계천로 400,37.57081055,127.0214639
2023_23047,서울특별시 동대문구 장안벚꽃로 107,37.57105683,127.0751137
2023_23048,서울특별시 동대문구 장안벚꽃로 107,37.57105683,127.0751137
2023_23049,서울특별시 성북구 길음로 119,37.61049908,127.0163726
2023_23050,서울특별시 성북구 길음로 118,37.61132476,127.0208497
2023_23051,서울특별시 성동구 매봉길 15,37.54605985,127.0138472
2023_23052,서울특별시 중구 통일로 86,37.56310596,126.9695695
2023_23053,서울특별시 동대문구 답십리로 130,37.57285496,127.0524012
2023_23054,서울특별시 노원구 섬밭로 52,37.62135575,127.0720735
2023_23055,서울특별시 동대문구 사가정로 65,37.57550604,127.0496959
2023_23056,서울특별시 동대문구 사가정로 148,37.57665904,127.0615677
2023_23057,서울특별시 동대문구 사가정로 148,37.57665904,127.0615677
2023_23058,서울특별시 노원구 공릉로34길 62,37.62336469,127.0821222
2023_23059,서울특별시 노원구 공릉로34길 62,37.62336469,127.0821222
2023_23060,서울특별시 노원구 공릉로 213,37.62788039,127.0773923
2023_23061,서울특별시 성북구 한천로 713,37.62129906,127.0518475
2023_23062,서울특별시 성북구 종암로 132,37.60191974,127.0335179
2023_23063,서울특별시 성북구 종암로24가길 53,37.60084117,127.0379642
2023_23064,서울특별시 성북구 종암로24가길 53,37.60084117,127.0379642
2023_23065,서울특별시 동대문구 무학로26길 30,37.57310266,127.0315846
2023_23066,서울특별시 광진구 능동로19길 35,37.54706801,127.0718499
2023_23067,서울특별시 도봉구 도봉로136길 28,37.65657114,127.042729
2023_23068,서울특별시 도봉구 덕릉로63가길 43,37.64292288,127.0387776
2023_23069,서울특별시 성북구 오패산로 46,37.60747384,127.0387095
2023_23070,서울특별시 성북구 오패산로 46,37.60747384,127.0387095
2023_23071,서울특별시 광진구 뚝섬로 576,37.53379964,127.0731493
2023_23072,서울특별시 광진구 능동로 50,37.53567539,127.0691796
2023_23073,서울특별시 광진구 자양로5길 33,37.53092173,127.084141
2023_23074,서울특별시 광진구 아차산로70길 62,37.54037666,127.0989953
2023_23075,서울특별시 광진구 구의강변로 11,37.53225979,127.0909604
2023_23076,서울특별시 도봉구 마들로 684-19,37.67521459,127.048765
2023_23077,서울특별시 중랑구 동일로92길 40,37.58189295,127.0803759
2023_23078,서울특별시 광진구 아차산로 537-17,37.54296206,127.099659
2023_23079,서울특별시 성북구 돌곶이로40길 46,37.61982239,127.0496604
2023_23080,서울특별시 중구 칠패로 27,37.5602669,126.9720353
2023_23081,서울특별시 중구 퇴계로75길 7,37.56575366,127.0154437
2023_23082,서울특별시 노원구 마들로 31,37.61872537,127.0670846
2023_23083,서울특별시 도봉구 노해로 184-9,37.65061719,127.0294269
2023_23084,서울특별시 동대문구 제기로 131,37.58802816,127.0492262
2023_23085,서울특별시 성북구 정릉로 404,37.60429852,127.0287962
2023_23086,서울특별시 광진구 아차산로70길 62,37.54037666,127.0989953
2023_23087,서울특별시 광진구 능동로19길 35,37.54706801,127.0718499
2023_23088,서울특별시 동대문구 외대역동로1길 60-3,37.59160372,127.0629316
2023_23089,서울특별시 강북구 삼양로27길 80,37.61949573,127.0162834
2023_23090,서울특별시 노원구 동일로198가길 13,37.62980243,127.0726188
2023_23091,서울특별시 성북구 동소문로34길 24,37.59899275,127.0231395
2023_23092,서울특별시 중랑구 송림길 18,37.60047168,127.0960431
2023_23093,서울특별시 성북구 숭인로 50,37.61198667,127.028784
2023_23094,서울특별시 동대문구 천호대로55길 11,37.57153553,127.046159
2023_23095,서울특별시 도봉구 도봉로150길 42,37.66572626,127.0458918
2023_23096,서울특별시 종로구 통일로 230,37.5743704,126.9586287
2023_23097,서울특별시 중랑구 공릉로18길 59,37.61872204,127.0815373
2023_23098,서울특별시 도봉구 덕릉로66길 17,37.64371212,127.0539524
2023_23099,서울특별시 동대문구 장안벚꽃로 107,37.57105683,127.0751137
2023_23100,서울특별시 노원구 월계로42길 97,37.62200512,127.0531737
2023_23101,서울특별시 동대문구 천호대로97길 9,37.56136855,127.0699154
2023_23102,서울특별시 성북구 솔샘로 120,37.61662482,127.0097831
2023_23103,서울특별시 광진구 광나루로56길 32,37.53782408,127.0962194
2023_23104,서울특별시 성북구 북악산로 851,37.60025102,127.0183154
2023_23105,서울특별시 중랑구 동일로92길 40,37.58189295,127.0803759
2023_23106,서울특별시 광진구 구의강변로 11,37.53225979,127.0909604
2023_23107,서울특별시 강서구 양천로26길 103,37.57297641,126.8207077
2023_23108,서울특별시 노원구 섬밭로 196,37.63399762,127.0672779
2023_23109,서울특별시 강서구 허준로 234,37.55855504,126.8633761
2023_23110,서울특별시 마포구 삼개로 33,37.53664447,126.9477514
2023_23111,서울특별시 양천구 남부순환로83길 47,37.51884602,126.8445769
2023_23112,서울특별시 서대문구 독립문공원길 17,37.57238119,126.9551984
2023_23113,서울특별시 노원구 공릉로 351,37.63812512,127.06791
2023_23114,서울특별시 서대문구 통일로25길 30,37.58327722,126.9472325
2023_23115,서울특별시 서대문구 가재울미래로 2,37.57440199,126.9179078
2023_23116,서울특별시 양천구 목동서로2길 22,37.54162782,126.8826427
2023_23117,서울특별시 노원구 노원로 564,37.66165211,127.0561247
2023_23118,서울특별시 노원구 동일로 1456,37.66067691,127.0614956
2023_23119,서울특별시 노원구 동일로246길 39,37.67708485,127.0571871
2023_23120,서울특별시 구로구 구로중앙로7길 28,37.49124272,126.8894496
2023_23121,서울특별시 양천구 목동중앙남로 100,37.54278062,126.8637411
2023_23122,서울특별시 양천구 목동동로 50,37.51209479,126.8602911
2023_23123,서울특별시 노원구 노원로 532,37.66462073,127.0598242
2023_23124,서울특별시 구로구 구로동로12길 4-11,37.48684002,126.8860227
2023_23125,서울특별시 강서구 양천로 77,37.5736784,126.8124324
2023_23126,서울특별시 마포구 대흥로24길 24,37.55396071,126.9476103
2023_23127,서울특별시 마포구 서강로9길 45,37.55265143,126.931369
2023_23128,서울특별시 마포구 상암산로1길 57,37.58028248,126.8823069
2023_23129,서울특별시 노원구 덕릉로94길 21,37.66355722,127.0766339
2023_23130,서울특별시 강서구 수명로1길 16,37.55204782,126.8225609
2023_23131,서울특별시 서대문구 거북골로 154,37.57656261,126.9137835
2023_23132,서울특별시 마포구 서강로3길 32,37.55001779,126.9308541
2023_23133,서울특별시 구로구 구로동로12길 51,37.48887799,126.8865602
2023_23134,서울특별시 은평구 은평터널로 65,37.58689948,126.8991669
2023_23135,서울특별시 마포구 월드컵북로47길 46,37.57488209,126.8907326
2023_23136,서울특별시 은평구 연서로 455,37.63739537,126.933915
2023_23137,서울특별시 양천구 신월로15길 25,37.52058175,126.8409512
2023_23138,서울특별시 은평구 가좌로7나길 30,37.58400937,126.9189386
2023_23139,서울특별시 은평구 갈현로 166,37.61270412,126.9116518
2023_23140,서울특별시 은평구 은평로 220,37.60053438,126.9320989
2023_23141,서울특별시 강동구 상암로79길 88,37.55020472,127.1660592
2023_23142,서울특별시 송파구 중대로 127,37.49485276,127.121925
2023_23143,서울특별시 송파구 송파대로 345,37.49761457,127.1025318
2023_23144,서울특별시 강동구 상암로 251,37.54859381,127.1506883
2023_23145,서울특별시 강동구 고덕로 333,37.55617709,127.1591765
2023_23146,서울특별시 강동구 양재대로96길 79,37.52904287,127.1414901
2023_23147,서울특별시 강동구 구천면로 297-5,37.54684651,127.1337755
2023_23148,서울특별시 강동구 천호대로 1077,37.53725665,127.1314376
2023_23149,서울특별시 강동구 천호대로 1077,37.53725665,127.1314376
2023_23150,서울특별시 강동구 올림픽로 664,37.54055538,127.1249758
2023_23151,서울특별시 강동구 고덕로 131,37.55516675,127.1438388
2023_23152,서울특별시 강동구 명일로 102,37.5276464,127.1425472
2023_23153,서울특별시 송파구 석촌호수로 210,37.50657262,127.1003417
2023_23154,서울특별시 강동구 고덕로 131,37.55516675,127.1438388
2023_23155,서울특별시 강남구 선릉로 206,37.49146442,127.0556417
2023_23156,서울특별시 동작구 흑석한강로 27,37.50409942,126.9662844
2023_23157,서울특별시 강남구 남부순환로 2803,,
2023_23158,서울특별시 서초구 신반포로 261,37.50877887,127.0126377
2023_23159,서울특별시 송파구 올림픽로 135,37.51673328,127.0898891
2023_23160,서울특별시 송파구 잠실로 88,37.50753416,127.0932143
2023_23161,서울특별시 영등포구 신길로 29,37.49451383,126.9061165
2023_23162,서울특별시 강남구 광평로31길 27,37.48483786,127.089779
2023_23163,서울특별시 영등포구 도림로 187,37.49556574,126.9005922
2023_23164,서울특별시 영등포구 영등포로 106,37.52088603,126.8928591
2023_23165,서울특별시 강남구 선릉로69길 19,37.49812635,127.050691
2023_23166,서울특별시 송파구 올림픽로 435,37.5213593,127.1049717
2023_23167,서울특별시 송파구 올림픽로 269,37.51442735,127.1006114
2023_23168,서울특별시 동작구 상도로 407,37.49391739,126.9577733
2023_23169,서울특별시 영등포구 여의동로3길 10,37.51811729,126.925196
2023_23170,서울특별시 강남구 선릉로 8,37.48005758,127.0641534
2023_23171,서울특별시 영등포구 신길로29길 17,37.50372029,126.9082776
2023_23172,서울특별시 관악구 청룡10길 45,37.47723093,126.9430557
2023_23173,서울특별시 강남구 개포로109길 9,37.49575182,127.0751013
2023_23174,서울특별시 금천구 시흥대로 291,37.45995605,126.8966992
2023_23175,서울특별시 서초구 신반포로33길 66,37.51440937,127.0081356
2023_23176,서울특별시 영등포구 도신로29길 28,37.51175428,126.9023257
2023_23177,서울특별시 동작구 동작대로39길 22,37.49463598,126.981966
2023_23178,서울특별시 관악구 은천로33길 5,37.48730012,126.9501559
2023_23179,서울특별시 관악구 은천로 93,37.48735272,126.9454289
2023_23180,서울특별시 관악구 관악로30길 27,37.48896635,126.9606433
2023_23181,서울특별시 영등포구 영등포로 106,37.52088603,126.8928591
2023_23182,서울특별시 금천구 시흥대로 165,37.44790332,126.9007227
2023_23183,서울특별시 강남구 광평로19길 10,37.48548535,127.0866017
2023_23184,서울특별시 관악구 관악로30길 12,37.48413576,126.9606073
2023_23185,서울특별시 관악구 청룡10길 45,37.47723093,126.9430557
2023_23186,서울특별시 강남구 삼성로 212,37.49961577,127.0659154
2023_23187,서울특별시 강남구 선릉로 206,37.49146442,127.0556417
2023_23188,서울특별시 강남구 선릉로 206,37.49146442,127.0556417
2023_23189,서울특별시 강남구 선릉로 221,37.49420684,127.0497348
2023_23190,서울특별시 강남구 선릉로 206,37.49146442,127.0556417
2023_23191,서울특별시 송파구 풍성로 14,37.53449462,127.113834
2023_23192,서울특별시 강남구 영동대로138길 12,37.52410147,127.0572498
2023_23193,서울특별시 강남구 도산대로61길 13,37.52484535,127.042761
2023_23194,서울특별시 서초구 잠원로 60,37.51017564,127.0082024
2023_23195,서울특별시 영등포구 당산로41길 23,37.5314949,126.8966246
2023_23196,서울특별시 송파구 올림픽로 135,37.51673328,127.0898891
2023_23197,서울특별시 송파구 올림픽로 135,37.51673328,127.0898891
2023_23198,서울특별시 강남구 삼성로 212,37.49961577,127.0659154
2023_23199,서울특별시 강남구 테헤란로 428,37.50569199,127.0541832
2023_23200,서울특별시 강남구 삼성로 417,37.50459597,127.057495
2023_23201,서울특별시 구로구 개봉로23가길 10,37.49532219,126.856873
2023_23202,서울특별시 송파구 올림픽로 435,37.5213593,127.1049717
2023_23203,서울특별시 송파구 올림픽로35길 104,37.51981736,127.0992977
2023_23204,서울특별시 송파구 한가람로 448,37.53750523,127.1152272
2023_23205,서울특별시 서초구 사임당로 130,37.49029379,127.0252157
2023_23206,서울특별시 송파구 풍성로24길 42,37.53162995,127.116727
2023_23207,서울특별시 강남구 개포로 264,37.47975035,127.0522282
2023_23208,서울특별시 강남구 개포로109길 9,37.49575182,127.0751013
2023_23209,서울특별시 강남구 개포로109길 9,37.49575182,127.0751013
2023_23210,서울특별시 영등포구 문래로4길 26,37.51874728,126.8829437
2023_23211,서울특별시 동작구 양녕로 220,37.50069236,126.9455364
2023_23212,서울특별시 동작구 상도로 346-1,37.49678998,126.9516675
2023_23213,서울특별시 서초구 반포대로 275,37.50239027,126.9959653
2023_23214,서울특별시 서초구 신반포로 270,37.50786022,127.011582
2023_23215,서울특별시 관악구 관악로30길 27,37.48896635,126.9606433
2023_23216,서울특별시 강남구 광평로19길 15,37.48553054,127.0847979
2023_23217,서울특별시 강남구 선릉로69길 20,37.49874723,127.0509235
2023_23218,서울특별시 서초구 사임당로17길 90,37.49260442,127.0184123
2023_23219,서울특별시 서초구 사임당로 130,37.49029379,127.0252157
2023_23220,서울특별시 노원구 동일로228길 23,37.66986967,127.0587381
2023_23221,서울특별시 마포구 월드컵로25길 128,37.55736926,126.9004169
2023_23222,서울특별시 마포구 새창로 52,37.5399016,126.9557382
2023_23223,서울특별시 서대문구 모래내로 430,37.58361952,126.9422548
2023_23224,서울특별시 노원구 섬밭로 229,37.63661786,127.0645392
2023_23225,서울특별시 노원구 공릉로 351,37.63812512,127.06791
2023_23226,서울특별시 서대문구 이화여대8길 62,37.55972348,126.9507324
2023_23227,서울특별시 마포구 대흥로24길 24,37.55396071,126.9476103
2023_23228,서울특별시 강서구 공항대로43길 104,37.56023933,126.8516942
2023_23229,서울특별시 강서구 등촌로 163,37.54472977,126.8615933
2023_23230,서울특별시 노원구 동일로216길 47,37.65298873,127.0635586
2023_23231,서울특별시 마포구 마포대로 195,37.55243392,126.9542238
2023_23232,서울특별시 마포구 마포대로 201,37.5522161,126.9555037
2023_23233,서울특별시 구로구 신도림로 16,37.50512282,126.882191
2023_23234,서울특별시 마포구 독막로 145,37.54902687,126.9294901
2023_23235,서울특별시 서대문구 수색로 100,37.57473348,126.9079161
2023_23236,서울특별시 구로구 가마산로 280,37.49607957,126.8915643
2023_23237,서울특별시 구로구 공원로 35,37.50016197,126.8905209
2023_23238,서울특별시 서대문구 통일로 279-75,37.57498545,126.9511688
2023_23239,서울특별시 마포구 와우산로 4,37.54471234,126.9232645
2023_23240,서울특별시 서대문구 연희로32길 48,37.57586005,126.937263
2023_23241,서울특별시 양천구 목동동로 10,37.50775811,126.86131
2023_23242,서울특별시 양천구 신정로7길 76,37.51350715,126.8360663
2023_23243,서울특별시 양천구 신정로7길 76,37.51350715,126.8360663
2023_23244,서울특별시 양천구 신정로7길 76,37.51350715,126.8360663
2023_23245,서울특별시 양천구 목동동로 189,37.52294129,126.8701237
2023_23246,서울특별시 은평구 불광로 40-1,37.61099107,126.9303672
2023_23247,서울특별시 마포구 월드컵북로 98,37.56236629,126.91482
2023_23248,서울특별시 은평구 진흥로 267,37.61187193,126.9385656
2023_23249,서울특별시 서대문구 통일로34길 46,37.5858576,126.9499746
2023_23250,서울특별시 강서구 곰달래로18길 33-13,37.52879202,126.8422167
2023_23251,서울특별시 강서구 양천로77길 45,37.55101498,126.8766502
2023_23252,서울특별시 은평구 진관4로 100,37.64980599,126.9331512
2023_23253,서울특별시 서대문구 가재울로 45,37.57566143,126.9208517
2023_23254,서울특별시 양천구 목동중앙북로8길 71,37.54558917,126.8655884
2023_23255,서울특별시 양천구 남부순환로83길 48,37.51729907,126.8453916
2023_23256,서울특별시 양천구 남부순환로83길 48,37.51729907,126.8453916
2023_23257,서울특별시 은평구 수색로 217-1,37.57862002,126.8995338
2023_23258,서울특별시 노원구 한글비석로14길 8,37.65747634,127.0774342
2023_23259,서울특별시 노원구 동일로208길 20,37.64325657,127.0669948
2023_23260,서울특별시 노원구 한글비석로8길 20,37.64783908,127.0783683
2023_23261,서울특별시 광진구 아차산로70길 62,37.54037666,127.0989953
2023_23262,서울특별시 동대문구 한천로58길 47,37.60075075,127.0687695
2023_23263,서울특별시 성북구 길음로 33,37.60508329,127.0220786
2023_23264,서울특별시 중랑구 중랑역로 124,37.60452858,127.0776674
2023_23265,서울특별시 성북구 보문사길 111,37.58287311,127.0178911
2023_23266,서울특별시 성동구 금호로 173,37.55627884,127.0181523
2023_23267,서울특별시 중구 퇴계로90길 74,37.56103798,127.0209858
2023_23268,서울특별시 중구 다산로 32,37.54715055,127.0057062
2023_23269,서울특별시 광진구 아차산로70길 62,37.54037666,127.0989953
2023_23270,서울특별시 성동구 마장로42길 16,37.56504066,127.0460385
2023_23271,서울특별시 동대문구 사가정로 148,37.57665904,127.0615677
2023_23272,서울특별시 중랑구 신내로7길 20,37.60139119,127.0960991
2023_23273,서울특별시 용산구 유엔빌리지길 11,37.53398392,127.0103946
2023_23274,서울특별시 성동구 금호로 100,37.55453147,127.0261866
2023_23275,서울특별시 노원구 동일로198가길 13,37.62980243,127.0726188
2023_23276,서울특별시 용산구 효창원로 17,37.53443266,126.9501826
2023_23277,서울특별시 강북구 오현로 45,37.61693703,127.0346104
2023_23278,서울특별시 성동구 행당로 79,37.55820535,127.027507
2023_23279,서울특별시 동대문구 이문로1길 21,37.59016846,127.0515639
2023_23280,서울특별시 도봉구 노해로69길 103,37.65778635,127.0492757
2023_23281,서울특별시 도봉구 시루봉로 107,37.66121703,127.0261502
2023_23282,서울특별시 성북구 종암로24가길 53,37.60084117,127.0379642
2023_23283,서울특별시 성북구 종암로25길 30,37.60149226,127.0310804
2023_23284,서울특별시 도봉구 도봉로136길 28,37.65657114,127.042729
2023_23285,서울특별시 광진구 아차산로 549,37.54335816,127.1017442
2023_23286,서울특별시 노원구 마들로 111,37.62383436,127.0647781
2023_23287,서울특별시 강동구 고덕로 399,37.55744052,127.1696789
2023_23288,서울특별시 송파구 송파대로 345,37.49761457,127.1025318
2023_23289,서울특별시 송파구 동남로 193,37.49469823,127.1292231
2023_23290,서울특별시 송파구 동남로 193,37.49469823,127.1292231
2023_23291,서울특별시 강동구 아리수로98길 25,37.56529058,127.1782119
2023_23292,서울특별시 송파구 오금로35길 17,37.5063971,127.1273634
2023_23293,서울특별시 강동구 상암로 11,37.55344749,127.12566
2023_23294,서울특별시 송파구 오금로11길 33,37.51562298,127.1105896
2023_23295,서울특별시 강동구 천호대로 1176,37.53357806,127.1419321
2023_23296,서울특별시 강동구 성내로 20,37.52970906,127.122638
2023_23297,서울특별시 강동구 명일로 172,37.53413819,127.1450708
2023_23298,서울특별시 송파구 송파대로 111,37.47968706,127.1249798
2023_23299,서울특별시 송파구 송이로31길 56,37.49086162,127.1363837
2023_23300,서울특별시 송파구 송이로36길 62-6,37.48364183,127.1270239
2023_23301,서울특별시 강동구 올림픽로70길 61,37.53940184,127.1269895
2023_23302,서울특별시 송파구 송파대로 345,37.49761457,127.1025318
2023_23303,서울특별시 송파구 중대로12길 35,37.49201556,127.1254714
2023_23304,서울특별시 강동구 상암로 11,37.55344749,127.12566
2023_23305,서울특별시 강동구 고덕로62길 76,37.55084401,127.1515673
2023_23306,서울특별시 노원구 중계로 230,37.65103585,127.075055
2023_23307,서울특별시 강서구 양천로6길 28,37.57102749,126.8063998
2023_23308,서울특별시 마포구 서강로9길 45,37.55265143,126.931369
2023_23309,서울특별시 양천구 신정로 293,37.51430989,126.8550432
2023_23310,서울특별시 서대문구 가좌로 65,37.57907121,126.9290147
2023_23311,서울특별시 은평구 수색로 300,37.58509035,126.8904419
2023_23312,서울특별시 은평구 통일로 610,37.60198245,126.9359478
2023_23313,서울특별시 양천구 목동동로 50,37.51209479,126.8602911
2023_23314,서울특별시 노원구 공릉로 351,37.63812512,127.06791
2023_23315,서울특별시 강서구 양천로75길 19,37.55181162,126.8740724
2023_23316,서울특별시 강서구 수명로1길 110,37.55185777,126.8247079
2023_23317,서울특별시 마포구 마포대로11길 50,37.55158802,126.9511914
2023_23318,서울특별시 은평구 통일로 1080,37.63923423,126.9175304
2023_23319,서울특별시 노원구 동일로 1456,37.66067691,127.0614956
2023_23320,서울특별시 강서구 공항대로 382,37.55639458,126.8495467
2023_23321,서울특별시 노원구 동일로 1456,37.66067691,127.0614956
2023_23322,서울특별시 노원구 노해로 508,37.65470356,127.066191
2023_23323,서울특별시 노원구 동일로208길 19,37.64559563,127.0656766
2023_23324,서울특별시 노원구 동일로215길 23,37.6504273,127.059109
2023_23325,서울특별시 구로구 경인로 638,37.50668795,126.886233
2023_23326,서울특별시 노원구 한글비석로 480,37.66675966,127.065753
2023_23327,서울특별시 노원구 덕릉로70가길 21,37.64286937,127.0595073
2023_23328,서울특별시 서대문구 거북골로 84,37.57822963,126.9184813
2023_23329,서울특별시 서대문구 증가로 191,37.57849683,126.9173923
2023_23330,서울특별시 관악구 청룡10길 45,37.47723093,126.9430557
2023_23331,서울특별시 강남구 선릉로 221,37.49420684,127.0497348
2023_23332,서울특별시 송파구 올림픽로 435,37.5213593,127.1049717
2023_23333,서울특별시 구로구 개봉로20길 158,37.49204228,126.8607374
2023_23334,서울특별시 강남구 논현로159길 56,37.52182945,127.0237888
2023_23335,서울특별시 동작구 동작대로39길 22,37.49463598,126.981966
2023_23336,서울특별시 금천구 벚꽃로 73,37.46291004,126.8904233
2023_23337,서울특별시 서초구 서운로 201,37.50132463,127.0201266
2023_23338,서울특별시 서초구 서운로 104,37.4934156,127.0264914
2023_23339,서울특별시 동작구 양녕로 220,37.50069236,126.9455364
2023_23340,서울특별시 동작구 만양로 6,37.5049819,126.9467885
2023_23341,서울특별시 송파구 잠실로 62,37.50801505,127.0902835
2023_23342,서울특별시 강남구 영동대로 210,37.49885567,127.0713671
2023_23343,서울특별시 강남구 선릉로 206,37.49146442,127.0556417
2023_23344,서울특별시 서초구 서초중앙로 200,37.50045322,127.0156476
2023_23345,서울특별시 서초구 사임당로 130,37.49029379,127.0252157
2023_23346,서울특별시 서초구 서초중앙로24길 43,37.49594752,127.0189851
2023_23347,서울특별시 관악구 봉천로 387,37.48376028,126.9427012
2023_23348,서울특별시 관악구 청룡16길 43,37.47663345,126.9431957
2023_23349,서울특별시 강남구 삼성로51길 25,37.49590789,127.0609998
2023_23350,서울특별시 서초구 서초중앙로24길 43,37.49594752,127.0189851
2023_23351,서울특별시 강남구 일원로 127,37.48315929,127.0853838
2023_23352,서울특별시 영등포구 도신로 68,37.50576147,126.899792
2023_23353,서울특별시 송파구 올림픽로 135,37.51673328,127.0898891
2023_23354,서울특별시 서초구 서초대로65길 13-10,37.49742848,127.0191506
2023_23355,서울특별시 서초구 청계산로9길 1-12,37.44968266,127.0562414
2023_23356,서울특별시 송파구 올림픽로 99,37.51512525,127.07813
2023_23357,서울특별시 송파구 올림픽로 99,37.51512525,127.07813
2023_23358,서울특별시 영등포구 양평로24길 9,37.54028033,126.8917458
2023_23359,서울특별시 영등포구 63로 45,37.52135273,126.9373261
2023_23360,서울특별시 영등포구 경인로114가길 14,37.51724645,126.9135461
2023_23361,서울특별시 영등포구 경인로114가길 14,37.51724645,126.9135461
2023_23362,서울특별시 강남구 선릉로87길 14,37.50311585,127.0483381
2023_23363,서울특별시 강남구 학동로68길 29,37.51656029,127.0471878
2023_23364,서울특별시 구로구 오리로 1102-10,37.48401441,126.8433413
2023_23365,서울특별시 강남구 도산대로83길 35,37.5266772,127.0485224
2023_23366,서울특별시 서초구 잠원로 37-48,37.51007746,127.00618
2023_23367,서울특별시 관악구 성현로 80,37.48984744,126.9529855
2023_23368,서울특별시 동작구 서달로 123,37.50421186,126.9596731
2023_23369,서울특별시 동작구 서달로 123,37.50421186,126.9596731
2023_23370,서울특별시 송파구 한가람로 478,37.53979928,127.1179507
2023_23371,서울특별시 관악구 쑥고개로 123,37.47919753,126.9503774
2023_23372,서울특별시 동대문구 사가정로 65,37.57550604,127.0496959
2023_23373,서울특별시 동대문구 사가정로 191,37.57901279,127.0659174
2023_23374,서울특별시 동대문구 사가정로 148,37.57665904,127.0615677
2023_23375,서울특별시 도봉구 도봉로169길 31,37.67995228,127.0442384
2023_23376,서울특별시 성동구 한림말길 50,37.53993979,127.0168229
2023_23377,서울특별시 용산구 이촌로87길 21,37.52030091,126.9786385
2023_23378,서울특별시 광진구 아차산로 552,37.54365673,127.1042503
2023_23379,서울특별시 용산구 이촌로87길 21,37.52030091,126.9786385
2023_23380,서울특별시 중구 을지로15길 32,37.56810001,126.9944136
2023_23381,서울특별시 중랑구 동일로 501,37.57558112,127.0794634
2023_23382,서울특별시 도봉구 노해로70길 126,37.64727021,127.0523167
2023_23383,서울특별시 용산구 이촌로65길 8,37.52179126,126.9713843
2023_23384,서울특별시 용산구 이촌로65가길 51,37.5219938,126.9736746
2023_23385,서울특별시 동대문구 휘경로 60,37.59370125,127.0648977
2023_23386,서울특별시 노원구 노원로 62,37.62769787,127.0872999
2023_23387,서울특별시 용산구 이촌로 201,37.52134838,126.9701562
2023_23388,서울특별시 성동구 고산자로2길 65,37.55619853,127.0388365
2023_23389,서울특별시 성북구 성북로4길 52,37.59447253,127.012706
2023_23390,서울특별시 도봉구 덕릉로 349,37.64503774,127.0460993
2023_23391,서울특별시 성동구 매봉길 50,37.54729891,127.0121894
2023_23392,서울특별시 광진구 아차산로 522,37.54180908,127.0989833
2023_23393,서울특별시 성동구 고산자로 160,37.55433983,127.0348842
2023_23394,서울특별시 종로구 새문안로3길 23,37.57263082,126.9724408
2023_23395,서울특별시 동대문구 장안벚꽃로 167,37.5750721,127.0742821
2023_23396,서울특별시 성동구 난계로 84,37.55913142,127.0240799
2023_23397,서울특별시 종로구 지봉로4길 13,37.57132903,127.0166913
2023_23398,서울특별시 종로구 지봉로4길 13,37.57132903,127.0166913
2023_23399,서울특별시 강북구 솔샘로 174,37.61763836,127.0105997
2023_23400,서울특별시 성북구 고려대로17가길 64,37.58921815,127.023206
2023_23401,서울특별시 도봉구 노해로63다길 34,37.65526291,127.0460966
2023_23402,서울특별시 성북구 한천로101길 18,37.62276588,127.0492987
2023_23403,서울특별시 성북구 한천로 713,37.62129906,127.0518475
2023_23404,서울특별시 용산구 백범로90길 90,37.53774654,126.9688331
2023_23405,서울특별시 노원구 마들로 111,37.62383436,127.0647781
2023_23406,서울특별시 성북구 길음로 16,37.60711804,127.0232626
2023_23407,서울특별시 광진구 군자로12길 46,37.55171279,127.0726727
2023_23408,서울특별시 노원구 마들로 31,37.61872537,127.0670846
2023_23409,서울특별시 성북구 한천로 509,37.60698616,127.0657342
2023_23410,서울특별시 성동구 왕십리로 410,37.56660293,127.0240825
2023_23411,서울특별시 노원구 동일로198가길 149,37.63039111,127.0670364
2023_23412,서울특별시 성동구 고산자로 164,37.55506876,127.0354241
2023_23413,서울특별시 도봉구 노해로70길 19,37.65079022,127.0528256
2023_23414,서울특별시 성북구 길음로9길 50,37.60269651,127.020948
2023_23415,서울특별시 강북구 솔샘로 174,37.61763836,127.0105997
2023_23416,서울특별시 광진구 아차산로 503-23,37.5431621,127.0956083
2023_23417,서울특별시 강북구 솔샘로 174,37.61763836,127.0105997
2023_23418,서울특별시 동대문구 장안벚꽃로1길 7,37.5763379,127.0745726
2023_23419,서울특별시 동대문구 장안벚꽃로 167,37.5750721,127.0742821
2023_23420,서울특별시 동대문구 장안벚꽃로 167,37.5750721,127.0742821
2023_23421,서울특별시 성북구 서경로 60,37.60992599,127.0154584
2023_23422,서울특별시 광진구 아차산로 540,37.54230639,127.1014775
2023_23423,서울특별시 중랑구 숙선옹주로 91,37.61726537,127.0855444
2023_23424,서울특별시 도봉구 마들로 859-19,37.68604183,127.0467647
2023_23425,서울특별시 성동구 독서당로62길 43,37.55190095,127.0335265
2023_23426,서울특별시 용산구 서빙고로 67,37.52486281,126.9704127
2023_23427,서울특별시 성동구 고산자로2길 65,37.55619853,127.0388365
2023_23428,서울특별시 성북구 동소문로3길 101,37.5923386,127.0111609
2023_23429,서울특별시 종로구 사직로8길 4,37.57467165,126.9684298
2023_23430,서울특별시 성동구 금호산8길 5,37.55055798,127.0207217
2023_23431,서울특별시 중랑구 망우로 504-7,37.60021763,127.1087773
2023_23432,서울특별시 노원구 마들로 31,37.61872537,127.0670846
2023_23433,서울특별시 노원구 마들로 59,37.62262082,127.0668819
2023_23434,서울특별시 노원구 공릉로34길 118,37.62596694,127.080922
2023_23435,서울특별시 노원구 마들로 59,37.62262082,127.0668819
