no,address,latitude,longitude
2019_75097,서울특별시 용산구 이촌로2가길 122,37.52546565,126.9544787
2019_75096,서울특별시 성북구 보국문로 116,37.61514195,127.0077019
2019_75095,서울특별시 노원구 석계로 49,37.61721774,127.0625099
2019_75094,서울특별시 서대문구 응암로 133,37.58466671,126.9141921
2019_75093,서울특별시 강서구 양천로6길 28,37.57102749,126.8063998
2019_75092,서울특별시 구로구 경인로47가길 10,37.50196222,126.865676
2019_75091,서울특별시 강동구 천호대로193길 37,37.53753608,127.1435606
2019_75090,서울특별시 강동구 양재대로126길 49,37.54356996,127.1452754
2019_75089,서울특별시 강동구 천호대로175길 16,37.53543858,127.1370922
2019_75088,서울특별시 관악구 은천로5길 39,37.48801732,126.9383172
2019_75087,서울특별시 서초구 잠원로14길 54,37.51576217,127.0136448
2019_75086,서울특별시 관악구 남부순환로220길 29,37.47990741,126.9518255
2019_75085,서울특별시 송파구 문정로 125,37.49237912,127.1340033
2019_75084,서울특별시 송파구 올림픽로 212,37.51070678,127.0942316
2019_75083,서울특별시 관악구 대학18길 6,37.46556006,126.9373646
2019_75082,서울특별시 서초구 나루터로4길 28,,
2019_75081,서울특별시 동대문구 정릉천동로 58,37.57718679,127.0362385
2019_75080,서울특별시 성북구 솔샘로25길 28,37.61857737,127.0069619
2019_75079,서울특별시 성북구 길음로 118,37.61132476,127.0208497
2019_75078,서울특별시 성북구 솔샘로25길 28,37.61857737,127.0069619
2019_75077,서울특별시 중랑구 양원역로 18,37.60277431,127.108648
2019_75076,서울특별시 동대문구 전농로 16,37.56627264,127.0563302
2019_75075,서울특별시 동대문구 전농로 16,37.56627264,127.0563302
2019_75074,서울특별시 성북구 인촌로17가길 64,,
2019_75073,서울특별시 동대문구 장한로26가길 11,37.57112037,127.0720469
2019_75072,서울특별시 동대문구 이문로 94,37.59514081,127.0596895
2019_75071,서울특별시 강북구 솔샘로 174,37.61763836,127.0105997
2019_75070,서울특별시 성북구 오패산로16가길 40,37.60990552,127.0386975
2019_75069,서울특별시 성북구 성북로4길 52,37.59447253,127.012706
2019_75068,서울특별시 노원구 덕릉로 780,37.66669198,127.079126
2019_75067,서울특별시 노원구 한글비석로 479,37.66449773,127.0644832
2019_75066,서울특별시 도봉구 해등로 286-5,37.65772975,127.0241592
2019_75065,서울특별시 서대문구 증가로 191,37.57849683,126.9173923
2019_75064,서울특별시 은평구 갈현로1길 36,37.60015772,126.9056788
2019_75063,서울특별시 노원구 초안산로1길 18,37.62915542,127.0516038
2019_75062,서울특별시 노원구 마들로 31,37.61872537,127.0670846
2019_75061,서울특별시 은평구 불광로2길 16,37.61167741,126.9332696
2019_75060,서울특별시 노원구 화랑로47길 38,37.61648244,127.0656756
2019_75059,서울특별시 은평구 불광로 64,37.61313205,126.9324706
2019_75058,서울특별시 도봉구 도당로 18,37.65948951,127.0359779
2019_75057,서울특별시 노원구 중계로16나길 11,37.65230563,127.0821915
2019_75056,서울특별시 은평구 갈현로29길 11,37.61923385,126.913964
2019_75055,서울특별시 은평구 진관4로 87,37.64784198,126.929665
2019_75054,서울특별시 마포구 양화로 114,37.55358171,126.9199149
2019_75053,서울특별시 강서구 강서로 43-18,37.53103181,126.8462431
2019_75052,서울특별시 마포구 방울내로11길 27,37.56195081,126.9036494
2019_75051,서울특별시 마포구 방울내로 31,37.55851867,126.8990449
2019_75050,서울특별시 영등포구 선유로40길 7,37.53057852,126.8941133
2019_75049,서울특별시 구로구 개봉로15길 91,37.48964491,126.8510807
2019_75048,서울특별시 강서구 화곡로18길 24,37.53906639,126.835419
2019_75047,서울특별시 양천구 목동서로 38,37.54129134,126.8785038
2019_75046,서울특별시 마포구 포은로 147,37.55982767,126.9027254
2019_75045,서울특별시 금천구 범안로17길 41,37.46837715,126.8931347
2019_75044,서울특별시 양천구 목동중앙북로 7,37.54902377,126.8644798
2019_75043,서울특별시 양천구 지양로15길 20,37.52397372,126.82925
2019_75042,서울특별시 영등포구 버드나루로 130,37.5305725,126.9080121
2019_75041,서울특별시 강서구 금낭화로 287-19,37.57680385,126.8102869
2019_75040,서울특별시 영등포구 영중로 145,37.52995985,126.90508
2019_75039,서울특별시 강서구 화곡로18길 24,37.53906639,126.835419
2019_75038,서울특별시 강서구 곰달래로18길 3,37.529992,126.8415018
2019_75037,서울특별시 양천구 은행정로11나길 12,37.52298103,126.8581456
2019_75036,서울특별시 금천구 한내로 62,37.45539127,126.8888776
2019_75035,서울특별시 구로구 중앙로8길 11,37.50252837,126.8632892
2019_75034,서울특별시 구로구 도림로 59,37.4898994,126.8889619
2019_75033,서울특별시 강동구 성안로 195,37.54042739,127.1364895
2019_75032,서울특별시 강동구 명일로 293,37.54470657,127.1463634
2019_75031,서울특별시 강동구 천중로38가길 53,37.53818585,127.136755
2019_75030,서울특별시 강동구 천중로53길 6,37.54098036,127.1454481
2019_75029,서울특별시 송파구 마천로35길 12,37.49991012,127.1456278
2019_75028,서울특별시 강동구 강동대로53길 58,37.52529181,127.1325648
2019_75027,서울특별시 노원구 누원로 18,37.68621458,127.0528727
2019_75026,서울특별시 노원구 동일로215길 23,37.6504273,127.059109
2019_75025,서울특별시 서대문구 독립문로14길 33,37.56591992,126.9592895
2019_75024,서울특별시 은평구 갈현로3다길 15,37.60262957,126.9052047
2019_75023,서울특별시 도봉구 방학로 193,37.66093246,127.0278928
2019_75022,서울특별시 노원구 우이천로 102,37.63066549,127.0435045
2019_75021,서울특별시 서대문구 홍제내길 168,37.58871772,126.9378537
2019_75020,서울특별시 서대문구 모래내로 453,37.58574629,126.945028
2019_75019,서울특별시 서대문구 모래내로 453,37.58574629,126.945028
2019_75018,서울특별시 서초구 방배로34길 82,37.49327954,126.995276
2019_75017,서울특별시 관악구 신림로3가길 45-24,37.46759664,126.9420062
2019_75016,서울특별시 서초구 서초중앙로 15,37.48301089,127.0156416
2019_75015,서울특별시 서초구 서초대로74길 30,37.49509032,127.0268041
2019_75014,서울특별시 송파구 송파대로37길 29,37.50040067,127.1085698
2019_75013,서울특별시 영등포구 도림천로19길 12,37.48689875,126.9005633
2019_75012,서울특별시 송파구 잠실로 62,37.50801505,127.0902835
2019_75011,서울특별시 강남구 선릉로69길 20,37.49874723,127.0509235
2019_75010,서울특별시 송파구 송파대로32길 15,37.49658241,127.1157571
2019_75009,서울특별시 서초구 사임당로17길 116,37.49358767,127.0201698
2019_75008,서울특별시 강북구 솔샘로 159,37.62182327,127.0124075
2019_75007,서울특별시 중랑구 신내역로1길 85,37.61680909,127.1062937
2019_75006,서울특별시 성동구 무학봉길 49,37.56156486,127.0280453
2019_75005,서울특별시 용산구 독서당로 111,37.53612286,127.0073076
2019_75004,서울특별시 중랑구 공릉로2길 8-25,37.61123755,127.0788601
2019_75003,서울특별시 중랑구 면목로69길 16,37.58725262,127.0863442
2019_75002,서울특별시 동대문구 장안벚꽃로 107,37.57105683,127.0751137
2019_75001,서울특별시 종로구 창경궁로 265,37.58587613,126.999602
2019_75000,서울특별시 중랑구 면목로 429,37.59019347,127.0868261
2019_74999,서울특별시 성동구 동호로 100,37.55132847,127.0164165
2019_74998,서울특별시 중구 난계로 151,37.56497427,127.0233193
2019_74997,서울특별시 성북구 종암로24가길 53,37.60084117,127.0379642
2019_74996,서울특별시 동대문구 이문로 94,37.59514081,127.0596895
2019_74995,서울특별시 성북구 종암로 167,37.60505876,127.0309904
2019_74994,서울특별시 중구 중림로 10,37.55892666,126.9643209
2019_74993,서울특별시 동대문구 전농로 16,37.56627264,127.0563302
2019_74992,서울특별시 동대문구 장한로 105,37.5700853,127.069955
2019_74991,서울특별시 중구 퇴계로49길 14,37.5633946,126.9999942
2019_74990,서울특별시 용산구 원효로 66,37.53278805,126.9503689
2019_74989,서울특별시 성북구 안암로9나길 14,37.58227743,127.0246218
2019_74988,서울특별시 동대문구 장한로20길 7,37.56898776,127.0703171
2019_74987,서울특별시 양천구 목동서로 340,37.51942468,126.8640382
2019_74986,서울특별시 양천구 목동동로 391,37.53587354,126.8802706
2019_74985,서울특별시 금천구 독산로50길 89,37.46375636,126.9091263
2019_74984,서울특별시 영등포구 양산로25길 8,37.52438275,126.8987004
2019_74983,서울특별시 강서구 양천로75길 57,37.55331418,126.8748906
2019_74982,서울특별시 금천구 시흥대로47길 43,37.45065531,126.8989553
2019_74981,서울특별시 양천구 신정로 290,37.51232428,126.8534546
2019_74980,서울특별시 양천구 목동중앙본로 15,37.53793651,126.8714755
2019_74979,서울특별시 구로구 경인로66길 19,37.50726969,126.887602
2019_74978,서울특별시 구로구 구로중앙로7길 28,37.49124272,126.8894496
2019_74977,서울특별시 영등포구 당산로 222,37.53324478,126.9022911
2019_74976,서울특별시 금천구 벚꽃로18길 36,37.46781246,126.890732
2019_74975,서울특별시 금천구 한내로 62,37.45539127,126.8888776
2019_74974,서울특별시 영등포구 경인로77길 21,37.5128159,126.8912497
2019_74973,서울특별시 양천구 목동로29길 7,37.52878893,126.862367
2019_74972,서울특별시 관악구 남부순환로 1430,37.47923845,126.90904
2019_74971,서울특별시 영등포구 디지털로69길 13,37.49449405,126.9034923
2019_74970,서울특별시 관악구 은천로5길 39,37.48801732,126.9383172
2019_74969,서울특별시 서초구 서초대로33길 22,37.48981684,126.9968923
2019_74968,서울특별시 서초구 서초대로 385,37.4978709,127.0220702
2019_74967,서울특별시 송파구 올림픽로35길 93,37.51777328,127.1043927
2019_74966,서울특별시 강남구 도곡로78길 22,37.49663573,127.0588476
2019_74965,서울특별시 강남구 테헤란로64길 9,37.50449545,127.0515852
2019_74964,서울특별시 송파구 가락로 192,37.50472533,127.1159469
2019_74963,서울특별시 송파구 중대로 24,37.48812575,127.1110591
2019_74962,서울특별시 서초구 바우뫼로 91,37.47504047,127.031799
2019_74961,서울특별시 서초구 바우뫼로39길 32-6,37.4810438,127.0403864
2019_74960,서울특별시 관악구 관천로27길 2,37.48846493,126.9186431
2019_74959,서울특별시 관악구 호암로16길 11,37.4634927,126.9324691
2019_74958,서울특별시 강남구 영동대로128길 15,37.52015718,127.0592103
2019_74957,서울특별시 송파구 양재대로 1218,37.51669099,127.1377124
2019_74956,서울특별시 노원구 공릉로46길 32,37.6263561,127.0821837
2019_74955,서울특별시 노원구 동일로192나길 16-14,37.6274006,127.0757417
2019_74954,서울특별시 도봉구 덕릉로 349,37.64503774,127.0460993
2019_74953,서울특별시 도봉구 덕릉로62길 13,37.64073882,127.0411143
2019_74952,서울특별시 도봉구 덕릉로63가길 43,37.64292288,127.0387776
2019_74951,서울특별시 서대문구 가재울미래로 2,37.57440199,126.9179078
2019_74950,서울특별시 노원구 섬밭로 134,37.62838373,127.0693349
2019_74949,서울특별시 도봉구 해등로 264,37.65830373,127.0276046
2019_74948,서울특별시 노원구 노원로 532,37.66462073,127.0598242
2019_74947,서울특별시 노원구 동일로246길 39,37.67708485,127.0571871
2019_74946,서울특별시 서대문구 연희로32길 48,37.57586005,126.937263
2019_74945,서울특별시 도봉구 해등로 195,37.65783785,127.0337873
2019_74944,서울특별시 노원구 동일로241길 53,37.67801899,127.0529134
2019_74943,서울특별시 노원구 초안산로1길 18,37.62915542,127.0516038
2019_74942,서울특별시 노원구 덕릉로60길 288,37.62874843,127.0468723
2019_74941,서울특별시 노원구 우이천로 102,37.63066549,127.0435045
2019_74940,서울특별시 은평구 은평로 82,37.59907809,126.9169852
2019_74939,서울특별시 노원구 동일로214길 21,37.65043289,127.0627594
2019_74938,서울특별시 노원구 동일로239길 68,37.67449413,127.0509914
2019_74937,서울특별시 은평구 역말로 30,37.60552922,126.913654
2019_74936,서울특별시 노원구 공릉로 206,37.62842693,127.0779323
2019_74935,서울특별시 은평구 연서로 47-2,37.60354739,126.9152477
2019_74934,서울특별시 은평구 역말로6길 11,37.60495557,126.9147853
2019_74933,서울특별시 은평구 응암로 318,37.59946613,126.9219716
2019_74932,서울특별시 노원구 덕릉로127길 25,37.67224368,127.081579
2019_74931,서울특별시 도봉구 도봉로109길 8,37.64686755,127.0329143
2019_74930,서울특별시 도봉구 도당로 13,37.66003393,127.0343029
2019_74929,서울특별시 도봉구 마들로 684-19,37.67521459,127.048765
2019_74928,서울특별시 도봉구 도당로 37,37.66150368,127.0337612
2019_74927,서울특별시 강북구 인수봉로72길 4,37.64179067,127.0123056
2019_74926,서울특별시 도봉구 시루봉로 107,37.66121703,127.0261502
2019_74925,서울특별시 서대문구 독립문로14길 33,37.56591992,126.9592895
2019_74924,서울특별시 서대문구 홍제천로 172,37.57797817,126.9324733
2019_74923,서울특별시 노원구 공릉로27길 110,37.62671914,127.0774751
2019_74922,서울특별시 서대문구 성산로 394,37.5617962,126.9316849
2019_74921,서울특별시 서대문구 수색로 100,37.57473348,126.9079161
2019_74920,서울특별시 은평구 응암로 279,37.59677078,126.9193829
2019_74919,서울특별시 서대문구 응암로 28,37.57627162,126.9098441
2019_74918,서울특별시 노원구 공릉로46길 32,37.6263561,127.0821837
2019_74917,서울특별시 서대문구 증가로 191,37.57849683,126.9173923
2019_74916,서울특별시 은평구 증산로21길 11,37.59570741,126.913495
2019_74915,서울특별시 마포구 효창원로93길 18,,
2019_74914,서울특별시 성북구 종암로19다길 42-12,37.59890973,127.0271347
2019_74913,서울특별시 성북구 종암로23길 35,37.59816479,127.0297513
2019_74912,서울특별시 성북구 창경궁로 323,37.58845789,127.0054142
2019_74911,서울특별시 동대문구 한천로 300,37.58783931,127.0685393
2019_74910,서울특별시 중랑구 동일로 946,37.61502654,127.0769894
2019_74909,서울특별시 중랑구 동일로 946,37.61502654,127.0769894
2019_74908,서울특별시 동대문구 장한로28가길 115,37.57811406,127.072799
2019_74907,서울특별시 성동구 상원길 47,37.54784374,127.0472662
2019_74906,서울특별시 중랑구 상봉중앙로8길 76,37.60270473,127.0914659
2019_74905,서울특별시 광진구 광나루로 369,37.54846108,127.0710495
2019_74904,서울특별시 성동구 독서당로 218,37.54262944,127.0155544
2019_74903,서울특별시 성동구 금호로 173,37.55627884,127.0181523
2019_74902,서울특별시 강북구 숭인로7가길 37,37.61389583,127.0262234
2019_74901,서울특별시 동대문구 정릉천동로 36,37.57547229,127.0371123
2019_74900,서울특별시 성동구 왕십리로 410,37.56660293,127.0240825
2019_74899,서울특별시 성동구 난계로 84,37.55913142,127.0240799
2019_74898,서울특별시 광진구 아차산로70길 62,37.54037666,127.0989953
2019_74897,서울특별시 강북구 도봉로 157,37.62275922,127.0270023
2019_74896,서울특별시 동대문구 장안벚꽃로5길 10,37.5818753,127.0731573
2019_74895,서울특별시 강동구 양재대로 1340,37.52577786,127.1359315
2019_74894,서울특별시 강동구 양재대로 1340,37.52577786,127.1359315
2019_74893,서울특별시 송파구 문정로 197,37.49655475,127.1392156
2019_74892,서울특별시 강동구 성안로 170,37.53804178,127.1360493
2019_74891,서울특별시 강동구 올림픽로104길 42,37.5551398,127.1319645
2019_74890,서울특별시 강동구 고덕로 131,37.55516675,127.1438388
2019_74889,서울특별시 구로구 도림로 59,37.4898994,126.8889619
2019_74888,서울특별시 영등포구 버드나루로15길 2,37.5264421,126.9084317
2019_74887,서울특별시 양천구 목동동로 430,37.53520568,126.8843932
2019_74886,서울특별시 구로구 가마산로 231,37.49501733,126.8846651
2019_74885,서울특별시 구로구 구로중앙로 134,37.49998807,126.8840982
2019_74884,서울특별시 영등포구 국회대로54길 10,37.52365869,126.9064302
2019_74883,서울특별시 마포구 월드컵북로5나길 18,37.55733527,126.9167961
2019_74882,서울특별시 금천구 시흥대로151길 45,37.47673006,126.8960718
2019_74881,서울특별시 마포구 월드컵북로5나길 18,37.55733527,126.9167961
2019_74880,서울특별시 마포구 독막로42길 2,37.5436033,126.9458539
2019_74879,서울특별시 금천구 벚꽃로 73,37.46291004,126.8904233
2019_74878,서울특별시 구로구 중앙로 121,37.50887105,126.8579863
2019_74877,서울특별시 금천구 금하로23라길 31,37.45404949,126.9106625
2019_74876,서울특별시 동작구 동작대로29길 119,37.49088863,126.9760567
2019_74875,서울특별시 서초구 방배로32길 109,37.4929037,126.9974348
2019_74874,서울특별시 영등포구 대림로34마길 15,37.50030523,126.8993412
2019_74873,서울특별시 송파구 송파대로 567,37.51313818,127.0930487
2019_74872,서울특별시 강남구 압구정로 201,37.53153417,127.0292731
2019_74871,서울특별시 동작구 현충로10길 42,37.50480013,126.9669103
2019_74870,서울특별시 관악구 관악로30길 27,37.48896635,126.9606433
2019_74869,서울특별시 관악구 은천로39길 56,37.48897019,126.9540676
2019_74868,서울특별시 송파구 송이로31길 56,37.49086162,127.1363837
2019_74867,서울특별시 관악구 신원로 26,37.48115498,126.9282708
2019_74866,서울특별시 강남구 학동로68길 30,37.51657975,127.0465099
2019_74865,서울특별시 강남구 테헤란로4길 32,37.49630073,127.0301605
2019_74864,서울특별시 동작구 상도로53길 8,37.50086276,126.9540532
2019_74863,서울특별시 관악구 문성로 74,37.47675611,126.9120581
2019_74862,서울특별시 서초구 잠원로 37-48,37.51007746,127.00618
2019_74861,서울특별시 동작구 사당로27길 130,37.48982944,126.9728808
2019_74860,서울특별시 관악구 신원로 26,37.48115498,126.9282708
2019_74859,서울특별시 서초구 방배로 270,37.49762518,126.988623
2019_74858,서울특별시 관악구 남부순환로 1802,37.48117007,126.9502849
2019_74857,서울특별시 은평구 진흥로9길 2,37.60555691,126.9219777
2019_74856,서울특별시 도봉구 덕릉로62길 13,37.64073882,127.0411143
2019_74855,서울특별시 강서구 등촌로51길 128,37.55124186,126.8582019
2019_74854,서울특별시 구로구 부일로9길 127,37.49760176,126.8205929
2019_74853,서울특별시 영등포구 영등포로 390,37.5132492,126.9213645
2019_74852,서울특별시 영등포구 영등포로 106,37.52088603,126.8928591
2019_74851,서울특별시 성북구 북악산로 813,37.60113925,127.0149455
2019_74850,서울특별시 동대문구 정릉천동로 80,37.57910813,127.0351452
2019_74849,서울특별시 종로구 창경궁로 265,37.58587613,126.999602
2019_74848,서울특별시 송파구 마천로35길 18,37.50046252,127.1460721
2019_74847,서울특별시 강동구 동남로49길 57,37.53121499,127.1460901
2019_74846,서울특별시 강동구 천호대로 1176,37.53357806,127.1419321
2019_74845,서울특별시 강동구 천호대로 1092,37.53524776,127.1326638
2019_74844,서울특별시 서초구 강남대로53길 11,37.49396164,127.0279164
2019_74843,서울특별시 송파구 올림픽로35길 104,37.51981736,127.0992977
2019_74842,서울특별시 동작구 상도로53길 8,37.50086276,126.9540532
2019_74841,서울특별시 서초구 신반포로15길 4,37.50414349,126.9974539
2019_74840,서울특별시 송파구 올림픽로 135,37.51673328,127.0898891
2019_74839,서울특별시 송파구 올림픽로 99,37.51512525,127.07813
2019_74838,서울특별시 송파구 올림픽로4길 42,37.50832555,127.0720279
2019_74837,서울특별시 송파구 송파대로 567,37.51313818,127.0930487
2019_74836,서울특별시 관악구 문성로 74,37.47675611,126.9120581
2019_74835,서울특별시 강남구 개포로110길 50,37.48954101,127.0796242
2019_74834,서울특별시 강남구 언주로30길 13,37.48812761,127.0506867
2019_74833,서울특별시 강남구 강남대로 240,37.48525961,127.0344297
2019_74832,서울특별시 관악구 봉천로 209,37.49049549,126.9249817
2019_74831,서울특별시 관악구 솔밭로7길 16,37.47988873,126.9638701
2019_74830,서울특별시 영등포구 도림천로 431,37.48767567,126.8996873
2019_74829,서울특별시 동작구 여의대방로 22,37.49109691,126.9118137
2019_74828,서울특별시 종로구 사직로8길 4,37.57467165,126.9684298
2019_74827,서울특별시 성북구 월곡로14길 26,37.60023402,127.0426519
2019_74826,서울특별시 성북구 월곡로14길 26,37.60023402,127.0426519
2019_74825,서울특별시 중랑구 동일로149길 15,37.60638018,127.0770147
2019_74824,서울특별시 중랑구 숙선옹주로 91,37.61726537,127.0855444
2019_74823,서울특별시 광진구 능동로3다길 13,37.53348593,127.0649341
2019_74822,서울특별시 종로구 대학로 33,37.57404525,127.0018679
2019_74821,서울특별시 용산구 독서당로 73-4,37.53461229,127.0092119
2019_74820,서울특별시 용산구 독서당로 46,37.53238119,127.0072578
2019_74819,서울특별시 용산구 독서당로 111,37.53612286,127.0073076
2019_74818,서울특별시 성북구 동소문로 248,37.6034576,127.0245412
2019_74817,서울특별시 성북구 돌곶이로 220,37.61901822,127.0464327
2019_74816,서울특별시 성북구 화랑로37길 42,37.61341108,127.0576922
2019_74815,서울특별시 동대문구 장안벚꽃로 107,37.57105683,127.0751137
2019_74814,서울특별시 중랑구 봉화산로 216,37.60688845,127.0970278
2019_74813,서울특별시 중랑구 신내로7길 20,37.60139119,127.0960991
2019_74812,서울특별시 성북구 북악산로 813,37.60113925,127.0149455
2019_74811,서울특별시 강북구 솔샘로 174,37.61763836,127.0105997
2019_74810,서울특별시 노원구 공릉로34길 62,37.62336469,127.0821222
2019_74809,서울특별시 마포구 마포대로 33,37.53998479,126.9454475
2019_74808,서울특별시 도봉구 도봉로136길 28,37.65657114,127.042729
2019_74807,서울특별시 도봉구 노해로69길 103,37.65778635,127.0492757
2019_74806,서울특별시 노원구 마들로 111,37.62383436,127.0647781
2019_74805,서울특별시 노원구 동일로237길 41,37.67275034,127.0526996
2019_74804,서울특별시 노원구 한글비석로48길 6,37.66521219,127.0677191
2019_74803,서울특별시 노원구 동일로245가길 41,37.68066639,127.0538014
2019_74802,서울특별시 서대문구 신촌로 1,37.55887396,126.9273951
2019_74801,서울특별시 노원구 덕릉로 613,37.65217998,127.0731
2019_74800,서울특별시 도봉구 노해로70길 119,37.64739119,127.053376
2019_74799,서울특별시 노원구 섬밭로 139,37.63028158,127.0657021
2019_74798,서울특별시 양천구 신정이펜2로 55,37.51517064,126.8309919
2019_74797,서울특별시 양천구 목동동로 100,37.51498201,126.8651323
2019_74796,서울특별시 양천구 목동서로 340,37.51942468,126.8640382
2019_74795,서울특별시 양천구 신목로 7,37.51507887,126.8764181
2019_74794,서울특별시 양천구 신정로 300,37.51302738,126.8546564
2019_74793,서울특별시 양천구 신정로 290,37.51232428,126.8534546
2019_74792,서울특별시 양천구 곰달래로2길 16,37.52794741,126.8343168
2019_74791,서울특별시 양천구 신월로 99,37.5184159,126.8351572
2019_74790,서울특별시 금천구 금하로 816,37.44977863,126.9200208
2019_74789,서울특별시 금천구 탑골로2길 24,37.45103228,126.9115222
2019_74788,서울특별시 구로구 경서로1길 14,37.4991114,126.8561528
2019_74787,서울특별시 영등포구 여의대방로61길 19,37.51430122,126.9238469
2019_74786,서울특별시 영등포구 가마산로 442,37.50498194,126.9095271
2019_74785,서울특별시 구로구 새말로18길 64,37.50365752,126.8919064
2019_74784,서울특별시 구로구 구일로4길 22,37.49116709,126.8756454
2019_74783,서울특별시 구로구 구로중앙로28다길 22,37.50142228,126.8888641
2019_74782,서울특별시 강서구 곰달래로 96,37.53009716,126.8434646
2019_74781,서울특별시 양천구 목동동로 350,37.53515661,126.8818744
2019_74780,서울특별시 영등포구 국제금융로7길 27,37.52426326,126.9330953
2019_74779,서울특별시 양천구 신정로7길 60-7,37.51344815,126.8384272
2019_74778,서울특별시 구로구 도림로20길 50,37.48825972,126.8938371
2019_74777,서울특별시 금천구 한내로 69-54,37.46021679,126.8858148
2019_74776,서울특별시 구로구 고척로 82,37.49980442,126.8431058
2019_74775,서울특별시 양천구 신정로11길 63,37.51094791,126.8366956
2019_74774,서울특별시 강서구 화곡로14길 19,37.53838061,126.8349448
2019_74773,서울특별시 영등포구 도림로 456,37.51553658,126.8929433
2019_74772,서울특별시 강서구 화곡로66길 90,37.55601379,126.8582633
2019_74771,서울특별시 양천구 신정로7길 76,37.51350715,126.8360663
2019_74770,서울특별시 양천구 목동서로 236,37.52637301,126.8685567
2019_74769,서울특별시 영등포구 영등포로64길 11,37.51419246,126.9172645
2019_74768,서울특별시 마포구 망원로4길 8,37.55630177,126.9016132
2019_74767,서울특별시 영등포구 경인로 882,37.5175214,126.9107121
2019_74766,서울특별시 양천구 신목로2길 11,37.51926628,126.8754758
2019_74765,서울특별시 강서구 화곡로18길 30-11,37.53857822,126.8354767
2019_74764,서울특별시 양천구 신월로 99,37.5184159,126.8351572
2019_74763,서울특별시 강동구 진황도로 18,,
2019_74762,서울특별시 도봉구 마들로 684-19,37.67521459,127.048765
2019_74761,서울특별시 노원구 동일로207길 17,37.64273683,127.0641728
2019_74760,서울특별시 마포구 새창로 52,37.5399016,126.9557382
2019_74759,서울특별시 도봉구 마들로 835,37.68424475,127.0504626
2019_74758,서울특별시 노원구 노원로 58,37.62692051,127.0883803
2019_74757,서울특별시 노원구 섬밭로 123,37.62805406,127.0685738
2019_74756,서울특별시 노원구 섬밭로 232,37.63661517,127.0656682
2019_74755,서울특별시 은평구 갈현로5길 25-11,37.60171311,126.9084335
2019_74754,서울특별시 노원구 한글비석로 480,37.66675966,127.065753
2019_74753,서울특별시 노원구 노원로 564,37.66165211,127.0561247
2019_74752,서울특별시 서대문구 명지길 30,37.57963108,126.9300638
2019_74751,서울특별시 강북구 한천로109길 69,37.62681083,127.0414226
2019_74750,서울특별시 강남구 삼성로64길 5,37.5004475,127.0605138
2019_74749,서울특별시 동작구 동작대로29길 115,37.49041718,126.9758253
2019_74748,서울특별시 강남구 삼성로 150,37.49569534,127.0685647
2019_74747,서울특별시 관악구 관악로30길 27,37.48896635,126.9606433
2019_74746,서울특별시 서초구 바우뫼로7길 51,37.47330076,127.0230163
2019_74745,서울특별시 강남구 압구정로 403,37.53004204,127.0423104
2019_74744,서울특별시 송파구 올림픽로35길 104,37.51981736,127.0992977
2019_74743,서울특별시 용산구 새창로 70,37.53860305,126.9549435
2019_74742,서울특별시 성북구 아리랑로19가길 21,37.60185586,127.0120427
2019_74741,서울특별시 중구 청계천로 400,37.57081055,127.0214639
2019_74740,서울특별시 중랑구 봉화산로 146,37.60360654,127.0904026
2019_74739,서울특별시 성동구 성수일로8길 47,37.54678648,127.055596
2019_74738,서울특별시 동대문구 천호대로 257,37.56895705,127.0505799
2019_74737,서울특별시 중구 소공로 35,37.55822471,126.9817445
2019_74736,서울특별시 용산구 독서당로 111,37.53612286,127.0073076
2019_74735,서울특별시 성동구 동일로 263,37.55627169,127.071436
2019_74734,서울특별시 성북구 성북로4길 52,37.59447253,127.012706
2019_74733,서울특별시 종로구 종로58가길 27,37.57239256,127.0167357
2019_74732,서울특별시 동대문구 왕산로 86,37.57775047,127.0324772
2019_74731,서울특별시 성동구 독서당로 272,37.54533003,127.0179254
2019_74730,서울특별시 중랑구 신내로 110,37.60979996,127.0962946
2019_74729,서울특별시 성동구 금호로 17,37.54688262,127.0240727
2019_74728,서울특별시 중구 퇴계로 447,37.56604198,127.0217218
2019_74727,서울특별시 성북구 길음로 118,37.61132476,127.0208497
2019_74726,서울특별시 성동구 행당로 79,37.55820535,127.027507
2019_74725,서울특별시 동대문구 장안벚꽃로 167,37.5750721,127.0742821
2019_74724,서울특별시 성북구 북악산로 831,37.60001907,127.017358
2019_74723,서울특별시 성북구 한천로76길 73,37.61105039,127.0667784
2019_74722,서울특별시 용산구 녹사평대로 245,37.54019112,126.987079
2019_74721,서울특별시 성북구 종암로24가길 53,37.60084117,127.0379642
2019_74720,서울특별시 중구 다산로36길 109,37.56050413,127.0229704
2019_74719,서울특별시 중랑구 면목로69길 16,37.58725262,127.0863442
2019_74718,서울특별시 종로구 종로58가길 27,37.57239256,127.0167357
2019_74717,서울특별시 동대문구 한천로11길 10-1,37.56989001,127.061632
2019_74716,서울특별시 광진구 구의강변로1길 44,37.52989578,127.0896265
2019_74715,서울특별시 광진구 뚝섬로56길 72,37.52803056,127.0826551
2019_74714,서울특별시 중구 동호로10길 30,37.5551916,127.0163594
2019_74713,서울특별시 마포구 서강로 95,37.55204413,126.9321001
2019_74712,서울특별시 양천구 중앙로36길 15,37.52077533,126.8559455
2019_74711,서울특별시 강서구 양천로 125,37.57384876,126.8172458
2019_74710,서울특별시 강서구 강서로68길 36,37.56538683,126.8422565
2019_74709,서울특별시 구로구 개봉로15길 91,37.48964491,126.8510807
2019_74708,서울특별시 마포구 양화로 45,37.5515008,126.9139502
2019_74707,서울특별시 구로구 경인로 248-13,37.49753777,126.848289
2019_74706,서울특별시 구로구 오리로 1197,37.48870931,126.8341108
2019_74705,서울특별시 양천구 신월로 99,37.5184159,126.8351572
2019_74704,서울특별시 구로구 경인로40길 25,37.49540393,126.8597417
2019_74703,서울특별시 강서구 곰달래로20길 31-7,37.52885885,126.8433509
2019_74702,서울특별시 구로구 도림로 59,37.4898994,126.8889619
2019_74701,서울특별시 강남구 개포로109길 9,37.49575182,127.0751013
2019_74700,서울특별시 동작구 매봉로 134,37.51014704,126.9514909
2019_74699,서울특별시 동작구 보라매로5길 43,37.49143108,126.923417
2019_74698,서울특별시 송파구 올림픽로35길 104,37.51981736,127.0992977
2019_74697,서울특별시 강동구 고덕로 240,37.55382442,127.151914
2019_74696,서울특별시 강동구 아리수로97길 68,37.56873076,127.1766546
2019_74695,서울특별시 강동구 양재대로 1340,37.52577786,127.1359315
2019_74694,서울특별시 강동구 천호대로 1044-12,37.53658003,127.1277149
2019_74693,서울특별시 강동구 고덕로 131,37.55516675,127.1438388
2019_74692,서울특별시 도봉구 도봉로110다길 51,37.64320468,127.0329434
2019_74691,서울특별시 서대문구 연희로32길 48,37.57586005,126.937263
2019_74690,서울특별시 은평구 서오릉로25길 22,37.61692062,126.9042137
2019_74689,서울특별시 강북구 월계로37길 137,37.62717086,127.0434356
2019_74688,서울특별시 도봉구 시루봉로5길 48,37.65865822,127.0258089
2019_74687,서울특별시 서대문구 가재울미래로 2,37.57440199,126.9179078
2019_74686,서울특별시 노원구 한글비석로 479,37.66449773,127.0644832
2019_74685,서울특별시 노원구 동일로 1456,37.66067691,127.0614956
2019_74684,서울특별시 노원구 동일로215길 23,37.6504273,127.059109
2019_74683,서울특별시 노원구 동일로245가길 41,37.68066639,127.0538014
2019_74682,서울특별시 노원구 공릉로34길 62,37.62336469,127.0821222
2019_74681,서울특별시 은평구 갈현로15길 4,37.60768357,126.9102615
2019_74680,서울특별시 은평구 갈현로11길 46,37.60479886,126.9054022
2019_74679,서울특별시 서대문구 홍은중앙로1길 33,37.59719423,126.9450847
2019_74678,서울특별시 도봉구 우이천로32길 67,37.65079612,127.0251367
2019_74677,서울특별시 은평구 연서로 9,37.60009953,126.9155685
2019_74676,서울특별시 은평구 응암로 263,37.59546862,126.9183873
2019_74675,서울특별시 도봉구 우이천로38가길 32,37.65219581,127.021422
2019_74674,서울특별시 서대문구 응암로 133,37.58466671,126.9141921
2019_74673,서울특별시 서대문구 증가로 200-8,37.57988347,126.9171554
2019_74672,서울특별시 은평구 은평터널로 65,37.58689948,126.8991669
2019_74671,서울특별시 노원구 섬밭로 285,37.64088105,127.0625338
2019_74670,서울특별시 도봉구 덕릉로63가길 43,37.64292288,127.0387776
2019_74669,서울특별시 도봉구 마들로 551,37.65946197,127.0480359
2019_74668,서울특별시 도봉구 해등로 286-5,37.65772975,127.0241592
2019_74667,서울특별시 도봉구 시루봉로 107,37.66121703,127.0261502
2019_74666,서울특별시 서대문구 응암로 133,37.58466671,126.9141921
2019_74665,서울특별시 강북구 덕릉로 76,37.63434592,127.0221609
2019_74664,서울특별시 노원구 동일로241길 53,37.67801899,127.0529134
2019_74663,서울특별시 노원구 공릉로 351,37.63812512,127.06791
2019_74662,서울특별시 노원구 석계로 107,37.62253357,127.0604186
2019_74661,서울특별시 은평구 증산로 315,37.58506957,126.9104672
2019_74660,서울특별시 은평구 진관2로 77,37.63456957,126.9268349
2019_74659,서울특별시 서대문구 통일로26길 17,37.58333021,126.9510259
2019_74658,서울특별시 노원구 초안산로1길 18,37.62915542,127.0516038
2019_74657,서울특별시 은평구 연서로19길 9,,
2019_74656,서울특별시 은평구 백련산로 127,37.59714465,126.923656
2019_74655,서울특별시 은평구 백련산로 38,37.58927061,126.9230906
2019_74654,서울특별시 도봉구 덕릉로 349,37.64503774,127.0460993
2019_74653,서울특별시 노원구 노원로34길 34,37.6603301,127.0658717
2019_74652,서울특별시 종로구 삼봉로 95,37.57231119,126.9825684
2019_74651,서울특별시 성동구 독서당로 272,37.54533003,127.0179254
2019_74650,서울특별시 종로구 대학로 33,37.57404525,127.0018679
2019_74649,서울특별시 중랑구 신내로19길 42,37.61410176,127.0910347
2019_74648,서울특별시 성북구 보국문로 167,37.61668612,127.0018422
2019_74647,서울특별시 광진구 천호대로137길 16-10,37.54944717,127.0939494
2019_74646,서울특별시 중구 다산로46길 17,37.5668676,127.0171229
2019_74645,서울특별시 동대문구 답십리로59길 33,37.57506213,127.0665224
2019_74644,서울특별시 성북구 월계로36길 27,37.62144228,127.0463268
2019_74643,서울특별시 성북구 정릉로44길 7,37.60142788,127.0248015
2019_74642,서울특별시 동대문구 한천로32길 37,37.57459436,127.0692988
2019_74641,서울특별시 용산구 독서당로 111,37.53612286,127.0073076
2019_74640,서울특별시 성북구 숭인로2길 61,37.60935341,127.0249739
2019_74639,서울특별시 중랑구 상봉로 99,37.59475826,127.0928533
2019_74638,서울특별시 동대문구 한천로 248,37.58323604,127.071898
2019_74637,서울특별시 동대문구 서울시립대로29길 62,37.58649244,127.0550861
2019_74636,서울특별시 광진구 구의강변로1길 44,37.52989578,127.0896265
2019_74635,서울특별시 중랑구 중랑천로 14,37.58685599,127.0746078
2019_74634,서울특별시 용산구 독서당로 22,37.53016316,127.0078018
2019_74633,서울특별시 강동구 양재대로 1340,37.52577786,127.1359315
2019_74632,서울특별시 강동구 상암로12길 24,37.54877075,127.1278567
2019_74631,서울특별시 강서구 화곡로18길 24,37.53906639,126.835419
2019_74630,서울특별시 구로구 도림로 59,37.4898994,126.8889619
2019_74629,서울특별시 강서구 강서로 348,37.55707841,126.8380811
2019_74628,서울특별시 마포구 와우산로30길 135,37.54982093,126.9275618
2019_74627,서울특별시 금천구 탑골로 84,37.45301593,126.9174651
2019_74626,서울특별시 금천구 범안로17길 12,37.46715359,126.8945478
2019_74625,서울특별시 영등포구 당산로42길 16,37.53059009,126.899629
2019_74624,서울특별시 구로구 디지털로 318,37.48675174,126.8973441
2019_74623,서울특별시 양천구 신정이펜2로 55,37.51517064,126.8309919
2019_74622,서울특별시 마포구 서강로 83,37.55092398,126.9320472
2019_74621,서울특별시 구로구 디지털로 318,37.48675174,126.8973441
2019_74620,서울특별시 마포구 양화로 114,37.55358171,126.9199149
2019_74619,서울특별시 송파구 새말로8길 12,37.48145047,127.1259495
2019_74618,서울특별시 서초구 효령로68길 81,37.48518641,127.0206731
2019_74617,서울특별시 송파구 한가람로 448,37.53750523,127.1152272
2019_74616,서울특별시 송파구 한가람로 478,37.53979928,127.1179507
2019_74615,서울특별시 동작구 국사봉18길 24,37.493689,126.9335346
2019_74614,서울특별시 동작구 여의대방로 28,37.49527344,126.9116905
2019_74613,서울특별시 동작구 매봉로 134,37.51014704,126.9514909
2019_74612,서울특별시 서초구 방배로28길 90,37.49104509,126.9969655
2019_74611,서울특별시 강남구 압구정로29길 23,37.5298193,127.0273644
2019_74610,서울특별시 관악구 보라매로3길 29,37.49121134,126.9249903
2019_74609,서울특별시 강남구 자곡로 101,37.47265508,127.0958055
2019_74608,서울특별시 관악구 청룡길 78,37.47831252,126.9453738
2019_74607,서울특별시 강남구 광평로51길 27,37.48961473,127.1007301
2019_74606,서울특별시 강남구 언주로30길 26,37.48776325,127.0525302
2019_74605,서울특별시 동작구 여의대방로22나길 47,37.49620293,126.9227728
2019_74604,서울특별시 강남구 삼성로 150,37.49569534,127.0685647
2019_74603,서울특별시 강남구 학동로 432,37.51820401,127.0486971
2019_74602,서울특별시 강남구 선릉로69길 20,37.49874723,127.0509235
2019_74601,서울특별시 관악구 신림로3길 40,37.46678342,126.9418862
2019_74600,서울특별시 동작구 사당로17길 52,37.4874249,126.9731525
2019_74599,서울특별시 동작구 등용로 127,37.51255874,126.9309884
2019_74598,서울특별시 동작구 여의대방로 22,37.49109691,126.9118137
2019_74597,서울특별시 관악구 대학7길 26,37.46833631,126.9390254
2019_74596,서울특별시 동작구 상도로15길 131,37.5049676,126.9379704
2019_74595,서울특별시 동작구 관악로30길 27,37.48593701,126.9618215
2019_74594,서울특별시 관악구 대학18길 6,37.46556006,126.9373646
2019_74593,서울특별시 관악구 남부순환로218길 1,37.48107915,126.9506892
2019_74592,서울특별시 강남구 도산대로87길 38,37.52716214,127.0508297
2019_74591,서울특별시 송파구 송파대로36길 37,37.50174336,127.1157683
2019_74590,서울특별시 강남구 언주로30길 56,37.48806952,127.0534832
2019_74589,서울특별시 도봉구 도봉로129길 45-12,37.65517947,127.035126
2019_74588,서울특별시 강북구 덕릉로 12,37.63374214,127.0148704
2019_74587,서울특별시 은평구 진흥로9길 2,37.60555691,126.9219777
2019_74586,서울특별시 노원구 동일로215길 48,37.65082219,127.0561606
2019_74585,서울특별시 노원구 마들로 59,37.62262082,127.0668819
2019_74584,서울특별시 도봉구 시루봉로 58,37.65581532,127.0294107
2019_74583,서울특별시 은평구 진흥로 265,37.61170533,126.9368518
2019_74582,서울특별시 노원구 섬밭로 123,37.62805406,127.0685738
2019_74581,서울특별시 도봉구 노해로38길 15,37.64574887,127.0265515
2019_74580,서울특별시 도봉구 해등로 242-12,37.65866831,127.0307242
2019_74579,서울특별시 은평구 불광로 9-1,37.60973185,126.9275286
2019_74578,서울특별시 노원구 중계로 172-13,37.65047062,127.0814973
2019_74577,서울특별시 노원구 마들로 111,37.62383436,127.0647781
2019_74576,서울특별시 은평구 가좌로7나길 30,37.58400937,126.9189386
2019_74575,서울특별시 은평구 진흥로9길 2,37.60555691,126.9219777
2019_74574,서울특별시 노원구 공릉로34길 62,37.62336469,127.0821222
2019_74573,서울특별시 강북구 삼각산로 143-1,37.64265579,127.019639
2019_74572,서울특별시 노원구 동일로207길 17,37.64273683,127.0641728
2019_74571,서울특별시 도봉구 시루봉로 166,37.66402936,127.0305763
2019_74570,서울특별시 노원구 섬밭로 139,37.63028158,127.0657021
2019_74569,서울특별시 구로구 가마산로 284,37.49642492,126.8919528
2019_74568,서울특별시 금천구 금하로 816,37.44977863,126.9200208
2019_74567,서울특별시 양천구 신월로 99,37.5184159,126.8351572
2019_74566,서울특별시 강서구 화곡로59길 59,37.55424469,126.8483285
2019_74565,서울특별시 구로구 경서로1길 14,37.4991114,126.8561528
2019_74564,서울특별시 구로구 중앙로15길 132-17,37.50871289,126.853315
2019_74563,서울특별시 양천구 목동동로 250,37.52570885,126.8738176
2019_74562,서울특별시 금천구 시흥대로 251,37.45609724,126.8995704
2019_74561,서울특별시 종로구 경희궁길 57,37.57352028,126.9678075
2019_74560,서울특별시 중랑구 상봉로 110,37.59570679,127.0933457
2019_74559,서울특별시 동대문구 서울시립대로 31,37.57531055,127.0458645
2019_74558,서울특별시 성북구 정릉로 404,37.60429852,127.0287962
2019_74557,서울특별시 성북구 길음로9길 50,37.60269651,127.020948
2019_74556,서울특별시 용산구 후암로 71-1,37.55198817,126.975661
2019_74555,서울특별시 성동구 행당로 79,37.55820535,127.027507
2019_74554,서울특별시 광진구 긴고랑로1길 55,37.56677901,127.0784144
2019_74553,서울특별시 성북구 오패산로 90,37.60994709,127.0369136
2019_74552,서울특별시 송파구 위례광장로 230,37.47861981,127.1435334
2019_74551,서울특별시 강동구 양재대로124길 32,37.54260895,127.1436538
2019_74550,서울특별시 강동구 양재대로 1340,37.52577786,127.1359315
2019_74549,서울특별시 강동구 양재대로130길 26,37.54573904,127.1446687
2019_74548,서울특별시 강동구 천호대로168길 41-12,37.53346248,127.1318932
2019_74547,서울특별시 송파구 오금로35길 17,37.5063971,127.1273634
2019_74546,서울특별시 송파구 오금로56길 16,37.49290941,127.1419818
2019_74545,서울특별시 송파구 오금로 407,37.4986414,127.1365867
2019_74544,서울특별시 강동구 진황도로 85,37.5366246,127.136133
2019_74543,서울특별시 강동구 천호대로175길 14,37.53528691,127.1370389
2019_74542,서울특별시 강동구 천호대로 1239,37.53786128,127.148277
2019_74541,서울특별시 강동구 진황도로 47-2,37.53855616,127.1329657
2019_74540,서울특별시 강동구 진황도로 85,37.5366246,127.136133
2019_74539,서울특별시 송파구 올림픽로 99,37.51512525,127.07813
2019_74538,서울특별시 동작구 만양로 19,37.50707174,126.9457182
2019_74537,서울특별시 관악구 낙성대역16길 29,37.47269773,126.9649195
2019_74536,서울특별시 관악구 청룡길 78,37.47831252,126.9453738
2019_74535,서울특별시 서초구 서초중앙로 200,37.50045322,127.0156476
2019_74534,서울특별시 서초구 서초대로1길 30,37.48923288,126.9836143
2019_74533,서울특별시 강남구 언주로167길 15,37.5262583,127.0319139
2019_74532,서울특별시 송파구 오금로32길 14,37.50525374,127.1178045
2019_74531,서울특별시 강남구 개포로 307,37.48463106,127.056092
2019_74530,서울특별시 동작구 사당로17길 52,37.4874249,126.9731525
2019_74529,서울특별시 동작구 보라매로5가길 16,37.4912751,126.9240947
2019_74528,서울특별시 관악구 신림로29길 8,37.4755685,126.9328111
2019_74527,서울특별시 관악구 광신길 160,37.46603314,126.9273708
2019_74526,서울특별시 강남구 도곡로69길 16,37.49844546,127.055952
2019_74525,서울특별시 동대문구 장안벚꽃로 167,37.5750721,127.0742821
2019_74524,서울특별시 강북구 삼양로19길 113,37.61705556,127.0177233
2019_74523,서울특별시 성북구 오패산로16가길 40,37.60990552,127.0386975
2019_74522,서울특별시 성북구 오패산로 46,37.60747384,127.0387095
2019_74521,서울특별시 성북구 오패산로 46,37.60747384,127.0387095
2019_74520,서울특별시 성북구 오패산로 46,37.60747384,127.0387095
2019_74519,서울특별시 동대문구 전농로10길 20,37.57460947,127.0601291
2019_74518,서울특별시 성동구 난계로 84,37.55913142,127.0240799
2019_74517,서울특별시 성동구 행당로 82,37.55480888,127.0273997
2019_74516,서울특별시 동대문구 답십리로 210-30,37.57139115,127.0630041
2019_74515,서울특별시 성북구 오패산로 46,37.60747384,127.0387095
2019_74514,서울특별시 중랑구 면목로 429,37.59019347,127.0868261
2019_74513,서울특별시 성북구 북악산로 844,37.59738598,127.019323
2019_74512,서울특별시 동대문구 한천로58길 47,37.60075075,127.0687695
2019_74511,서울특별시 중랑구 봉화산로 130,37.60319039,127.0884681
2019_74510,서울특별시 성북구 오패산로 46,37.60747384,127.0387095
2019_74509,서울특별시 용산구 후암로16나길 20,37.54919911,126.9788385
2019_74508,서울특별시 성북구 오패산로 46,37.60747384,127.0387095
2019_74507,서울특별시 성북구 종암로24가길 80,37.59931367,127.0392269
2019_74506,서울특별시 성북구 보국문로30길 15,37.61743004,127.0029912
2019_74505,서울특별시 성북구 북악산로 851,37.60025102,127.0183154
2019_74504,서울특별시 성동구 금호로 107,37.55227227,127.0242376
2019_74503,서울특별시 성북구 낙산길 243-15,37.58267456,127.0144138
2019_74502,서울특별시 노원구 화랑로 421,37.61749956,127.0743294
2019_74501,서울특별시 노원구 노원로1길 21,37.6209313,127.0845566
2019_74500,서울특별시 노원구 공릉로34길 62,37.62336469,127.0821222
2019_74499,서울특별시 노원구 동일로241길 84,37.67824793,127.051899
2019_74498,서울특별시 노원구 노원로22길 34,37.64636938,127.0727769
2019_74497,서울특별시 노원구 한글비석로14길 8,37.65747634,127.0774342
2019_74496,서울특별시 노원구 동일로207길 17,37.64273683,127.0641728
2019_74495,서울특별시 노원구 동일로207길 17,37.64273683,127.0641728
2019_74494,서울특별시 은평구 백련산로2길 19,37.59247684,126.9252695
2019_74493,서울특별시 은평구 서오릉로21길 47,37.61261782,126.906756
2019_74492,서울특별시 서대문구 신촌로 1,37.55887396,126.9273951
2019_74491,서울특별시 서대문구 세검정로3길 63,37.59374513,126.9468287
2019_74490,서울특별시 서대문구 연희로5길 14,37.56406366,126.928065
2019_74489,서울특별시 은평구 갈현로4길 26-5,37.60055659,126.9136774
2019_74488,서울특별시 도봉구 노해로66길 21,37.65039161,127.0473309
2019_74487,서울특별시 도봉구 해등로16길 12,37.65623484,127.0405729
2019_74486,서울특별시 마포구 마포대로 115-8,37.54591501,126.9506223
2019_74485,서울특별시 구로구 구일로8길 63,37.49657523,126.8736295
2019_74484,서울특별시 구로구 구로중앙로 229,37.50531683,126.8755394
2019_74483,서울특별시 영등포구 여의동로 97,37.51747195,126.9270048
2019_74482,서울특별시 강서구 양천로55길 55,37.56632848,126.8481832
2019_74481,서울특별시 강서구 허준로 47,37.57101357,126.8465852
2019_74480,서울특별시 강서구 허준로 139,37.56461212,126.8562786
2019_74479,서울특별시 구로구 오류로 65,37.49064484,126.8401133
2019_74478,서울특별시 구로구 중앙로6길 5-15,37.50141071,126.8644137
2019_74477,서울특별시 양천구 지양로15길 20,37.52397372,126.82925
2019_74476,서울특별시 금천구 탑골로3길 50,,
2019_74475,서울특별시 금천구 금하로 793,37.45221259,126.9182453
2019_74474,서울특별시 양천구 지양로15길 20,37.52397372,126.82925
2019_74473,서울특별시 강서구 개화동로27가길 33,37.56272098,126.8075227
2019_74472,서울특별시 강서구 양천로 731,37.55025171,126.8773969
2019_74471,서울특별시 금천구 시흥대로 291-1,,
2019_74470,서울특별시 구로구 가마산로 280,37.49607957,126.8915643
2019_74469,서울특별시 강서구 우현로 67,37.54754619,126.8372075
2019_74468,서울특별시 강서구 공항대로46길 28,37.5547234,126.8528968
2019_74467,서울특별시 구로구 천왕로 91,37.48668938,126.8374452
2019_74466,서울특별시 양천구 신정중앙로 26,37.52742113,126.8546274
2019_74465,서울특별시 양천구 중앙로36길 15,37.52077533,126.8559455
2019_74464,서울특별시 양천구 중앙로29길 102,37.52045815,126.8489981
2019_74463,서울특별시 양천구 신정로7길 60-7,37.51344815,126.8384272
2019_74462,서울특별시 양천구 신정로13길 38,37.51291864,126.8423017
2019_74461,서울특별시 마포구 연남로 30,37.56271074,126.921857
2019_74460,서울특별시 강서구 허준로 175,37.56375809,126.8592894
2019_74459,서울특별시 구로구 구로동로47길 24,37.49946275,126.8804471
2019_74458,서울특별시 구로구 경인로47가길 10,37.50196222,126.865676
2019_74457,서울특별시 강서구 강서로 266,37.54826258,126.8409806
2019_74456,서울특별시 강서구 강서로7길 18,37.52972133,126.8468139
2019_74455,서울특별시 강서구 화곡로53길 75,37.55199272,126.844849
2019_74454,서울특별시 양천구 목동동로 430,37.53520568,126.8843932
2019_74453,서울특별시 강서구 허준로 47,37.57101357,126.8465852
2019_74452,서울특별시 금천구 시흥대로 224,37.45393842,126.9013962
2019_74451,서울특별시 영등포구 여의대방로61길 6,37.51438599,126.925371
2019_74450,서울특별시 구로구 구로중앙로34길 17,37.50084786,126.8840533
2019_74449,서울특별시 은평구 진흥로9길 2,37.60555691,126.9219777
2019_74448,서울특별시 강남구 개포로15길 32-8,37.47977729,127.0459495
2019_74447,서울특별시 관악구 신림로29길 8,37.4755685,126.9328111
2019_74446,서울특별시 관악구 신림로29길 8,37.4755685,126.9328111
2019_74445,서울특별시 동대문구 한천로24길 74-11,,
2019_74444,서울특별시 동대문구 이문로 37,37.59080113,127.0561174
2019_74443,서울특별시 성북구 장월로1길 28,37.60877249,127.045612
2019_74442,서울특별시 중랑구 동일로144길 3,37.60614382,127.0799103
2019_74441,서울특별시 종로구 명륜4길 8,37.58938413,126.995025
2019_74440,서울특별시 중랑구 사가정로71길 19,37.5808369,127.0950526
2019_74439,서울특별시 동대문구 답십리로 210-30,37.57139115,127.0630041
2019_74438,서울특별시 동대문구 약령시로 154,37.58304395,127.0470264
2019_74437,서울특별시 중랑구 중랑천로 20,37.58648311,127.0758051
2019_74436,서울특별시 종로구 성균관로17길 22,37.5906611,126.9976965
2019_74435,서울특별시 종로구 혜화로3길 5,37.58596461,127.0002305
2019_74434,서울특별시 광진구 자양로46길 9,37.55119538,127.0924659
2019_74433,서울특별시 강북구 오현로 56,37.61841157,127.0364759
2019_74432,서울특별시 강북구 삼양로19길 113,37.61705556,127.0177233
2019_74431,서울특별시 성북구 정릉로44길 7,37.60142788,127.0248015
2019_74430,서울특별시 성동구 매봉길 50,37.54729891,127.0121894
2019_74429,서울특별시 중구 다산로36길 110,37.55986467,127.0190343
2019_74428,서울특별시 중구 청계천로 400,37.57081055,127.0214639
2019_74427,서울특별시 중랑구 봉화산로 146,37.60360654,127.0904026
2019_74426,서울특별시 강동구 천중로39길 19-17,37.54213925,127.1382289
2019_74425,서울특별시 강동구 고덕로 210,37.5538093,127.147061
2019_74424,서울특별시 송파구 양재대로72길 42,37.50779733,127.1314186
2019_74423,서울특별시 강동구 올림픽로 572,37.53255275,127.1218186
2019_74422,서울특별시 강동구 천호대로175길 14,37.53528691,127.1370389
2019_74421,서울특별시 송파구 오금로54길 10,37.49361483,127.1410684
2019_74420,서울특별시 강동구 성내로 80,37.52717962,127.1279653
2019_74419,서울특별시 송파구 양재대로 1109,37.50817175,127.1250575
2019_74418,서울특별시 관악구 청림3길 10,37.48865052,126.959506
2019_74417,서울특별시 관악구 조원로 25,37.48370831,126.9054333
2019_74416,서울특별시 관악구 난곡로34길 45,37.47213317,126.9216069
2019_74415,서울특별시 관악구 난곡로34길 45,37.47213317,126.9216069
2019_74414,서울특별시 관악구 난곡로34길 45,37.47213317,126.9216069
2019_74413,서울특별시 관악구 난곡로34길 45,37.47213317,126.9216069
2019_74412,서울특별시 관악구 난곡로34길 45,37.47213317,126.9216069
2019_74411,서울특별시 관악구 난곡로34길 45,37.47213317,126.9216069
2019_74410,서울특별시 관악구 난곡로34길 45,37.47213317,126.9216069
2019_74409,서울특별시 관악구 난곡로34길 45,37.47213317,126.9216069
2019_74408,서울특별시 관악구 난곡로34길 45,37.47213317,126.9216069
2019_74407,서울특별시 관악구 난곡로34길 45,37.47213317,126.9216069
2019_74406,서울특별시 관악구 난곡로34길 45,37.47213317,126.9216069
2019_74405,서울특별시 관악구 난곡로34길 45,37.47213317,126.9216069
2019_74404,서울특별시 관악구 난곡로34길 45,37.47213317,126.9216069
2019_74403,서울특별시 관악구 난곡로34길 45,37.47213317,126.9216069
2019_74402,서울특별시 관악구 난곡로34길 45,37.47213317,126.9216069
2019_74401,서울특별시 관악구 난곡로34길 45,37.47213317,126.9216069
2019_74400,서울특별시 관악구 신사로 134,37.48878884,126.9167063
2019_74399,서울특별시 동작구 흑석한강로 27,37.50409942,126.9662844
2019_74398,서울특별시 강남구 개포로109길 9,37.49575182,127.0751013
2019_74397,서울특별시 동작구 신대방1나길 45,37.48588021,126.9070485
2019_74396,서울특별시 동작구 보라매로 70,37.49577317,126.9289798
2019_74395,서울특별시 동작구 보라매로5길 43,37.49143108,126.923417
2019_74394,서울특별시 송파구 올림픽로 99,37.51512525,127.07813
2019_74393,서울특별시 동작구 여의대방로44길 10,37.50736122,126.9260908
2019_74392,서울특별시 송파구 올림픽로35길 104,37.51981736,127.0992977
2019_74391,서울특별시 강남구 삼성로 212,37.49961577,127.0659154
2019_74390,서울특별시 강남구 남부순환로379길 14,37.48932756,127.0463116
2019_74389,서울특별시 강서구 마곡서1로 81,37.56436639,126.8191544
2019_74388,서울특별시 강서구 마곡서1로 100,37.5657541,126.8196234
2019_74387,서울특별시 금천구 시흥대로73길 11,37.45661694,126.8983015
2019_74386,서울특별시 영등포구 당산로 68,37.52082259,126.8959709
2019_74385,서울특별시 양천구 목동서로 280,37.52234027,126.8675633
2019_74384,서울특별시 구로구 서해안로34가길 18,37.49379081,126.8481845
2019_74383,서울특별시 구로구 부일로9길 127,37.49760176,126.8205929
2019_74382,서울특별시 구로구 고척로60길 20-9,37.50520122,126.8593145
2019_74381,서울특별시 강서구 우장산로 8,37.55431222,126.8383826
2019_74380,서울특별시 양천구 신월로 99,37.5184159,126.8351572
2019_74379,서울특별시 금천구 시흥대로128길 19,37.47053935,126.899552
2019_74378,서울특별시 양천구 목동서로 130,37.53151635,126.8709047
2019_74377,서울특별시 노원구 동일로207길 17,37.64273683,127.0641728
2019_74376,서울특별시 노원구 동일로208길 20,37.64325657,127.0669948
2019_74375,서울특별시 은평구 증산로 315,37.58506957,126.9104672
2019_74374,서울특별시 노원구 공릉로 351,37.63812512,127.06791
2019_74373,서울특별시 은평구 증산로 315,37.58506957,126.9104672
2019_74372,서울특별시 도봉구 덕릉로 349,37.64503774,127.0460993
2019_74371,서울특별시 노원구 덕릉로 780,37.66669198,127.079126
2019_74370,서울특별시 서대문구 충정로7길 9,37.56323065,126.9640758
2019_74369,서울특별시 노원구 동일로191가길 33-3,37.6263891,127.0709005
2019_74368,서울특별시 노원구 한글비석로 479,37.66449773,127.0644832
2019_74367,서울특별시 도봉구 해등로 195,37.65783785,127.0337873
2019_74366,서울특별시 노원구 덕릉로 780,37.66669198,127.079126
2019_74365,서울특별시 노원구 상계로 193-14,37.662163,127.0743053
2019_74364,서울특별시 노원구 초안산로1길 18,37.62915542,127.0516038
2019_74363,서울특별시 도봉구 해등로12길 44,37.65302339,127.0423286
2019_74362,서울특별시 은평구 서오릉로18길 13-15,37.61615646,126.910009
2019_74361,서울특별시 서대문구 모래내로 430,37.58361952,126.9422548
2019_74360,서울특별시 노원구 중계로8길 20,37.64536085,127.0832181
2019_74359,서울특별시 도봉구 방학로 193,37.66093246,127.0278928
2019_74358,서울특별시 서대문구 세검정로 134,37.59467849,126.951912
2019_74357,서울특별시 마포구 마포대로 195,37.55243392,126.9542238
2019_74356,서울특별시 은평구 역말로6길 11,37.60495557,126.9147853
2019_74355,서울특별시 은평구 갈현로29길 61,37.62302174,126.910403
2019_74354,서울특별시 노원구 한글비석로8길 42,37.64702362,127.0799492
2019_74353,서울특별시 노원구 노원로 564,37.66165211,127.0561247
2019_74352,서울특별시 은평구 증산로 315,37.58506957,126.9104672
2019_74351,서울특별시 노원구 월계로55길 15,37.63239642,127.059849
2019_74350,서울특별시 노원구 공릉로 157,37.62393328,127.0789887
2019_74349,서울특별시 강북구 노해로35길 67,37.64803409,127.0218726
2019_74348,서울특별시 도봉구 덕릉로66길 17,37.64371212,127.0539524
2019_74347,서울특별시 도봉구 도봉로150가길 27,37.66734923,127.0439244
2019_74346,서울특별시 도봉구 방학로 212-11,37.66286615,127.0278459
2019_74345,서울특별시 서대문구 홍은중앙로 156,37.60395833,126.9497517
2019_74344,서울특별시 광진구 동일로 354,37.56238913,127.0757226
2019_74343,서울특별시 성동구 무학봉길 35,37.56060557,127.0268748
2019_74342,서울특별시 종로구 난계로29가길 17,37.5737207,127.0227235
2019_74341,서울특별시 종로구 난계로29가길 17,37.5737207,127.0227235
2019_74340,서울특별시 종로구 난계로29가길 17,37.5737207,127.0227235
2019_74339,서울특별시 종로구 난계로29가길 17,37.5737207,127.0227235
2019_74338,서울특별시 종로구 난계로29가길 17,37.5737207,127.0227235
2019_74337,서울특별시 종로구 난계로29가길 17,37.5737207,127.0227235
2019_74336,서울특별시 종로구 난계로29가길 17,37.5737207,127.0227235
2019_74335,서울특별시 종로구 난계로29가길 17,37.5737207,127.0227235
2019_74334,서울특별시 종로구 난계로29가길 17,37.5737207,127.0227235
2019_74333,서울특별시 중랑구 사가정로42길 90,37.57795936,127.0810925
2019_74332,서울특별시 중랑구 사가정로71길 11,37.58100429,127.094504
2019_74331,서울특별시 성북구 길음로 118,37.61132476,127.0208497
2019_74330,서울특별시 중랑구 신내로14길 21,37.60612377,127.097148
2019_74329,서울특별시 광진구 광나루로 361,37.54844573,127.0697457
2019_74328,서울특별시 동대문구 장한로9길 25,37.56592471,127.0656691
2019_74327,서울특별시 동대문구 장안벚꽃로 167,37.5750721,127.0742821
2019_74326,서울특별시 동대문구 장안벚꽃로 107,37.57105683,127.0751137
2019_74325,서울특별시 종로구 대학로 33,37.57404525,127.0018679
2019_74324,서울특별시 용산구 독서당로 22,37.53016316,127.0078018
2019_74323,서울특별시 용산구 독서당로 111,37.53612286,127.0073076
2019_74322,서울특별시 성북구 북악산로 828,37.60018914,127.0157431
2019_74321,서울특별시 성북구 솔샘로25길 11-11,37.61602264,127.008106
2019_74320,서울특별시 중랑구 봉화산로48길 62,37.60347534,127.0936543
2019_74319,서울특별시 성북구 종암로24가길 53,37.60084117,127.0379642
2019_74318,서울특별시 중구 난계로 173,37.56710449,127.0232955
2019_74317,서울특별시 동대문구 외대역동로1길 24,37.59180913,127.0634709
2019_74316,서울특별시 종로구 난계로29가길 17,37.5737207,127.0227235
2019_74315,서울특별시 양천구 오목로5길 20,37.52384645,126.8406244
2019_74314,서울특별시 구로구 디지털로 319,37.49003775,126.8954329
2019_74313,서울특별시 구로구 고척로19길 69-6,37.5045205,126.8436784
2019_74312,서울특별시 구로구 오리로20길 58,37.49837455,126.8311049
2019_74311,서울특별시 구로구 경인로 382,37.496373,126.8630822
2019_74310,서울특별시 강서구 양천로 132,37.57312695,126.8184594
2019_74309,서울특별시 양천구 오목로 39-22,37.52292196,126.8417848
2019_74308,서울특별시 마포구 월드컵북로 194,37.56860915,126.907456
2019_74307,서울특별시 마포구 신촌로 160,37.55630842,126.9432851
2019_74306,서울특별시 구로구 경인로59길 7,37.5053933,126.8825552
2019_74305,서울특별시 양천구 신월로17길 22,37.52056812,126.8424175
2019_74304,서울특별시 구로구 연동로13길 25,37.48506387,126.8195703
2019_74303,서울특별시 영등포구 여의대방로61길 19,37.51430122,126.9238469
2019_74302,서울특별시 영등포구 영등포로3길 9,37.52465168,126.8821637
2019_74301,서울특별시 구로구 공원로6길 25,37.50218704,126.8916637
2019_74300,서울특별시 구로구 고척로 49,37.49996525,126.8413534
2019_74299,서울특별시 구로구 서해안로 2368,37.49410321,126.8474372
2019_74298,서울특별시 양천구 신정로 293,37.51430989,126.8550432
2019_74297,서울특별시 양천구 목동동로12길 60,37.52213326,126.8777896
2019_74296,서울특별시 송파구 양산로8길 8,37.49091614,127.144567
2019_74295,서울특별시 송파구 백제고분로50길 29-23,37.51440528,127.1183887
2019_74294,서울특별시 강동구 성안로 184,37.53933582,127.1364995
2019_74293,서울특별시 강동구 명일로 286,37.54331486,127.1486978
2019_74292,서울특별시 강동구 천호대로175길 14,37.53528691,127.1370389
2019_74291,서울특별시 강동구 천호대로175길 14,37.53528691,127.1370389
2019_74290,서울특별시 강동구 천호대로175길 14,37.53528691,127.1370389
2019_74289,서울특별시 강동구 천호대로175길 14,37.53528691,127.1370389
2019_74288,서울특별시 강동구 천호대로175길 14,37.53528691,127.1370389
2019_74287,서울특별시 송파구 성내천로29길 28,37.50204974,127.1535255
2019_74286,서울특별시 강동구 양재대로 1340,37.52577786,127.1359315
2019_74285,서울특별시 강동구 양재대로 1340,37.52577786,127.1359315
2019_74284,서울특별시 강동구 천호대로175길 14,37.53528691,127.1370389
2019_74283,서울특별시 강동구 천호대로175길 14,37.53528691,127.1370389
2019_74282,서울특별시 강동구 천호대로175길 14,37.53528691,127.1370389
2019_74281,서울특별시 강동구 천호대로175길 14,37.53528691,127.1370389
2019_74280,서울특별시 강동구 천호대로175길 14,37.53528691,127.1370389
2019_74279,서울특별시 송파구 올림픽로 212,37.51070678,127.0942316
2019_74278,서울특별시 송파구 잠실로 88,37.50753416,127.0932143
2019_74277,서울특별시 동작구 동작대로39길 22,37.49463598,126.981966
2019_74276,서울특별시 강남구 압구정로 201,37.53153417,127.0292731
2019_74275,서울특별시 강남구 압구정로 201,37.53153417,127.0292731
2019_74274,서울특별시 송파구 올림픽로 135,37.51673328,127.0898891
2019_74273,서울특별시 관악구 신림로29길 8,37.4755685,126.9328111
2019_74272,서울특별시 관악구 난곡로 55,37.45974172,126.9207528
2019_74271,서울특별시 강남구 광평로34길 35,37.48211091,127.094906
2019_74270,서울특별시 서초구 바우뫼로7길 29,37.47070547,127.0231377
2019_74269,서울특별시 강남구 삼성로 212,37.49961577,127.0659154
2019_74268,서울특별시 강남구 압구정로 151,37.52678582,127.024455
2019_74267,서울특별시 관악구 신사로 82,37.48576245,126.9118733
2019_74266,서울특별시 송파구 올림픽로 212,37.51070678,127.0942316
2019_74265,서울특별시 송파구 잠실로 88,37.50753416,127.0932143
2019_74264,서울특별시 서초구 명달로8길 11,37.48188417,127.005731
2019_74263,서울특별시 강남구 개포로 311,37.48503816,127.0569699
2019_74262,서울특별시 강남구 남부순환로363길 30,37.48761945,127.0381972
2019_74261,서울특별시 동작구 상도로15길 131,37.5049676,126.9379704
2019_74260,서울특별시 강남구 테헤란로14길 13,37.49854937,127.0335245
2019_74259,서울특별시 은평구 진관4로 48-8,37.64395706,126.9282127
2019_74258,서울특별시 은평구 서오릉로 181,37.61292829,126.9131126
2019_74257,서울특별시 도봉구 마들로 891,37.68750279,127.0484761
2019_74256,서울특별시 은평구 진흥로9길 2,37.60555691,126.9219777
2019_74255,서울특별시 은평구 갈현로3나길 23,37.60356465,126.9058015
2019_74254,서울특별시 마포구 마포대로 109,37.54506861,126.9508475
2019_74253,서울특별시 도봉구 덕릉로66길 17,37.64371212,127.0539524
2019_74252,서울특별시 노원구 동일로177길 12-18,37.62133084,127.0737486
2019_74251,서울특별시 도봉구 덕릉로66길 17,37.64371212,127.0539524
2019_74250,서울특별시 도봉구 시루봉로 107,37.66121703,127.0261502
2019_74249,서울특별시 도봉구 도봉로139길 102,37.66056926,127.0359131
2019_74248,서울특별시 도봉구 해등로 195,37.65783785,127.0337873
2019_74247,서울특별시 서대문구 증가로 150,37.57805476,126.9210192
2019_74246,서울특별시 도봉구 도봉로114길 22-8,37.64711815,127.0352696
2019_74245,서울특별시 서대문구 증가로 150,37.57805476,126.9210192
2019_74244,서울특별시 노원구 섬밭로 229,37.63661786,127.0645392
2019_74243,서울특별시 도봉구 덕릉로 349,37.64503774,127.0460993
2019_74242,서울특별시 은평구 증산로 291,37.5834678,126.908609
2019_74241,서울특별시 도봉구 마들로 684-19,37.67521459,127.048765
2019_74240,서울특별시 도봉구 노해로63가길 7,37.6536834,127.0434722
2019_74239,서울특별시 노원구 석계로 107,37.62253357,127.0604186
2019_74238,서울특별시 강동구 아리수로50길 50,37.55768646,127.1485777
2019_74237,서울특별시 강동구 천호옛12길 27,37.53515427,127.1271458
2019_74236,서울특별시 강동구 천호대로175길 14,37.53528691,127.1370389
2019_74235,서울특별시 강동구 진황도로 85,37.5366246,127.136133
2019_74234,서울특별시 강동구 성내로 54,37.52820506,127.1258541
2019_74233,서울특별시 강동구 구천면로 366,37.55011366,127.1390467
2019_74232,서울특별시 송파구 성내천로6길 9-7,37.50371089,127.1351929
2019_74231,서울특별시 강동구 상암로 225,37.54763906,127.1480212
2019_74230,서울특별시 강동구 성안로25길 6,37.53830263,127.1347907
2019_74229,서울특별시 종로구 지봉로 25,37.57226726,127.0152012
2019_74228,서울특별시 성동구 서울숲2길 32-14,37.54567733,127.0429147
2019_74227,서울특별시 동대문구 한천로 248,37.58323604,127.071898
2019_74226,서울특별시 종로구 평창12길 14-4,37.60685801,126.9675438
2019_74225,서울특별시 성북구 종암로24가길 53,37.60084117,127.0379642
2019_74224,서울특별시 성동구 한림말길 50,37.53993979,127.0168229
2019_74223,서울특별시 중랑구 봉화산로 193,37.60683224,127.0944572
2019_74222,서울특별시 동대문구 한천로63길 10,37.6049031,127.0637064
2019_74221,서울특별시 강북구 삼양로27길 19,37.61612381,127.0217414
2019_74220,서울특별시 동대문구 사가정로 6,37.57016097,127.0495161
2019_74219,서울특별시 강북구 도봉로33길 18,37.62156408,127.0265024
2019_74218,서울특별시 광진구 아차산로 552,37.54365673,127.1042503
2019_74217,서울특별시 동대문구 한천로58길 47,37.60075075,127.0687695
2019_74216,서울특별시 중랑구 봉화산로 146,37.60360654,127.0904026
2019_74215,서울특별시 금천구 금하로 793,37.45221259,126.9182453
2019_74214,서울특별시 강서구 월정로20길 62-7,37.52958564,126.8422306
2019_74213,서울특별시 강서구 개화동로27가길 33,37.56272098,126.8075227
2019_74212,서울특별시 영등포구 선유로 207,37.53200749,126.8937947
2019_74211,서울특별시 강서구 양천로75길 57,37.55331418,126.8748906
2019_74210,서울특별시 양천구 목동서로 340,37.51942468,126.8640382
2019_74209,서울특별시 강서구 공항대로 461-45,37.55459479,126.8581711
2019_74208,서울특별시 양천구 신월로15길 21,37.52016906,126.8411289
2019_74207,서울특별시 영등포구 당산로4길 12,37.51627575,126.8973904
2019_74206,서울특별시 구로구 디지털로31길 90,37.48873032,126.8920535
2019_74205,서울특별시 금천구 독산로50길 89,37.46375636,126.9091263
2019_74204,서울특별시 구로구 고척로 49,37.49996525,126.8413534
2019_74203,서울특별시 구로구 서해안로34가길 18,37.49379081,126.8481845
2019_74202,서울특별시 영등포구 선유서로21길 19,37.52230634,126.882683
2019_74201,서울특별시 양천구 월정로9길 20,37.52526641,126.8381632
2019_74200,서울특별시 마포구 동교로1길 48,37.55315383,126.9008102
2019_74199,서울특별시 강서구 곰달래로20길 31-10,37.52867064,126.8434245
2019_74198,서울특별시 양천구 목동동로 430,37.53520568,126.8843932
2019_74197,서울특별시 양천구 목동중앙본로 10,37.5384866,126.871502
2019_74196,서울특별시 금천구 독산로36길 73,37.4609272,126.9084424
2019_74195,서울특별시 양천구 오목로 299,37.5260837,126.8703553
2019_74194,서울특별시 구로구 구로중앙로 60,37.49513179,126.8894096
2019_74193,서울특별시 영등포구 여의동로3길 10,37.51811729,126.925196
2019_74192,서울특별시 양천구 오목로7길 25,37.52408568,126.8410408
2019_74191,서울특별시 관악구 은천로 110,37.48668451,126.9473489
2019_74190,서울특별시 송파구 올림픽로45길 11,37.5268105,127.1160882
2019_74189,서울특별시 강남구 학동로 405,37.51781772,127.042236
2019_74188,서울특별시 동작구 사당로9가길 82,37.4882815,126.9671339
2019_74187,서울특별시 송파구 올림픽로 435,37.5213593,127.1049717
2019_74186,서울특별시 서초구 잠원로 177,37.5185975,127.0114287
2019_74185,서울특별시 동작구 사당로23바길 9,37.48960968,126.9691902
2019_74184,서울특별시 송파구 문정로 83,37.48920432,127.130232
2019_74183,서울특별시 송파구 송파대로 111,37.47968706,127.1249798
2019_74182,서울특별시 송파구 송파대로 567,37.51313818,127.0930487
2019_74181,서울특별시 송파구 올림픽로 99,37.51512525,127.07813
2019_74180,서울특별시 서초구 신반포로 270,37.50786022,127.011582
2019_74179,서울특별시 중랑구 동일로 752,37.59700909,127.0820707
2019_74178,서울특별시 성동구 독서당로 272,37.54533003,127.0179254
2019_74177,서울특별시 성북구 정릉로 292,37.60301029,127.0159693
2019_74176,서울특별시 성북구 오패산로 46,37.60747384,127.0387095
2019_74175,서울특별시 용산구 새창로 70,37.53860305,126.9549435
2019_74174,서울특별시 종로구 종로58가길 27,37.57239256,127.0167357
2019_74173,서울특별시 광진구 자양로 55,37.53283186,127.0846262
2019_74172,서울특별시 동대문구 망우로 135,37.59271872,127.0673081
2019_74171,서울특별시 성북구 안암로9나길 14,37.58227743,127.0246218
2019_74170,서울특별시 동대문구 천호대로97길 9,37.56136855,127.0699154
2019_74169,서울특별시 노원구 우이천로 102,37.63066549,127.0435045
2019_74168,서울특별시 은평구 역말로6길 11,37.60495557,126.9147853
2019_74167,서울특별시 은평구 진흥로9길 2,37.60555691,126.9219777
2019_74166,서울특별시 도봉구 해등로 231,37.65772508,127.0320475
2019_74165,서울특별시 도봉구 노해로45길 26,37.6509017,127.0268558
2019_74164,서울특별시 서대문구 동교로 291,37.56534697,126.9273663
2019_74163,서울특별시 도봉구 덕릉로66길 17,37.64371212,127.0539524
2019_74162,서울특별시 은평구 불광로 208,37.62570254,126.9293893
2019_74161,서울특별시 은평구 불광로 208,37.62570254,126.9293893
2019_74160,서울특별시 도봉구 도봉로150바길 26,37.66489171,127.0451137
2019_74159,서울특별시 도봉구 방학로 212-11,37.66286615,127.0278459
2019_74158,서울특별시 도봉구 도당로 37,37.66150368,127.0337612
2019_74157,서울특별시 도봉구 방학로 200,37.66287274,127.0296693
2019_74156,서울특별시 서대문구 수색로 100,37.57473348,126.9079161
2019_74155,서울특별시 서대문구 수색로6길 43,37.57256563,126.9124567
2019_74154,서울특별시 노원구 동일로248길 16,37.67899694,127.0567341
2019_74153,서울특별시 노원구 수락산로 234,37.67192885,127.0526485
2019_74152,서울특별시 노원구 덕릉로118길 29,37.6681982,127.0811755
2019_74151,서울특별시 노원구 덕릉로127길 25,37.67224368,127.081579
2019_74150,서울특별시 도봉구 시루봉로 107,37.66121703,127.0261502
2019_74149,서울특별시 송파구 성내천로 211,37.50002221,127.1520609
2019_74148,서울특별시 강동구 천호대로175길 14,37.53528691,127.1370389
2019_74147,서울특별시 강동구 천호대로175길 14,37.53528691,127.1370389
2019_74146,서울특별시 강동구 천호대로175길 14,37.53528691,127.1370389
2019_74145,서울특별시 송파구 성내천로 245,37.49839517,127.1547692
2019_74144,서울특별시 송파구 성내천로 211,37.50002221,127.1520609
2019_74143,서울특별시 강동구 천호대로175길 14,37.53528691,127.1370389
2019_74142,서울특별시 강동구 천호대로175길 14,37.53528691,127.1370389
2019_74141,서울특별시 강동구 천호대로175길 14,37.53528691,127.1370389
2019_74140,서울특별시 강동구 천호대로175길 14,37.53528691,127.1370389
2019_74139,서울특별시 강동구 풍성로55길 6,37.52956689,127.1355735
2019_74138,서울특별시 강동구 천호대로182길 12-6,37.53293809,127.140038
2019_74137,서울특별시 강동구 천호대로175길 14,37.53528691,127.1370389
2019_74136,서울특별시 강서구 강서로7길 18,37.52972133,126.8468139
2019_74135,서울특별시 영등포구 경인로112길 4-7,37.51774067,126.9134607
2019_74134,서울특별시 양천구 목동동로 100,37.51498201,126.8651323
2019_74133,서울특별시 금천구 가산로 99,37.47615677,126.8912894
2019_74132,서울특별시 영등포구 가마산로 575,37.50484135,126.9195738
2019_74131,서울특별시 영등포구 신길로 214,37.51105504,126.910669
2019_74130,서울특별시 구로구 경인로2길 42,37.48884208,126.826375
2019_74129,서울특별시 강서구 강서로 348,37.55707841,126.8380811
2019_74128,서울특별시 마포구 월드컵로25길 26,37.55853078,126.9063006
2019_74127,서울특별시 영등포구 영등포로64길 11,37.51419246,126.9172645
2019_74126,서울특별시 마포구 월드컵북로5나길 18,37.55733527,126.9167961
2019_74125,서울특별시 영등포구 국제금융로7길 20,37.52273255,126.9337309
2019_74124,서울특별시 영등포구 문래로8길 5,37.51987702,126.8864189
2019_74123,서울특별시 구로구 고척로 82,37.49980442,126.8431058
2019_74122,서울특별시 노원구 중계로8길 29,37.64800969,127.0832858
2019_74121,서울특별시 서대문구 가재울로 45,37.57566143,126.9208517
2019_74120,서울특별시 노원구 동일로216길 47,37.65298873,127.0635586
2019_74119,서울특별시 노원구 섬밭로 134,37.62838373,127.0693349
2019_74118,서울특별시 노원구 덕릉로 459-21,37.64630285,127.0589625
2019_74117,서울특별시 노원구 마들로 59,37.62262082,127.0668819
2019_74116,서울특별시 도봉구 노해로45길 26,37.6509017,127.0268558
2019_74115,서울특별시 서초구 신반포로45길 23,37.51141167,127.018307
2019_74114,서울특별시 송파구 송파대로 567,37.51313818,127.0930487
2019_74113,서울특별시 송파구 송파대로 567,37.51313818,127.0930487
2019_74112,서울특별시 송파구 올림픽로 99,37.51512525,127.07813
2019_74111,서울특별시 동대문구 고미술로 71,37.56609582,127.0550847
2019_74110,서울특별시 동대문구 홍릉로12길 29,37.58608793,127.0445333
2019_74109,서울특별시 동대문구 정릉천동로 58,37.57718679,127.0362385
2019_74108,서울특별시 동대문구 장한로 105,37.5700853,127.069955
2019_74107,서울특별시 동대문구 사가정로 148,37.57665904,127.0615677
2019_74106,서울특별시 강북구 삼양로74길 8,37.62914095,127.0183516
2019_74105,서울특별시 동대문구 서울시립대로29길 62,37.58649244,127.0550861
2019_74104,서울특별시 성북구 보국문로32길 53,37.61937475,127.0023057
2019_74103,서울특별시 동대문구 전농로 192,37.58280297,127.0554526
2019_74102,서울특별시 중랑구 공릉로13길 30,37.61652091,127.0769993
2019_74101,서울특별시 중랑구 중랑역로 124,37.60452858,127.0776674
2019_74100,서울특별시 중랑구 중랑천로 332,37.6148044,127.0735286
2019_74099,서울특별시 성북구 종암로25길 30,37.60149226,127.0310804
2019_74098,서울특별시 동대문구 이문로 37,37.59080113,127.0561174
2019_74097,서울특별시 광진구 아차산로78길 43,37.55104132,127.1094263
2019_74096,서울특별시 동대문구 회기로26길 15,37.58997355,127.0542271
2019_74095,서울특별시 중구 동호로17길 250,37.54874597,127.005328
2019_74094,서울특별시 성동구 서울숲2길 32-14,37.54567733,127.0429147
2019_74093,서울특별시 중랑구 용마산로 259,37.57641028,127.0882473
2019_74092,서울특별시 광진구 아차산로 549,37.54335816,127.1017442
2019_74091,서울특별시 중랑구 용마산로112가길 36,37.59722161,127.1025923
2019_74090,서울특별시 종로구 난계로29가길 20,37.57361815,127.0223766
2019_74089,서울특별시 성북구 정릉로 402,37.6038114,127.026718
2019_74088,서울특별시 성동구 연무장길 31,37.54363185,127.0531685
2019_74087,서울특별시 동대문구 천호대로97길 26,37.56189744,127.07082
2019_74086,서울특별시 동대문구 고미술로 71,37.56609582,127.0550847
2019_74085,서울특별시 용산구 이촌로 100-8,37.52448791,126.9579682
2019_74084,서울특별시 중랑구 신내로7길 20,37.60139119,127.0960991
2019_74083,서울특별시 중랑구 봉화산로 193,37.60683224,127.0944572
2019_74082,서울특별시 중랑구 동일로109가길 5,37.59224009,127.0787069
2019_74081,서울특별시 성동구 고산자로4길 34,37.55265337,127.03686
2019_74080,서울특별시 중랑구 상봉중앙로1다길 21,37.59982279,127.0893906
2019_74079,서울특별시 성북구 보국문로 19,37.60675666,127.0096945
2019_74078,서울특별시 동대문구 한천로58길 47,37.60075075,127.0687695
2019_74077,서울특별시 종로구 사직로8길 4,37.57467165,126.9684298
2019_74076,서울특별시 동대문구 정릉천동로 58,37.57718679,127.0362385
2019_74075,서울특별시 중랑구 봉화산로56길 140,37.60273874,127.0962848
2019_74074,서울특별시 성북구 북악산로 828,37.60018914,127.0157431
2019_74073,서울특별시 중구 청계천로 400,37.57081055,127.0214639
2019_74072,서울특별시 성북구 정릉로 305,37.60484714,127.0178033
2019_74071,서울특별시 강동구 양재대로 1340,37.52577786,127.1359315
2019_74070,서울특별시 강동구 양재대로113길 50,37.53885146,127.1373368
2019_74069,서울특별시 송파구 오금로 407,37.4986414,127.1365867
2019_74068,서울특별시 강동구 천호대로175길 14,37.53528691,127.1370389
2019_74067,서울특별시 강동구 천호대로 1044-12,37.53658003,127.1277149
2019_74066,서울특별시 서초구 강남대로2길 96,37.46885307,127.0466658
2019_74065,서울특별시 송파구 잠실로 62,37.50801505,127.0902835
2019_74064,서울특별시 동작구 만양로 26,37.50762648,126.9495479
2019_74063,서울특별시 관악구 문성로 74,37.47675611,126.9120581
2019_74062,서울특별시 관악구 신림로 318,37.48257543,126.9302529
2019_74061,서울특별시 동작구 상도로15길 131,37.5049676,126.9379704
2019_74060,서울특별시 강남구 학동로77길 27,37.52088487,127.0477889
2019_74059,서울특별시 강남구 압구정로 309,37.53192115,127.0355385
2019_74058,서울특별시 관악구 관천로18길 32,37.48765139,126.9247299
2019_74057,서울특별시 강남구 삼성로 151,37.49315498,127.063
2019_74056,서울특별시 관악구 호암로 399,37.46137146,126.925455
2019_74055,서울특별시 강서구 우장산로8길 29,37.55306513,126.8411553
2019_74054,서울특별시 영등포구 선유로43가길 24,37.53142734,126.8920117
2019_74053,서울특별시 구로구 남부순환로 775,37.50156787,126.8471623
2019_74052,서울특별시 양천구 신월로 99,37.5184159,126.8351572
2019_74051,서울특별시 마포구 연남로 30,37.56271074,126.921857
2019_74050,서울특별시 양천구 목동동로 130,37.514999,126.8712369
2019_74049,서울특별시 영등포구 선유로47길 34,37.53683989,126.8934637
2019_74048,서울특별시 강서구 허준로 175,37.56375809,126.8592894
2019_74047,서울특별시 금천구 금하로 750,37.44907344,126.9136586
2019_74046,서울특별시 금천구 금하로 793,37.45221259,126.9182453
2019_74045,서울특별시 영등포구 경인로114길 62,37.5171864,126.9127497
2019_74044,서울특별시 영등포구 경인로112길 4-7,37.51774067,126.9134607
2019_74043,서울특별시 영등포구 경인로 882,37.5175214,126.9107121
2019_74042,서울특별시 구로구 서해안로34가길 18,37.49379081,126.8481845
2019_74041,서울특별시 마포구 서강로 53,37.54835536,126.9311781
2019_74040,서울특별시 영등포구 영등포로 351,37.51531105,126.9180311
2019_74039,서울특별시 강서구 강서로7길 107,37.52884106,126.8417698
2019_74038,서울특별시 강서구 강서로17가길 46,37.53646677,126.8435292
2019_74037,서울특별시 양천구 목동동로 430,37.53520568,126.8843932
2019_74036,서울특별시 구로구 구일로2길 60,37.48975807,126.8770812
2019_74035,서울특별시 구로구 공원로6가길 67,37.50426971,126.8889459
2019_74034,서울특별시 구로구 공원로 27,37.49939719,126.8910091
2019_74033,서울특별시 구로구 구일로4길 22,37.49116709,126.8756454
2019_74032,서울특별시 금천구 시흥대로 291-1,,
2019_74031,서울특별시 노원구 동일로 1456,37.66067691,127.0614956
2019_74030,서울특별시 노원구 한글비석로8길 41,37.64866354,127.0775984
2019_74029,서울특별시 서대문구 증가로 191,37.57849683,126.9173923
2019_74028,서울특별시 노원구 한글비석로 396,37.66230302,127.0735817
2019_74027,서울특별시 서대문구 북아현로1가길 20,37.55806808,126.9513991
2019_74026,서울특별시 노원구 동일로227길 86,37.67041003,127.05273
2019_74025,서울특별시 노원구 동일로228길 23,37.66986967,127.0587381
2019_74024,서울특별시 은평구 불광로2길 33,37.61282127,126.9354737
2019_74023,서울특별시 도봉구 우이천로20길 7,37.64173321,127.0347716
2019_74022,서울특별시 도봉구 덕릉로62길 13,37.64073882,127.0411143
2019_74021,서울특별시 은평구 증산로 315,37.58506957,126.9104672
2019_74020,서울특별시 은평구 불광로 90,37.61506867,126.9330007
2019_74019,서울특별시 노원구 화랑로 441,37.618238,127.0763175
2019_74018,서울특별시 노원구 공릉로42길 13-14,37.62515202,127.0807613
2019_74017,서울특별시 노원구 섬밭로 156,37.63078086,127.0680033
2019_74016,서울특별시 노원구 섬밭로 123,37.62805406,127.0685738
2019_74015,서울특별시 노원구 공릉로34길 62,37.62336469,127.0821222
2019_74014,서울특별시 노원구 섬밭로 229,37.63661786,127.0645392
2019_74013,서울특별시 노원구 섬밭로 232,37.63661517,127.0656682
2019_74012,서울특별시 은평구 불광로 208,37.62570254,126.9293893
2019_74011,서울특별시 도봉구 마들로 616,37.66510797,127.0469105
2019_74010,서울특별시 노원구 공릉로27길 110,37.62671914,127.0774751
2019_74009,서울특별시 노원구 화랑로51길 17,37.6230768,127.0893509
2019_74008,서울특별시 도봉구 해등로 242-11,37.65896148,127.0293445
2019_74007,서울특별시 서대문구 세검정로3길 63,37.59374513,126.9468287
2019_74006,서울특별시 서대문구 모래내로 453,37.58574629,126.945028
2019_74005,서울특별시 서대문구 모래내로 453,37.58574629,126.945028
2019_74004,서울특별시 서대문구 모래내로 453,37.58574629,126.945028
2019_74003,서울특별시 은평구 백련산로 38,37.58927061,126.9230906
2019_74002,서울특별시 도봉구 덕릉로 350,37.64462722,127.0470777
2019_74001,서울특별시 중랑구 용마산로86길 9-14,37.58676842,127.0962599
2019_74000,서울특별시 중랑구 동일로 932,37.61383938,127.0775571
2019_73999,서울특별시 동대문구 사가정로 148,37.57665904,127.0615677
2019_73998,서울특별시 성북구 장월로9길 14,37.61155207,127.047834
2019_73997,서울특별시 성북구 서경로 28,37.60615015,127.0159232
2019_73996,서울특별시 양천구 월정로9길 17,37.52459879,126.8392968
2019_73995,서울특별시 금천구 금하로 816,37.44977863,126.9200208
2019_73994,서울특별시 양천구 목동로 212,37.52924989,126.8670932
2019_73993,서울특별시 강서구 강서로7길 18,37.52972133,126.8468139
2019_73992,서울특별시 강동구 천호대로175길 14,37.53528691,127.1370389
2019_73991,서울특별시 강동구 천호대로175길 14,37.53528691,127.1370389
2019_73990,서울특별시 강동구 구천면로42길 16,37.54537415,127.1344457
2019_73989,서울특별시 송파구 위례성대로 176,37.51063671,127.1287586
2019_73988,서울특별시 관악구 은천로 93,37.48735272,126.9454289
2019_73987,서울특별시 서초구 서초중앙로2길 41,37.48430494,127.0196977
2019_73986,서울특별시 강남구 선릉로 660,37.51555112,127.0423325
2019_73985,서울특별시 관악구 남부순환로 1979,37.47583732,126.9685382
2019_73984,서울특별시 강남구 도곡로28길 8,37.49207027,127.0421143
2019_73983,서울특별시 서초구 효령로77길 14,37.49033761,127.0297673
2019_73982,서울특별시 강남구 압구정로71길 32,37.5286637,127.0465752
2019_73981,서울특별시 강남구 도산대로87길 34,37.52666949,127.0505743
2019_73980,서울특별시 동작구 만양로 26,37.50762648,126.9495479
2019_73979,서울특별시 관악구 신림로29길 8,37.4755685,126.9328111
2019_73978,서울특별시 서초구 서초중앙로29길 28,37.49997334,127.0087056
2019_73977,서울특별시 관악구 조원로11길 24,37.48420111,126.9075246
2019_73976,서울특별시 은평구 은평터널로 164,37.59386051,126.9086431
2019_73975,서울특별시 도봉구 덕릉로 350,37.64462722,127.0470777
2019_73974,서울특별시 도봉구 해등로 50,37.64999808,127.0433017
2019_73973,서울특별시 노원구 동일로175길 38,37.61988717,127.0724697
2019_73972,서울특별시 노원구 공릉로 213,37.62788039,127.0773923
2019_73971,서울특별시 도봉구 시루봉로 8,37.65109303,127.029297
2019_73970,서울특별시 서대문구 세검정로1길 95,37.59591997,126.9456918
2019_73969,서울특별시 은평구 증산로 315,37.58506957,126.9104672
2019_73968,서울특별시 도봉구 해등로 242-12,37.65866831,127.0307242
2019_73967,서울특별시 노원구 중계로12길 24,37.6468185,127.0818703
2019_73966,서울특별시 노원구 동일로242나길 20,37.67646311,127.0567427
2019_73965,서울특별시 도봉구 해등로 242-12,37.65866831,127.0307242
2019_73964,서울특별시 강동구 천호대로175길 14,37.53528691,127.1370389
2019_73963,서울특별시 송파구 마천로35길 12,37.49991012,127.1456278
2019_73962,서울특별시 강동구 아리수로50길 50,37.55768646,127.1485777
2019_73961,서울특별시 성동구 동일로 291,37.55762073,127.0723628
2019_73960,서울특별시 동대문구 서울시립대로 5,37.57282396,127.0442526
2019_73959,서울특별시 중구 퇴계로 447,37.56604198,127.0217218
2019_73958,서울특별시 중랑구 용마산로112가길 34,37.59714545,127.1018987
2019_73957,서울특별시 성동구 왕십리로 410,37.56660293,127.0240825
2019_73956,서울특별시 성북구 정릉로 402-16,37.60385948,127.0276308
2019_73955,서울특별시 중구 동호로10길 30,37.5551916,127.0163594
2019_73954,서울특별시 중랑구 숙선옹주로 91,37.61726537,127.0855444
2019_73953,서울특별시 광진구 천호대로129길 56,37.55382364,127.0922923
2019_73952,서울특별시 성동구 금호로3길 10,37.54742216,127.0248605
2019_73951,서울특별시 중랑구 면목로69길 16,37.58725262,127.0863442
2019_73950,서울특별시 중랑구 용마산로86길 9-14,37.58676842,127.0962599
2019_73949,서울특별시 용산구 독서당로 111,37.53612286,127.0073076
2019_73948,서울특별시 동대문구 고산자로 534,37.58839329,127.0392185
2019_73947,서울특별시 성북구 정릉로21길 21,37.60643136,127.0077843
2019_73946,서울특별시 성북구 오패산로3길 17,37.60459386,127.0345453
2019_73945,서울특별시 금천구 시흥대로59길 35,37.45293945,126.8986183
2019_73944,서울특별시 금천구 시흥대로51길 55,37.45087528,126.898145
2019_73943,서울특별시 구로구 중앙로5길 62,37.50293473,126.8607486
2019_73942,서울특별시 영등포구 양평로24길 9,37.54028033,126.8917458
2019_73941,서울특별시 양천구 신정로7길 76,37.51350715,126.8360663
2019_73940,서울특별시 양천구 화곡로3길 43,37.54360397,126.8280602
2019_73939,서울특별시 양천구 신월로 99,37.5184159,126.8351572
2019_73938,서울특별시 양천구 신월로 99,37.5184159,126.8351572
2019_73937,서울특별시 구로구 개봉로11길 18-6,37.48830235,126.8551681
2019_73936,서울특별시 구로구 구일로8길 121,37.49855338,126.8764303
2019_73935,서울특별시 구로구 가마산로 97,37.48631501,126.8773887
2019_73934,서울특별시 구로구 공원로6가길 76,37.50493825,126.8897073
2019_73933,서울특별시 강서구 강서로17가길 14,37.53382373,126.8446536
2019_73932,서울특별시 영등포구 영등포로64길 8,37.51469857,126.9166496
2019_73931,서울특별시 영등포구 신길로42가길 34,37.5087342,126.9153892
2019_73930,서울특별시 영등포구 경인로 882,37.5175214,126.9107121
2019_73929,서울특별시 영등포구 양산로 177,37.52446352,126.9031483
2019_73928,서울특별시 강서구 강서로7길 18,37.52972133,126.8468139
2019_73927,서울특별시 강서구 공항대로61길 48-22,37.55239042,126.8673225
2019_73926,서울특별시 양천구 목동동로 430,37.53520568,126.8843932
2019_73925,서울특별시 양천구 목동중앙남로 46,37.53783923,126.8669491
2019_73924,서울특별시 구로구 도림로6길 15-1,37.48551807,126.8879134
2019_73923,서울특별시 금천구 한내로 62,37.45539127,126.8888776
2019_73922,서울특별시 구로구 신도림로11가길 36,37.50626346,126.8763484
2019_73921,서울특별시 강서구 월정로20길 42,37.52966665,126.8409641
2019_73920,서울특별시 강서구 월정로20길 42,37.52966665,126.8409641
2019_73919,서울특별시 강서구 월정로20길 42,37.52966665,126.8409641
2019_73918,서울특별시 마포구 양화로 45,37.5515008,126.9139502
2019_73917,서울특별시 구로구 고척로52길 48,37.50341229,126.8552202
2019_73916,서울특별시 구로구 고척로52길 9,37.50497202,126.8565519
2019_73915,서울특별시 양천구 목동동로 189,37.52294129,126.8701237
2019_73914,서울특별시 구로구 남부순환로 775,37.50156787,126.8471623
2019_73913,서울특별시 강서구 마곡중앙로 36,37.55741872,126.8270293
2019_73912,서울특별시 강서구 마곡중앙1로 72,37.55904001,126.8200632
2019_73911,서울특별시 구로구 가마산로27길 11-7,37.49715441,126.8913991
2019_73910,서울특별시 관악구 보라매로6길 33,37.49306366,126.928976
2019_73909,서울특별시 관악구 은천로 110,37.48668451,126.9473489
2019_73908,서울특별시 영등포구 도신로4길 14,37.50166309,126.8938289
2019_73907,서울특별시 관악구 관악로17길 8,37.48092236,126.9513114
2019_73906,서울특별시 서초구 사임당로 130,37.49029379,127.0252157
2019_73905,서울특별시 강남구 삼성로4길 17,37.48791441,127.0690348
2019_73904,서울특별시 강남구 일원로 120,37.48520191,127.0826728
2019_73903,서울특별시 동대문구 이문로 94,37.59514081,127.0596895
2019_73902,서울특별시 광진구 천호대로137길 16-8,37.54948454,127.0935261
2019_73901,서울특별시 성북구 오패산로 90,37.60994709,127.0369136
2019_73900,서울특별시 동대문구 이문로 94,37.59514081,127.0596895
2019_73899,서울특별시 성북구 서경로 91,37.611102,127.013688
2019_73898,서울특별시 중구 청계천로 400,37.57081055,127.0214639
2019_73897,서울특별시 동대문구 이문로 94,37.59514081,127.0596895
2019_73896,서울특별시 동대문구 한천로 224,37.58082627,127.068513
2019_73895,서울특별시 강북구 솔샘로 174,37.61763836,127.0105997
2019_73894,서울특별시 성북구 보국문로 19,37.60675666,127.0096945
2019_73893,서울특별시 동대문구 이문로 94,37.59514081,127.0596895
2019_73892,서울특별시 성동구 마조로 57,37.56298737,127.0398903
2019_73891,서울특별시 동대문구 답십리로41길 33,37.57322241,127.0535453
2019_73890,서울특별시 동대문구 무학로26길 30,37.57310266,127.0315846
2019_73889,서울특별시 동대문구 이문로 94,37.59514081,127.0596895
2019_73888,서울특별시 동대문구 이문로 94,37.59514081,127.0596895
2019_73887,서울특별시 노원구 동일로176길 39-12,37.62093254,127.0770889
2019_73886,서울특별시 노원구 공릉로 168-6,37.62476338,127.080291
2019_73885,서울특별시 서대문구 포방터10길 33,37.60245509,126.9513927
2019_73884,서울특별시 서대문구 연희로41길 114,37.59406337,126.9356256
2019_73883,서울특별시 도봉구 도봉산길 35,37.68691598,127.0411523
2019_73882,서울특별시 도봉구 덕릉로 350,37.64462722,127.0470777
2019_73881,서울특별시 은평구 통일로67길 9,37.61071315,126.9284564
2019_73880,서울특별시 도봉구 해등로 242-11,37.65896148,127.0293445
2019_73879,서울특별시 도봉구 우이천로 304,37.64510569,127.0298113
2019_73878,서울특별시 노원구 섬밭로 265,37.63828783,127.0627161
2019_73877,서울특별시 은평구 연서로 9,37.60009953,126.9155685
2019_73876,서울특별시 은평구 증산로17길 6-46,37.59159502,126.9130093
2019_73875,서울특별시 노원구 상계로 193-14,37.662163,127.0743053
2019_73874,서울특별시 노원구 동일로213길 21,37.6477074,127.0600103
2019_73873,서울특별시 도봉구 우이천로38가길 32,37.65219581,127.021422
2019_73872,서울특별시 서대문구 통일로37길 30,37.58684251,126.9436488
2019_73871,서울특별시 도봉구 덕릉로 349,37.64503774,127.0460993
2019_73870,서울특별시 강동구 양재대로 1340,37.52577786,127.1359315
2019_73869,서울특별시 강동구 고덕로 210,37.5538093,127.147061
2019_73868,서울특별시 강동구 양재대로 1340,37.52577786,127.1359315
2019_73867,서울특별시 금천구 시흥대로 165,37.44790332,126.9007227
2019_73866,서울특별시 금천구 금하로3길 26,37.45433501,126.8974391
2019_73865,서울특별시 영등포구 국회대로76가길 11,37.53081566,126.9239329
2019_73864,서울특별시 구로구 중앙로15길 151,37.5082178,126.8520266
2019_73863,서울특별시 구로구 공원로 35,37.50016197,126.8905209
2019_73862,서울특별시 마포구 양화로 114,37.55358171,126.9199149
2019_73861,서울특별시 구로구 중앙로15길 125,37.50778717,126.8526463
2019_73860,서울특별시 마포구 양화로 114,37.55358171,126.9199149
2019_73859,서울특별시 구로구 경인로20나길 30,37.49482952,126.8420242
2019_73858,서울특별시 영등포구 경인로114가길 14,37.51724645,126.9135461
2019_73857,서울특별시 서대문구 통일로 536,37.59599093,126.9400277
2019_73856,서울특별시 서대문구 명지길 104,37.58217449,126.927514
2019_73855,서울특별시 노원구 한글비석로14길 8,37.65747634,127.0774342
2019_73854,서울특별시 노원구 공릉로34길 118,37.62596694,127.080922
2019_73853,서울특별시 노원구 한글비석로 396,37.66230302,127.0735817
2019_73852,서울특별시 도봉구 마들로 616,37.66510797,127.0469105
2019_73851,서울특별시 은평구 통일로67길 8-6,37.61128868,126.9278391
2019_73850,서울특별시 은평구 증산로5길 2,37.58246926,126.9077183
2019_73849,서울특별시 도봉구 시루봉로 107,37.66121703,127.0261502
2019_73848,서울특별시 도봉구 시루봉로 71,37.65716057,127.0275933
2019_73847,서울특별시 노원구 동일로192나길 26,37.6277216,127.0750725
2019_73846,서울특별시 은평구 증산로 315,37.58506957,126.9104672
2019_73845,서울특별시 은평구 통일로67길 9,37.61071315,126.9284564
2019_73844,서울특별시 은평구 응암로 318,37.59946613,126.9219716
2019_73843,서울특별시 노원구 노원로 532,37.66462073,127.0598242
2019_73842,서울특별시 노원구 공릉로 170,37.62526954,127.0803178
2019_73841,서울특별시 서초구 서초대로 334,37.49471037,127.018291
2019_73840,서울특별시 강남구 자곡로 101,37.47265508,127.0958055
2019_73839,서울특별시 강남구 개포로 409,37.48832393,127.0611695
2019_73838,서울특별시 강남구 도곡로 320,37.495639,127.0520027
2019_73837,서울특별시 강남구 테헤란로52길 16,37.50250061,127.046384
2019_73836,서울특별시 관악구 은천로 93,37.48735272,126.9454289
2019_73835,서울특별시 강남구 도산대로83길 27,37.52627233,127.0482097
2019_73834,서울특별시 성북구 종암로21길 127,37.60281032,127.029324
2019_73833,서울특별시 동대문구 망우로20길 86,37.589998,127.0655317
2019_73832,서울특별시 중랑구 신내로 110,37.60979996,127.0962946
2019_73831,서울특별시 동대문구 이문로 94,37.59514081,127.0596895
2019_73830,서울특별시 동대문구 이문로 94,37.59514081,127.0596895
2019_73829,서울특별시 종로구 평창문화로 140,37.60888227,126.9754226
2019_73828,서울특별시 동대문구 이문로 94,37.59514081,127.0596895
2019_73827,서울특별시 동대문구 이문로 94,37.59514081,127.0596895
2019_73826,서울특별시 동대문구 이문로 94,37.59514081,127.0596895
2019_73825,서울특별시 동대문구 이문로 94,37.59514081,127.0596895
2019_73824,서울특별시 동대문구 이문로 94,37.59514081,127.0596895
2019_73823,서울특별시 동대문구 이문로 94,37.59514081,127.0596895
2019_73822,서울특별시 동대문구 이문로 94,37.59514081,127.0596895
2019_73821,서울특별시 동대문구 이문로 94,37.59514081,127.0596895
2019_73820,서울특별시 동대문구 이문로 94,37.59514081,127.0596895
2019_73819,서울특별시 동대문구 이문로 94,37.59514081,127.0596895
2019_73818,서울특별시 동대문구 이문로 94,37.59514081,127.0596895
2019_73817,서울특별시 동대문구 천호대로 257,37.56895705,127.0505799
2019_73816,서울특별시 동대문구 이문로 94,37.59514081,127.0596895
2019_73815,서울특별시 성북구 정릉로 305,37.60484714,127.0178033
2019_73814,서울특별시 성북구 북악산로 742-12,37.60025114,127.0108174
2019_73813,서울특별시 동대문구 천호대로95길 16,37.56241131,127.0704615
2019_73812,서울특별시 성북구 보문사길 111,37.58287311,127.0178911
2019_73811,서울특별시 중랑구 동일로 501,37.57558112,127.0794634
2019_73810,서울특별시 성북구 삼선교로16길 35,37.58801843,127.0121412
2019_73809,서울특별시 강북구 오패산로30길 30,37.61635558,127.0356712
2019_73808,서울특별시 강북구 도봉로33길 18,37.62156408,127.0265024
2019_73807,서울특별시 중랑구 봉화산로 130,37.60319039,127.0884681
2019_73806,서울특별시 중구 퇴계로90길 74,37.56103798,127.0209858
2019_73805,서울특별시 동대문구 이문로 94,37.59514081,127.0596895
2019_73804,서울특별시 동대문구 약령시로 154,37.58304395,127.0470264
2019_73803,서울특별시 동대문구 이문로 190,37.60350619,127.0622201
2019_73802,서울특별시 동대문구 고산자로 534,37.58839329,127.0392185
2019_73801,서울특별시 성북구 성북로4길 52,37.59447253,127.012706
2019_73800,서울특별시 성북구 종암로9길 71,37.59630307,127.032513
2019_73799,서울특별시 성동구 서울숲2길 32-14,37.54567733,127.0429147
2019_73798,서울특별시 성북구 정릉로26길 8,37.60386708,127.0108477
2019_73797,서울특별시 용산구 독서당로 111,37.53612286,127.0073076
2019_73796,서울특별시 중랑구 동일로95나길 22,37.58386921,127.0772491
2019_73795,서울특별시 성동구 마장로 219,37.5666331,127.0334061
2019_73794,서울특별시 중구 동호로10길 30,37.5551916,127.0163594
2019_73793,서울특별시 동대문구 이문로 94,37.59514081,127.0596895
2019_73792,서울특별시 동대문구 이문로 94,37.59514081,127.0596895
2019_73791,서울특별시 동대문구 이문로 94,37.59514081,127.0596895
2019_73790,서울특별시 강동구 올림픽로104길 41,37.55601171,127.1313063
2019_73789,서울특별시 강동구 천중로49가길 56,37.54118369,127.1459866
2019_73788,서울특별시 강동구 양재대로 1650,37.55437885,127.1459442
2019_73787,서울특별시 송파구 양재대로 1218,37.51669099,127.1377124
2019_73786,서울특별시 송파구 양산로8길 8,37.49091614,127.144567
2019_73785,서울특별시 강동구 천호대로175길 14,37.53528691,127.1370389
2019_73784,서울특별시 강동구 올림픽로 568-12,37.53193952,127.1216569
2019_73783,서울특별시 송파구 올림픽로 435,37.5213593,127.1049717
2019_73782,서울특별시 강남구 도산대로83길 43,37.52726681,127.04876
2019_73781,서울특별시 서초구 신반포로23길 31,,
2019_73780,서울특별시 송파구 동남로14길 23-9,37.49232453,127.132075
2019_73779,서울특별시 강남구 학동로68길 30,37.51657975,127.0465099
2019_73778,서울특별시 관악구 관악로40길 60,37.49331457,126.9607896
2019_73777,서울특별시 강남구 삼성로 212,37.49961577,127.0659154
2019_73776,서울특별시 서초구 서초중앙로 200,37.50045322,127.0156476
2019_73775,서울특별시 서초구 효령로45길 7,37.48400966,127.0085496
2019_73774,서울특별시 서초구 반포대로10길 42,37.48381892,127.0141774
2019_73773,서울특별시 송파구 잠실로 62,37.50801505,127.0902835
2019_73772,서울특별시 강남구 삼성로 150,37.49569534,127.0685647
2019_73771,서울특별시 강서구 양천로14가길 23,37.57211751,126.8084409
2019_73770,서울특별시 구로구 디지털로31길 90,37.48873032,126.8920535
2019_73769,서울특별시 양천구 신정로7길 60-7,37.51344815,126.8384272
2019_73768,서울특별시 구로구 신도림로21길 25,37.51302996,126.8844957
2019_73767,서울특별시 양천구 은행정로20길 5-9,37.52865301,126.8593474
2019_73766,서울특별시 강서구 국회대로7길 101,37.52931498,126.8552479
2019_73765,서울특별시 도봉구 노해로40길 71,37.64720957,127.0298085
2019_73764,서울특별시 노원구 월계로55길 15,37.63239642,127.059849
2019_73763,서울특별시 은평구 연서로 455,37.63739537,126.933915
2019_73762,서울특별시 노원구 덕릉로127길 25,37.67224368,127.081579
2019_73761,서울특별시 강북구 오현로 156,37.62627408,127.0369032
2019_73760,서울특별시 은평구 진관3로 77,37.64470829,126.9208769
2019_73759,서울특별시 서대문구 연희로28길 35-28,37.5758148,126.9380756
2019_73758,서울특별시 노원구 동일로207길 17,37.64273683,127.0641728
2019_73757,서울특별시 노원구 월계로55길 15,37.63239642,127.059849
2019_73756,서울특별시 강북구 한천로 1131,37.64543585,127.0186245
2019_73755,서울특별시 서대문구 홍제천로 172,37.57797817,126.9324733
2019_73754,서울특별시 은평구 진관3로 77,37.64470829,126.9208769
2019_73753,서울특별시 노원구 동일로214길 21,37.65043289,127.0627594
2019_73752,서울특별시 강북구 월계로37길 87-9,37.6259063,127.0437416
2019_73751,서울특별시 은평구 증산로 315,37.58506957,126.9104672
2019_73750,서울특별시 도봉구 덕릉로 349,37.64503774,127.0460993
2019_73749,서울특별시 도봉구 덕릉로60길 164-13,37.63316379,127.0428836
2019_73748,서울특별시 은평구 증산로 315,37.58506957,126.9104672
2019_73747,서울특별시 은평구 증산로 315,37.58506957,126.9104672
2019_73746,서울특별시 도봉구 시루봉로 166,37.66402936,127.0305763
2019_73745,서울특별시 노원구 한글비석로14길 37,37.65922434,127.0766001
2019_73744,서울특별시 은평구 증산로 315,37.58506957,126.9104672
2019_73743,서울특별시 노원구 덕릉로60길 288,37.62874843,127.0468723
2019_73742,서울특별시 노원구 동일로178길 53,37.6218928,127.0776578
2019_73741,서울특별시 은평구 백련산로 6,37.58614561,126.9232295
2019_73740,서울특별시 서대문구 증가로 191,37.57849683,126.9173923
2019_73739,서울특별시 은평구 갈현로3다길 15,37.60262957,126.9052047
2019_73738,서울특별시 노원구 동일로230길 63,37.67373684,127.05895
2019_73737,서울특별시 마포구 백범로 199,37.54352977,126.952771
2019_73736,서울특별시 은평구 증산로 315,37.58506957,126.9104672
2019_73735,서울특별시 성북구 정릉로 305,37.60484714,127.0178033
2019_73734,서울특별시 중랑구 동일로129길 35,37.59922257,127.0775053
2019_73733,서울특별시 광진구 구의강변로 106,37.53985699,127.0948966
2019_73732,서울특별시 동대문구 장한로20길 7,37.56898776,127.0703171
2019_73731,서울특별시 종로구 새문안로3길 23,37.57263082,126.9724408
2019_73730,서울특별시 강북구 숭인로7가길 37,37.61389583,127.0262234
2019_73729,서울특별시 중랑구 용마산로129가길 41,37.60602019,127.1002326
2019_73728,서울특별시 중랑구 중랑천로 20,37.58648311,127.0758051
2019_73727,서울특별시 성북구 안암로9나길 14,37.58227743,127.0246218
2019_73726,서울특별시 성북구 동소문로34길 24,37.59899275,127.0231395
2019_73725,서울특별시 중구 다산로 32,37.54715055,127.0057062
2019_73724,서울특별시 금천구 시흥대로12길 10-8,37.43862687,126.903816
2019_73723,서울특별시 구로구 경서로1길 14,37.4991114,126.8561528
2019_73722,서울특별시 강서구 화곡로18길 24,37.53906639,126.835419
2019_73721,서울특별시 강서구 공항대로46길 28,37.5547234,126.8528968
2019_73720,서울특별시 구로구 디지털로31길 120,37.48847002,126.890773
2019_73719,서울특별시 구로구 도림로 59,37.4898994,126.8889619
2019_73718,서울특별시 강서구 공항대로46길 28,37.5547234,126.8528968
2019_73717,서울특별시 강서구 강서로5나길 50,37.5287944,126.8455174
2019_73716,서울특별시 양천구 신정로 225-12,37.51148503,126.8462464
2019_73715,서울특별시 양천구 목동서로 280,37.52234027,126.8675633
2019_73714,서울특별시 양천구 목동동로 100,37.51498201,126.8651323
2019_73713,서울특별시 양천구 신정로11길 20,37.5119634,126.8387028
2019_73712,서울특별시 양천구 신월로 99,37.5184159,126.8351572
2019_73711,서울특별시 양천구 목동서로 130,37.53151635,126.8709047
2019_73710,서울특별시 강서구 양천로65길 46,37.55535612,126.8674609
2019_73709,서울특별시 송파구 마천로35길 12,37.49991012,127.1456278
2019_73708,서울특별시 강동구 천호대로175길 14,37.53528691,127.1370389
2019_73707,서울특별시 강동구 천호대로175길 10,37.53510852,127.1369564
2019_73706,서울특별시 강동구 천중로 221,37.54102871,127.1447464
2019_73705,서울특별시 강동구 상암로 251,37.54859381,127.1506883
2019_73704,서울특별시 관악구 청룡8길 10,37.4800714,126.9454226
2019_73703,서울특별시 동작구 신대방1가길 38,37.487901,126.9069396
2019_73702,서울특별시 서초구 강남대로53길 11,37.49396164,127.0279164
2019_73701,서울특별시 강남구 개포로 516,37.48914068,127.0708715
2019_73700,서울특별시 송파구 올림픽로 212,37.51070678,127.0942316
2019_73699,서울특별시 강남구 선릉로 221,37.49420684,127.0497348
2019_73698,서울특별시 강남구 개포로 516,37.48914068,127.0708715
2019_73697,서울특별시 동작구 사당로2가길 102,37.48837303,126.9634174
2019_73696,서울특별시 서초구 동광로3길 18,37.49150626,126.9846179
2019_73695,서울특별시 동작구 사당로23바길 9,37.48960968,126.9691902
2019_73694,서울특별시 관악구 남부순환로 1777-7,37.48238628,126.9476252
2019_73693,서울특별시 관악구 성현로 80,37.48984744,126.9529855
2019_73692,서울특별시 관악구 난곡로 55,37.45974172,126.9207528
2019_73691,서울특별시 강남구 선릉로69길 20,37.49874723,127.0509235
2019_73690,서울특별시 강남구 삼성로 14,37.48615481,127.068451
2019_73689,서울특별시 강남구 언주로 110,37.48540594,127.05471
2019_73688,서울특별시 강남구 강남대로 256,37.48648686,127.0335376
2019_73687,서울특별시 강남구 개포로109길 9,37.49575182,127.0751013
2019_73686,서울특별시 강남구 삼성로 517,37.50798547,127.0552236
2019_73685,서울특별시 송파구 한가람로 448,37.53750523,127.1152272
2019_73684,서울특별시 송파구 올림픽로 525,37.53011301,127.1193553
2019_73683,서울특별시 노원구 동일로228길 23,37.66986967,127.0587381
2019_73682,서울특별시 노원구 섬밭로 22,37.61884065,127.0726466
2019_73681,서울특별시 은평구 증산로 221,37.57881297,126.9035842
2019_73680,서울특별시 은평구 증산로13길 44-5,37.58760013,126.9076967
2019_73679,서울특별시 노원구 노원로18길 19,37.64461238,127.0717203
2019_73678,서울특별시 은평구 백련산로 160,37.5983345,126.9259201
2019_73677,서울특별시 노원구 한글비석로48길 6,37.66521219,127.0677191
2019_73676,서울특별시 도봉구 도봉로150길 31,37.666368,127.0450421
2019_73675,서울특별시 노원구 공릉로51길 14-17,37.62903928,127.0756554
2019_73674,서울특별시 노원구 한글비석로46가길 34,37.66681865,127.0675504
2019_73673,서울특별시 노원구 한글비석로 479,37.66449773,127.0644832
2019_73672,서울특별시 도봉구 우이천로20길 7,37.64173321,127.0347716
2019_73671,서울특별시 은평구 통일로53길 9-24,37.60306662,126.9336883
2019_73670,서울특별시 은평구 은평터널로 163,37.59331167,126.9072059
2019_73669,서울특별시 은평구 은평터널로 121-6,37.59027545,126.9036447
2019_73668,서울특별시 은평구 진관4로 48-50,37.64320408,126.9292088
2019_73667,서울특별시 은평구 서오릉로20길 5-10,37.61686888,126.9084958
2019_73666,서울특별시 노원구 덕릉로 721,37.66206726,127.0755365
2019_73665,서울특별시 노원구 동일로208길 19,37.64559563,127.0656766
2019_73664,서울특별시 서대문구 증가로 74,37.5740342,126.9278248
2019_73663,서울특별시 노원구 섬밭로 123,37.62805406,127.0685738
2019_73662,서울특별시 노원구 동일로245길 162,37.68083846,127.0542199
2019_73661,서울특별시 송파구 성내천로 245,37.49839517,127.1547692
2019_73660,서울특별시 송파구 오금로56길 28,37.49234594,127.1431628
2019_73659,서울특별시 송파구 양재대로 1218,37.51669099,127.1377124
2019_73658,서울특별시 광진구 아차산로36길 39,37.53631294,127.0743585
2019_73657,서울특별시 광진구 동일로 459,37.57120533,127.0796269
2019_73656,서울특별시 광진구 아차산로78길 10,37.54982627,127.1086966
2019_73655,서울특별시 중구 동호로11바길 17,37.55074721,127.006453
2019_73654,서울특별시 동대문구 서울시립대로 31,37.57531055,127.0458645
2019_73653,서울특별시 강북구 삼양로19길 113,37.61705556,127.0177233
2019_73652,서울특별시 중구 동호로10길 30,37.5551916,127.0163594
2019_73651,서울특별시 종로구 평창문화로 118,37.60825986,126.9732899
2019_73650,서울특별시 종로구 평창문화로 171,,
2019_73649,서울특별시 중구 난계로 169,37.56657481,127.0232614
2019_73648,서울특별시 중랑구 신내역로 165,37.61658268,127.1096317
2019_73647,서울특별시 동대문구 황물로15길 25,37.56656253,127.0571883
2019_73646,서울특별시 성동구 독서당로 431,37.55371005,127.0329489
2019_73645,서울특별시 동대문구 장안벚꽃로 107,37.57105683,127.0751137
2019_73644,서울특별시 중랑구 사가정로41길 9,37.58165222,127.0839815
2019_73643,서울특별시 중랑구 동일로109가길 5,37.59224009,127.0787069
2019_73642,서울특별시 광진구 능동로19길 35,37.54706801,127.0718499
2019_73641,서울특별시 성북구 종암로24가길 80,37.59931367,127.0392269
2019_73640,서울특별시 성동구 한림말1길 10,37.54218718,127.016617
2019_73639,서울특별시 동대문구 고미술로 71,37.56609582,127.0550847
2019_73638,서울특별시 성동구 난계로 100,37.5615293,127.0246515
2019_73637,서울특별시 동대문구 이문로 37,37.59080113,127.0561174
2019_73636,서울특별시 성동구 마장로42길 16,37.56504066,127.0460385
2019_73635,서울특별시 성북구 북악산로 844,37.59738598,127.019323
2019_73634,서울특별시 중랑구 중랑천로10길 23,37.59201737,127.0742485
2019_73633,서울특별시 성북구 정릉로 307,37.60322851,127.0178662
2019_73632,서울특별시 중랑구 신내로 110,37.60979996,127.0962946
2019_73631,서울특별시 성동구 마장로42길 16,37.56504066,127.0460385
2019_73630,서울특별시 광진구 자양번영로3길 66,37.53315544,127.0711956
2019_73629,서울특별시 마포구 마포대로4나길 71,37.53630624,126.9453776
2019_73628,서울특별시 구로구 고척로 52,37.49856841,126.8404707
2019_73627,서울특별시 마포구 월드컵로 338,37.57277235,126.8900873
2019_73626,서울특별시 양천구 신목로5길 23-6,,
2019_73625,서울특별시 양천구 오목로 354,37.52398126,126.8767961
2019_73624,서울특별시 구로구 개봉로3길 51,37.48597574,126.8533913
2019_73623,서울특별시 구로구 개봉로2길 133-15,37.48950363,126.8600708
2019_73622,서울특별시 금천구 독산로10길 96,37.44963404,126.9105019
2019_73621,서울특별시 강서구 금낭화로 287-19,37.57680385,126.8102869
2019_73620,서울특별시 강서구 양천로14길 86-5,37.56931642,126.8084499
2019_73619,서울특별시 강서구 개화동로27가길 33,37.56272098,126.8075227
2019_73618,서울특별시 강서구 방화대로45길 32,37.57488098,126.8143291
2019_73617,서울특별시 마포구 토정로18길 11,37.54384804,126.9348545
2019_73616,서울특별시 강서구 강서로17가길 46,37.53646677,126.8435292
2019_73615,서울특별시 구로구 서해안로34가길 18,37.49379081,126.8481845
2019_73614,서울특별시 마포구 월드컵북로 235,37.56970041,126.9014174
2019_73613,서울특별시 구로구 구로중앙로28다길 22,37.50142228,126.8888641
2019_73612,서울특별시 구로구 고척로 49,37.49996525,126.8413534
2019_73611,서울특별시 마포구 희우정로21길 5,37.55515041,126.8997152
2019_73610,서울특별시 영등포구 양산로25길 16,37.52505739,126.8994008
2019_73609,서울특별시 강서구 강서로56나길 37,37.56108007,126.8408477
2019_73608,서울특별시 구로구 고척로22길 84,37.49814512,126.8468094
2019_73607,서울특별시 양천구 월정로9길 20,37.52526641,126.8381632
2019_73606,서울특별시 마포구 창전로 26,37.54456863,126.931921
2019_73605,서울특별시 관악구 신림로29길 8,37.4755685,126.9328111
2019_73604,서울특별시 관악구 신림로29길 8,37.4755685,126.9328111
2019_73603,서울특별시 동작구 동작대로39길 22,37.49463598,126.981966
2019_73602,서울특별시 서초구 동광로41길 32-1,37.49634152,127.0002705
2019_73601,서울특별시 관악구 남부순환로218길 37,37.47964366,126.9504648
2019_73600,서울특별시 동작구 여의대방로22길 24,37.49744995,126.9215728
2019_73599,서울특별시 용산구 이촌로65가길 51,37.5219938,126.9736746
2019_73598,서울특별시 성동구 동일로 263,37.55627169,127.071436
2019_73597,서울특별시 성북구 낙산길 243-15,37.58267456,127.0144138
2019_73596,서울특별시 은평구 통일로 660,37.60590087,126.9361429
2019_73595,서울특별시 강동구 진황도로 12,,
2019_73594,서울특별시 송파구 위례광장로 163,37.4796684,127.1393228
2019_73593,서울특별시 송파구 양산로4길 8,37.48956298,127.1432578
2019_73592,서울특별시 강동구 고덕로 240,37.55382442,127.151914
2019_73591,서울특별시 강동구 상암로12길 24,37.54877075,127.1278567
2019_73590,서울특별시 강서구 수명로2길 105,37.55158665,126.8275827
2019_73589,서울특별시 금천구 한내로 62,37.45539127,126.8888776
2019_73588,서울특별시 금천구 벚꽃로 40,37.46005964,126.8930206
2019_73587,서울특별시 강서구 강서로56나길 37,37.56108007,126.8408477
2019_73586,서울특별시 양천구 목동로23길 34,37.52794454,126.859714
2019_73585,서울특별시 양천구 신정로7길 60-7,37.51344815,126.8384272
2019_73584,서울특별시 영등포구 양산로 177,37.52446352,126.9031483
2019_73583,서울특별시 구로구 중앙로12길 17-8,37.50645826,126.8623401
2019_73582,서울특별시 금천구 금하로 816,37.44977863,126.9200208
2019_73581,서울특별시 금천구 금하로 793,37.45221259,126.9182453
2019_73580,서울특별시 영등포구 가마산로79길 7,37.5051397,126.9145978
2019_73579,서울특별시 금천구 벚꽃로 73,37.46291004,126.8904233
2019_73578,서울특별시 도봉구 시루봉로 107,37.66121703,127.0261502
2019_73577,서울특별시 노원구 섬밭로 232,37.63661517,127.0656682
2019_73576,서울특별시 노원구 월계로55길 15,37.63239642,127.059849
2019_73575,서울특별시 노원구 마들로 31,37.61872537,127.0670846
2019_73574,서울특별시 노원구 동일로208길 19,37.64559563,127.0656766
2019_73573,서울특별시 도봉구 해등로 286-5,37.65772975,127.0241592
2019_73572,서울특별시 도봉구 해등로 307,37.65667471,127.022754
2019_73571,서울특별시 서대문구 포방터10길 33,37.60245509,126.9513927
2019_73570,서울특별시 도봉구 시루봉로 107,37.66121703,127.0261502
2019_73569,서울특별시 도봉구 해등로 242-12,37.65866831,127.0307242
2019_73568,서울특별시 은평구 연서로17길 9,37.61264983,126.91615
2019_73567,서울특별시 서대문구 세검정로1길 35,37.59363936,126.9439082
2019_73566,서울특별시 도봉구 우이천로 304,37.64510569,127.0298113
2019_73565,서울특별시 노원구 누원로 28,37.68747717,127.0535548
2019_73564,서울특별시 도봉구 해등로 242-11,37.65896148,127.0293445
2019_73563,서울특별시 강북구 오현로 141,37.62503944,127.0369578
2019_73562,서울특별시 도봉구 해등로 139,37.65584321,127.0402362
2019_73561,서울특별시 서대문구 홍은중앙로 156,37.60395833,126.9497517
2019_73560,서울특별시 도봉구 해등로 50,37.64999808,127.0433017
2019_73559,서울특별시 도봉구 노해로 184-9,37.65061719,127.0294269
2019_73558,서울특별시 송파구 오금로32길 10,37.5059295,127.1198569
2019_73557,서울특별시 서초구 서초중앙로24길 57,37.49697279,127.0194178
2019_73556,서울특별시 강남구 언주로30길 56,37.48806952,127.0534832
2019_73555,서울특별시 서초구 서초중앙로 200,37.50045322,127.0156476
2019_73554,서울특별시 서초구 서운로6길 15-20,37.48672802,127.0303638
2019_73553,서울특별시 동작구 신대방1가길 38,37.487901,126.9069396
2019_73552,서울특별시 송파구 동남로 193,37.49469823,127.1292231
2019_73551,서울특별시 관악구 대학20길 27,37.46439632,126.9375489
2019_73550,서울특별시 동작구 서달로 150,37.50662658,126.9621838
2019_73549,서울특별시 성동구 독서당로 441,37.55410505,127.0319539
2019_73548,서울특별시 성동구 고산자로 164,37.55506876,127.0354241
2019_73547,서울특별시 용산구 이촌로 347,37.51910028,126.9897372
2019_73546,서울특별시 광진구 뚝섬로 569,37.53435114,127.0735775
2019_73545,서울특별시 중랑구 면목로30가길 31,37.57709786,127.0862601
2019_73544,서울특별시 성북구 아리랑로 75,37.59883026,127.0136255
2019_73543,서울특별시 중랑구 봉화산로24길 28-7,37.60104293,127.0824335
2019_73542,서울특별시 종로구 평창문화로 171,,
2019_73541,서울특별시 중랑구 신내로 110,37.60979996,127.0962946
2019_73540,서울특별시 동대문구 한천로 224,37.58082627,127.068513
2019_73539,서울특별시 동대문구 장한로26가길 53,37.5692711,127.0709696
2019_73538,서울특별시 용산구 한강대로 372,37.55163158,126.9729122
2019_73537,서울특별시 용산구 한강대로 372,37.55163158,126.9729122
2019_73536,서울특별시 중랑구 면목로 429,37.59019347,127.0868261
2019_73535,서울특별시 중랑구 동일로 476,37.57368905,127.0803696
2019_73534,서울특별시 중랑구 사가정로41길 59,37.58407833,127.083848
2019_73533,서울특별시 성동구 사근동길 65,37.56214127,127.0487039
2019_73532,서울특별시 광진구 광나루로 369,37.54846108,127.0710495
2019_73531,서울특별시 광진구 영화사로 58,37.55515988,127.0926669
2019_73530,서울특별시 광진구 아차산로 552,37.54365673,127.1042503
2019_73529,서울특별시 중랑구 신내로7가길 31,37.60207313,127.0934243
2019_73528,서울특별시 중랑구 동일로 932,37.61383938,127.0775571
2019_73527,서울특별시 중랑구 신내로7나길 24,37.6013558,127.0928005
2019_73526,서울특별시 성동구 왕십리로 66-15,,
2019_73525,서울특별시 종로구 난계로29가길 24,37.57344263,127.0223841
2019_73524,서울특별시 성북구 종암로24가길 50,37.5998893,127.0370312
2019_73523,서울특별시 중랑구 동일로 825-1,37.60403142,127.0784751
2019_73522,서울특별시 중랑구 동일로129길 35,37.59922257,127.0775053
2019_73521,서울특별시 중랑구 면목로35길 9,37.57806403,127.0853445
2019_73520,서울특별시 성북구  ,37.58935882,127.0167029
2019_73519,서울특별시 강동구 구천면로41길 79,37.54740659,127.1299635
2019_73518,서울특별시 강동구 진황도로 85,37.5366246,127.136133
2019_73517,서울특별시 강동구 천호대로 1156-20,37.53276822,127.1393769
2019_73516,서울특별시 강동구 천호대로175길 14,37.53528691,127.1370389
2019_73515,서울특별시 관악구 봉천로21길 77,37.49029702,126.9342445
2019_73514,서울특별시 동작구 흑석한강로 27,37.50409942,126.9662844
2019_73513,서울특별시 강남구 영동대로128길 45,37.51937414,127.0611174
2019_73512,서울특별시 동작구 동작대로29길 119,37.49088863,126.9760567
2019_73511,서울특별시 관악구 남부순환로 1773,37.48213913,126.9472126
2019_73510,서울특별시 서초구 효령로4길 10,37.4767247,126.9871177
2019_73509,서울특별시 관악구 은천로 93,37.48735272,126.9454289
2019_73508,서울특별시 관악구 호암로 417,37.46133515,126.9274799
2019_73507,서울특별시 금천구 두산로 36,37.47024357,126.891916
2019_73506,서울특별시 양천구 곰달래로2길 16,37.52794741,126.8343168
2019_73505,서울특별시 강서구 공항대로59길 103,37.55597526,126.8621674
2019_73504,서울특별시 강서구 공항대로55길 19,37.55489405,126.860929
2019_73503,서울특별시 영등포구 의사당대로 110,37.52040134,126.9246364
2019_73502,서울특별시 마포구 서강대길 40,37.54919004,126.9411697
2019_73501,서울특별시 구로구 구일로2길 60,37.48975807,126.8770812
2019_73500,서울특별시 금천구 금하로 816,37.44977863,126.9200208
2019_73499,서울특별시 구로구 오리로 1102-10,37.48401441,126.8433413
2019_73498,서울특별시 영등포구 문래로8길 5,37.51987702,126.8864189
2019_73497,서울특별시 서대문구 연희로37길 77-23,37.586062,126.9334802
2019_73496,서울특별시 은평구 은평로 123,37.60055197,126.9215191
2019_73495,서울특별시 노원구 섬밭로 265,37.63828783,127.0627161
2019_73494,서울특별시 은평구 불광로18가길 18,37.6231427,126.9333344
2019_73493,서울특별시 서대문구 거북골로14길 32,37.57695108,126.9145953
2019_73492,서울특별시 서대문구 증가로 150,37.57805476,126.9210192
2019_73491,서울특별시 도봉구 우이천로30길 28,37.64849899,127.0263293
2019_73490,서울특별시 서대문구 증가로 150,37.57805476,126.9210192
2019_73489,서울특별시 도봉구 해등로16길 12,37.65623484,127.0405729
2019_73488,서울특별시 도봉구 해등로 242-12,37.65866831,127.0307242
2019_73487,서울특별시 은평구 진관4로 48-51,37.64363516,126.9297565
2019_73486,서울특별시 도봉구 도당로 116,37.6666198,127.039854
2019_73485,서울특별시 은평구 서오릉로 102,37.6092796,126.9207209
2019_73484,서울특별시 서대문구 통일로32길 3,37.58544087,126.9492832
2019_73483,서울특별시 서대문구 통일로25길 30,37.58327722,126.9472325
2019_73482,서울특별시 은평구 서오릉로 102,37.6092796,126.9207209
2019_73481,서울특별시 노원구 노원로 58,37.62692051,127.0883803
2019_73480,서울특별시 은평구 증산로 315,37.58506957,126.9104672
2019_73479,서울특별시 은평구 불광로 170,37.62178134,126.9316542
2019_73478,서울특별시 도봉구 해등로 231,37.65772508,127.0320475
2019_73477,서울특별시 노원구 동일로216길 47,37.65298873,127.0635586
2019_73476,서울특별시 은평구 진관3로 77,37.64470829,126.9208769
2019_73475,서울특별시 도봉구 노해로70길 119,37.64739119,127.053376
2019_73474,서울특별시 도봉구 덕릉로 349,37.64503774,127.0460993
2019_73473,서울특별시 마포구 만리재로 45-1,37.54567304,126.9557248
2019_73472,서울특별시 마포구 만리재로 45-1,37.54567304,126.9557248
2019_73471,서울특별시 마포구 만리재로 45-1,37.54567304,126.9557248
2019_73470,서울특별시 마포구 만리재로 45-1,37.54567304,126.9557248
2019_73469,서울특별시 마포구 만리재로 45-1,37.54567304,126.9557248
2019_73468,서울특별시 노원구 덕릉로60길 252,37.62918887,127.045168
2019_73467,서울특별시 은평구 증산로 315,37.58506957,126.9104672
2019_73466,서울특별시 은평구 증산로 315,37.58506957,126.9104672
2019_73465,서울특별시 강북구 4.19로11길 16,37.64553237,127.0080716
2019_73464,서울특별시 서대문구 연희로5길 14,37.56406366,126.928065
2019_73463,서울특별시 성북구 정릉로21길 21,37.60643136,127.0077843
2019_73462,서울특별시 동대문구 사가정로23가길 31,37.58048844,127.0714764
2019_73461,서울특별시 동대문구 장한로20길 7,37.56898776,127.0703171
2019_73460,서울특별시 용산구 장문로 27,37.52910718,126.9936729
2019_73459,서울특별시 중랑구 신내로 155,37.61385898,127.0943227
2019_73458,서울특별시 종로구 난계로29가길 24,37.57344263,127.0223841
2019_73457,서울특별시 성북구 성북로4길 52,37.59447253,127.012706
2019_73456,서울특별시 동대문구 이문로 37,37.59080113,127.0561174
2019_73455,서울특별시 광진구 광나루로 361,37.54844573,127.0697457
2019_73454,서울특별시 종로구 사직로8길 4,37.57467165,126.9684298
2019_73453,서울특별시 광진구 구의강변로 94,37.53813937,127.095065
2019_73452,서울특별시 성북구 정릉로 185-4,37.6078481,127.0059093
2019_73451,서울특별시 강서구 수명로2길 63,37.54987533,126.8258219
2019_73450,서울특별시 강서구 양천로14길 86-5,37.56931642,126.8084499
2019_73449,서울특별시 강서구 양천로10길 37,37.57107844,126.8091413
2019_73448,서울특별시 마포구 백범로 10,37.55355555,126.9367996
2019_73447,서울특별시 구로구 경인로66길 5,37.50762493,126.8873868
2019_73446,서울특별시 구로구 신도림로11가길 36,37.50626346,126.8763484
2019_73445,서울특별시 구로구 구일로4길 22,37.49116709,126.8756454
2019_73444,서울특별시 마포구 포은로6길 34,37.55580984,126.9067271
2019_73443,서울특별시 구로구 도림로3길 15,37.48601417,126.8863196
2019_73442,서울특별시 강서구 양천로55길 55,37.56632848,126.8481832
2019_73441,서울특별시 강서구 양천로69길 58,37.55527197,126.8729604
2019_73440,서울특별시 영등포구 도림로 313,37.50546963,126.901495
2019_73439,서울특별시 강서구 화곡로18길 24,37.53906639,126.835419
2019_73438,서울특별시 영등포구 선유서로 31,37.51863216,126.8839747
2019_73437,서울특별시 구로구 구일로8길 63,37.49657523,126.8736295
2019_73436,서울특별시 양천구 목동중앙본로7길 37-20,37.53859684,126.8665896
2019_73435,서울특별시 강서구 마곡중앙로 33,37.5580501,126.8240802
2019_73434,서울특별시 양천구 신월로10길 30,37.51470484,126.8411954
2019_73433,서울특별시 양천구 중앙로29길 61,37.51954197,126.848125
2019_73432,서울특별시 구로구 연동로13길 25,37.48506387,126.8195703
2019_73431,서울특별시 송파구 양재대로 1218,37.51669099,127.1377124
2019_73430,서울특별시 강동구 양재대로 1340,37.52577786,127.1359315
2019_73429,서울특별시 강동구 성안로 155,37.53723615,127.1347595
2019_73428,서울특별시 동작구 장승배기로4길 9,37.5014493,126.9438142
2019_73427,서울특별시 송파구 올림픽로 135,37.51673328,127.0898891
2019_73426,서울특별시 강남구 압구정로34길 49,37.52489036,127.0307199
2019_73425,서울특별시 관악구 신사로 82,37.48576245,126.9118733
2019_73424,서울특별시 서초구 서초중앙로 26,37.48468721,127.0169918
2019_73423,서울특별시 관악구 조원로 25,37.48370831,126.9054333
2019_73422,서울특별시 서초구 방배선행길 2,37.47236634,126.9848553
2019_73421,서울특별시 동작구 대방동27길 4,37.50495671,126.924395
2019_73420,서울특별시 관악구 난곡로35길 28-7,37.47144773,126.9174501
2019_73419,서울특별시 서초구 명달로 91,37.48543973,127.0034738
2019_73418,서울특별시 강남구 영동대로138길 12,37.52410147,127.0572498
2019_73417,서울특별시 동작구 보라매로5길 51,37.49094201,126.9232712
2019_73416,서울특별시 강남구 삼성로111길 8,37.51473151,127.0517391
2019_73415,서울특별시 서초구 서초중앙로 220,37.50151093,127.0124717
2019_73414,서울특별시 강남구 삼성로 212,37.49961577,127.0659154
2019_73413,서울특별시 관악구 신림로3길 40,37.46678342,126.9418862
2019_73412,서울특별시 동작구 만양로 19,37.50707174,126.9457182
2019_73411,서울특별시 강남구 선릉로 206,37.49146442,127.0556417
2019_73410,서울특별시 송파구 백제고분로44길 64,37.5039378,127.1134055
2019_73409,서울특별시 강남구 언주로70길 18-8,37.4966557,127.0472765
2019_73408,서울특별시 노원구 동일로207길 186,37.63795562,127.0598022
2019_73407,서울특별시 서대문구 연희로32길 48,37.57586005,126.937263
2019_73406,서울특별시 노원구 노원로28길 15,37.65400888,127.0692161
2019_73405,서울특별시 노원구 동일로239길 68,37.67449413,127.0509914
2019_73404,서울특별시 은평구 증산로 315,37.58506957,126.9104672
2019_73403,서울특별시 도봉구 도봉로169길 31,37.67995228,127.0442384
2019_73402,서울특별시 도봉구 우이천로32길 67,37.65079612,127.0251367
2019_73401,서울특별시 은평구 백련산로 146,37.59777707,126.9263631
2019_73400,서울특별시 서대문구 연희로15길 127,37.57258947,126.9277147
2019_73399,서울특별시 은평구 증산로 315,37.58506957,126.9104672
2019_73398,서울특별시 서대문구 충정로7길 30,37.563688,126.9632043
2019_73397,서울특별시 은평구 백련산로 173,37.60021885,126.9266602
2019_73396,서울특별시 서대문구 모래내로 453,37.58574629,126.945028
2019_73395,서울특별시 강동구 풍성로52길 14,37.52932506,127.1320816
2019_73394,서울특별시 강동구 양재대로 1340,37.52577786,127.1359315
2019_73393,서울특별시 용산구 이촌로 248,37.51938659,126.975026
2019_73392,서울특별시 중랑구 중랑역로 124,37.60452858,127.0776674
2019_73391,서울특별시 중랑구 봉화산로27가길 23,37.60317057,127.0846579
2019_73390,서울특별시 성북구 오패산로 46,37.60747384,127.0387095
2019_73389,서울특별시 동대문구 외대역동로 14,37.59096838,127.0686732
2019_73388,서울특별시 성북구 서경로 91,37.611102,127.013688
2019_73387,서울특별시 동대문구 정릉천동로 100,,
2019_73386,서울특별시 중랑구 상봉중앙로8길 76,37.60270473,127.0914659
2019_73385,서울특별시 성동구 독서당로 154,37.53960467,127.0119343
2019_73384,서울특별시 성북구 북악산로29길 67,37.59503244,127.0336436
2019_73383,서울특별시 성북구 종암로9길 71,37.59630307,127.032513
2019_73382,서울특별시 성북구 화랑로 214,37.60915834,127.0548327
2019_73381,서울특별시 중랑구 망우로 504-7,37.60021763,127.1087773
2019_73380,서울특별시 동대문구 사가정로 148,37.57665904,127.0615677
2019_73379,서울특별시 강북구 솔샘로 174,37.61763836,127.0105997
2019_73378,서울특별시 구로구 서해안로 2368,37.49410321,126.8474372
2019_73377,서울특별시 영등포구 문래로4길 6,37.52019592,126.8828555
2019_73376,서울특별시 금천구 시흥대로12길 33,37.43915078,126.9053476
2019_73375,서울특별시 강서구 공항대로46길 28,37.5547234,126.8528968
2019_73374,서울특별시 강서구 허준로 175,37.56375809,126.8592894
2019_73373,서울특별시 구로구 구로중앙로18길 56,37.4956396,126.8925397
2019_73372,서울특별시 금천구 벚꽃로 73,37.46291004,126.8904233
2019_73371,서울특별시 강서구 화곡로18길 24,37.53906639,126.835419
2019_73370,서울특별시 금천구 문성로3길 8,37.47679308,126.9045483
2019_73369,서울특별시 강서구 강서로68길 108,37.56466725,126.8457024
2019_73368,서울특별시 영등포구 영등포로 351,37.51531105,126.9180311
2019_73367,서울특별시 금천구 가산로 99,37.47615677,126.8912894
2019_73366,서울특별시 양천구 신월로 220,37.52135003,126.846604
2019_73365,서울특별시 구로구 고척로 49,37.49996525,126.8413534
2019_73364,서울특별시 구로구 가마산로 283,37.49690482,126.8913849
2019_73363,서울특별시 구로구 구로중앙로28다길 22,37.50142228,126.8888641
2019_73362,서울특별시 구로구 새말로 31,37.50438037,126.8848254
2019_73361,서울특별시 구로구 중앙로12길 12,37.50495917,126.8618782
2019_73360,서울특별시 금천구 시흥대로47길 43,37.45065531,126.8989553
2019_73359,서울특별시 양천구 신정로 293,37.51430989,126.8550432
2019_73358,서울특별시 금천구 독산로50길 89,37.46375636,126.9091263
2019_73357,서울특별시 구로구 남부순환로95길 54,37.49503483,126.8547106
2019_73356,서울특별시 송파구 오금로32길 14,37.50525374,127.1178045
2019_73355,서울특별시 강남구 광평로10길 6,37.48262917,127.0765203
2019_73354,서울특별시 서초구 서초중앙로 188,37.49735041,127.013538
2019_73353,서울특별시 송파구 올림픽로 135,37.51673328,127.0898891
2019_73352,서울특별시 관악구 관천로18길 32,37.48765139,126.9247299
2019_73351,서울특별시 강남구 선릉로69길 19,37.49812635,127.050691
2019_73350,서울특별시 관악구 봉천로 576,37.47697388,126.961321
2019_73349,서울특별시 송파구 문정로13길 7,37.49388208,127.1358287
2019_73348,서울특별시 관악구 조원로 25,37.48370831,126.9054333
2019_73347,서울특별시 관악구 남부순환로218길 37,37.47964366,126.9504648
2019_73346,서울특별시 강남구 언주로63길 32,37.49419982,127.0435477
2019_73345,서울특별시 동작구 만양로8길 50,37.51030426,126.9468658
2019_73344,서울특별시 서초구 잠원로 37-48,37.51007746,127.00618
2019_73343,서울특별시 영등포구 도림로 187,37.49556574,126.9005922
2019_73342,서울특별시 동작구 보라매로5길 51,37.49094201,126.9232712
2019_73341,서울특별시 성북구 북악산로 813,37.60113925,127.0149455
2019_73340,서울특별시 강북구 도봉로 290,37.63420343,127.0237738
2019_73339,서울특별시 강북구 삼양로27길 95,37.61826461,127.0156834
2019_73338,서울특별시 중랑구 망우로 346,37.59745248,127.0913696
2019_73337,서울특별시 중랑구 동일로169길 41,37.61330741,127.0742462
2019_73336,서울특별시 동대문구 답십리로 130,37.57285496,127.0524012
2019_73335,서울특별시 광진구 영화사로16길 43,37.55383544,127.0973462
2019_73334,서울특별시 성북구 정릉로21길 21,37.60643136,127.0077843
2019_73333,서울특별시 성북구 북악산로 813,37.60113925,127.0149455
2019_73332,서울특별시 동대문구 장한로23길 11-3,37.57091336,127.0701784
2019_73331,서울특별시 동대문구 고미술로 71,37.56609582,127.0550847
2019_73330,서울특별시 중구 퇴계로 447,37.56604198,127.0217218
2019_73329,서울특별시 용산구 백범로90길 12,37.53715978,126.9683808
2019_73328,서울특별시 성북구 성북로4길 52,37.59447253,127.012706
2019_73327,서울특별시 용산구 독서당로 46,37.53238119,127.0072578
2019_73326,서울특별시 종로구 대학로 47,37.57546396,127.0018417
2019_73325,서울특별시 서대문구 신촌역로 10,37.55756328,126.943179
2019_73324,서울특별시 은평구 증산로 463-3,37.59786577,126.9149107
2019_73323,서울특별시 은평구 증산로 315,37.58506957,126.9104672
2019_73322,서울특별시 도봉구 우이천로4라길 11-14,37.63304517,127.0422797
2019_73321,서울특별시 노원구 노원로 62,37.62769787,127.0872999
2019_73320,서울특별시 노원구 동일로183길 12-9,37.62356119,127.072653
2019_73319,서울특별시 은평구 통일로88길 3,37.62427811,126.9205005
2019_73318,서울특별시 노원구 노원로22길 34,37.64636938,127.0727769
2019_73317,서울특별시 도봉구 방학로 193,37.66093246,127.0278928
2019_73316,서울특별시 도봉구 해등로 242-12,37.65866831,127.0307242
2019_73315,서울특별시 은평구 증산로 315,37.58506957,126.9104672
2019_73314,서울특별시 은평구 통일로72길 30-53,37.61736627,126.9264788
2019_73313,서울특별시 서대문구 응암로 133,37.58466671,126.9141921
2019_73312,서울특별시 은평구 서오릉로21길 36,37.61277209,126.9049747
2019_73311,서울특별시 서대문구 응암로 133,37.58466671,126.9141921
2019_73310,서울특별시 강북구 도봉로98길 33,37.64130129,127.0315024
2019_73309,서울특별시 노원구 노해로 508,37.65470356,127.066191
2019_73308,서울특별시 은평구 증산로 315,37.58506957,126.9104672
2019_73307,서울특별시 노원구 화랑로 556,37.62128747,127.0877534
2019_73306,서울특별시 송파구 양산로8길 8,37.49091614,127.144567
2019_73305,서울특별시 강동구 천중로42길 68,37.53815771,127.1384
2019_73304,서울특별시 강동구 천중로42길 68,37.53815771,127.1384
2019_73303,서울특별시 강동구 고덕로97길 20,37.55920849,127.1799976
2019_73302,서울특별시 강동구 강동대로53길 28,37.52396695,127.1321097
2019_73301,서울특별시 송파구 마천로57길 16,37.49468818,127.1533695
2019_73300,서울특별시 강동구 풍성로 127,37.53207383,127.1262281
2019_73299,서울특별시 구로구 공원로 35,37.50016197,126.8905209
2019_73298,서울특별시 금천구 두산로 36,37.47024357,126.891916
2019_73297,서울특별시 구로구 경인로20길 6,37.49540382,126.8433766
2019_73296,서울특별시 영등포구 신풍로 77,37.50041961,126.9115445
2019_73295,서울특별시 양천구 신정로 293,37.51430989,126.8550432
2019_73294,서울특별시 서대문구 통일로26길 17,37.58333021,126.9510259
2019_73293,서울특별시 노원구 동일로179길 12-7,37.62225405,127.0730624
2019_73292,서울특별시 마포구 마포대로 262,37.55657892,126.959278
2019_73291,서울특별시 도봉구 해등로 307,37.65667471,127.022754
2019_73290,서울특별시 은평구 증산로21길 11,37.59570741,126.913495
2019_73289,서울특별시 은평구 증산로 315,37.58506957,126.9104672
2019_73288,서울특별시 노원구 동일로221길 22,37.6599719,127.0573759
2019_73287,서울특별시 은평구 증산로 315,37.58506957,126.9104672
2019_73286,서울특별시 송파구 한가람로 402,37.5338976,127.1114925
2019_73285,서울특별시 성북구 오패산로 46,37.60747384,127.0387095
2019_73284,서울특별시 중랑구 신내로19길 42,37.61410176,127.0910347
2019_73283,서울특별시 중랑구 숙선옹주로 91,37.61726537,127.0855444
2019_73282,서울특별시 성북구 정릉로21길 21,37.60643136,127.0077843
2019_73281,서울특별시 종로구 평창문화로 118,37.60825986,126.9732899
2019_73280,서울특별시 성동구 상원6길 16,37.54852898,127.0502548
2019_73279,서울특별시 성북구 서경로 28,37.60615015,127.0159232
2019_73278,서울특별시 동대문구 황물로15길 25,37.56656253,127.0571883
2019_73277,서울특별시 용산구 독서당로 70,37.53359915,127.0086982
2019_73276,서울특별시 성동구 매봉길 50,37.54729891,127.0121894
2019_73275,서울특별시 중구 다산로 32,37.54715055,127.0057062
2019_73274,서울특별시 강동구 천호대로 1077,37.53725665,127.1314376
2019_73273,서울특별시 송파구 송파대로32길 15,37.49658241,127.1157571
2019_73272,서울특별시 강서구 마곡중앙1로 71,37.55690832,126.8178746
2019_73271,서울특별시 은평구 은평터널로 163,37.59331167,126.9072059
2019_73270,서울특별시 중랑구 동일로 752,37.59700909,127.0820707
2019_73269,서울특별시 강서구 강서로7길 108,37.52915783,126.841747
2019_73268,서울특별시 은평구 응암로 351,37.60239047,126.9222387
2019_73267,서울특별시 송파구 마천로57길 16,37.49468818,127.1533695
2019_73266,서울특별시 노원구 동일로228길 23,37.66986967,127.0587381
2019_73265,서울특별시 은평구 진관1로 21-9,37.63292446,126.919503
2019_73264,서울특별시 성북구 보문사길 111,37.58287311,127.0178911
2019_73263,서울특별시 강북구 솔샘로 174,37.61763836,127.0105997
2019_73262,서울특별시 성동구 용답중앙27길 10,37.56309967,127.0556071
2019_73261,서울특별시 강북구 삼양로27길 19,37.61612381,127.0217414
2019_73260,서울특별시 용산구 독서당로 111,37.53612286,127.0073076
2019_73259,서울특별시 광진구 용마산로1길 84,37.55629349,127.0842813
2019_73258,서울특별시 동대문구 황물로15길 25,37.56656253,127.0571883
2019_73257,서울특별시 성북구 정릉로 402-16,37.60385948,127.0276308
2019_73256,서울특별시 동대문구 회기로 14,37.59100885,127.0379097
2019_73255,서울특별시 용산구 한남대로 60,37.53448266,127.0075178
2019_73254,서울특별시 구로구 개봉로3길 87,37.48589874,126.850971
2019_73253,서울특별시 영등포구 여의대방로59길 12-8,37.51407596,126.9249542
