NO,address,latitude,longitude
2022_00001,서울특별시 구로구 경인로 662,37.50812307,126.888213
2022_00002,서울특별시 강서구 마곡중앙1로 71,37.55690832,126.8178746
2022_00003,서울특별시 영등포구 양평로24길 9,37.54028033,126.8917458
2022_00004,서울특별시 동작구 여의대방로10길 14,37.49632776,126.9139635
2022_00005,서울특별시 중랑구 용마산로 252,37.575176,127.0892225
2022_00006,서울특별시 중랑구 면목로69길 16,37.58725262,127.0863442
2022_00007,서울특별시 노원구 한글비석로 530,37.66693298,127.0591649
2022_00008,서울특별시 성북구 길음로 33,37.60508329,127.0220786
2022_00009,서울특별시 동대문구 정릉천동로 36,37.57547229,127.0371123
2022_00010,서울특별시 동대문구 정릉천동로 36,37.57547229,127.0371123
2022_00011,서울특별시 종로구 대학로 47,37.57546396,127.0018417
2022_00012,서울특별시 동대문구 한천로63길 10,37.6049031,127.0637064
2022_00013,서울특별시 성북구 돌곶이로8길 22,37.60652448,127.0622612
2022_00014,서울특별시 서초구 서운로 197,37.49948267,127.0208201
2022_00015,서울특별시 강남구 삼성로 212,37.49961577,127.0659154
2022_00016,서울특별시 송파구 중대로 24,37.48812575,127.1110591
2022_00017,서울특별시 서초구 서초중앙로 188,37.49735041,127.013538
2022_00018,서울특별시 서초구 서초대로65길 13-10,37.49742848,127.0191506
2022_00019,서울특별시 동작구 상도로 346-1,37.49678998,126.9516675
2022_00020,서울특별시 동작구 양녕로 220,37.50069236,126.9455364
2022_00021,서울특별시 양천구 목동중앙남로9길 25,37.53783529,126.8650617
2022_00022,서울특별시 송파구 올림픽로 435,37.5213593,127.1049717
2022_00023,서울특별시 송파구 양재대로 1218,37.51669099,127.1377124
2022_00024,서울특별시 도봉구 우이천로4라길 11-14,37.63304517,127.0422797
2022_00025,서울특별시 성동구 독서당로 191,37.54459287,127.0119843
2022_00026,서울특별시 은평구 연서로 28,37.60159593,126.9162426
2022_00027,서울특별시 광진구 아차산로 503-23,37.5431621,127.0956083
2022_00028,서울특별시 도봉구 노해로45길 26,37.6509017,127.0268558
2022_00029,서울특별시 성동구 왕십리로 16,37.53925787,127.0446715
2022_00030,서울특별시 중랑구 신내로 128,37.60894053,127.0978091
2022_00031,서울특별시 송파구 양재대로 1218,37.51669099,127.1377124
2022_00032,서울특별시 용산구 이촌로87길 13,37.51899266,126.9776769
2022_00033,서울특별시 마포구 성미산로23길 4,37.56374955,126.9217919
2022_00034,서울특별시 동작구 상도로 346-1,37.49678998,126.9516675
2022_00035,서울특별시 강북구 한천로148길 26,37.64311016,127.0248645
2022_00036,서울특별시 관악구 청룡10길 45,37.47723093,126.9430557
2022_00037,서울특별시 강남구 삼성로 417,37.50459597,127.057495
2022_00038,서울특별시 강동구 고덕로 131,37.55516675,127.1438388
2022_00039,서울특별시 서초구 효령로45길 11,37.4841868,127.0084942
2022_00040,서울특별시 송파구 송파대로 345,37.49761457,127.1025318
2022_00041,서울특별시 성동구 무학로 33,37.56916416,127.0263479
2022_00042,서울특별시 종로구 대학로 47,37.57546396,127.0018417
2022_00043,서울특별시 강남구 삼성로111길 8,37.51473151,127.0517391
2022_00044,서울특별시 강남구 압구정로 201,37.53153417,127.0292731
2022_00045,서울특별시 강남구 삼성로 212,37.49961577,127.0659154
2022_00046,서울특별시 노원구 노원로22길 71,37.64855942,127.0758816
2022_00047,서울특별시 중랑구 면목로69길 16,37.58725262,127.0863442
2022_00048,서울특별시 강동구 고덕로62길 76,37.55084401,127.1515673
2022_00049,서울특별시 강서구 양천로73길 80,37.55415856,126.8743473
2022_00050,서울특별시 마포구 신수로2길 6,37.54202998,126.9344792
2022_00051,서울특별시 서대문구 통일로32길 14,37.58512385,126.9493962
2022_00052,서울특별시 영등포구 경인로 882,37.5175214,126.9107121
2022_00053,서울특별시 도봉구 우이천로4라길 11-14,37.63304517,127.0422797
2022_00054,서울특별시 강서구 공항대로2길 61,37.55870622,126.808901
2022_00055,서울특별시 강남구 언주로103길 16,37.50666001,127.0386458
2022_00056,서울특별시 마포구 상암산로1길 92,37.58275639,126.8820988
2022_00057,서울특별시 동대문구 서울시립대로 14,37.57207425,127.0472735
2022_00058,서울특별시 노원구 덕릉로71길 30,37.6508593,127.0696948
2022_00059,서울특별시 중구 난계로 169,37.56657481,127.0232614
2022_00060,서울특별시 은평구 증산로15길 35-10,37.58951522,126.9077405
2022_00061,서울특별시 용산구 원효로 40,37.53391601,126.9493026
2022_00062,서울특별시 강서구 우장산로8길 23,37.55333939,126.8414232
2022_00063,서울특별시 강서구 양천로75길 22-21,37.55068828,126.8764812
2022_00064,서울특별시 양천구 오목로9길 11,37.52311629,126.8429869
2022_00065,서울특별시 강동구 아리수로50길 50,37.55768646,127.1485777
2022_00066,서울특별시 양천구 목동서로 340,37.51942468,126.8640382
2022_00067,서울특별시 양천구 목동동로 10,37.50775811,126.86131
2022_00068,서울특별시 도봉구 덕릉로 350,37.64462722,127.0470777
2022_00069,서울특별시 강서구 수명로1길 110,37.55185777,126.8247079
2022_00070,서울특별시 은평구 통일로 660,37.60590087,126.9361429
2022_00071,서울특별시 성동구 금호산9가길 52,37.55256534,127.0189486
2022_00072,서울특별시 성동구 고산자로 160,37.55433983,127.0348842
2022_00073,서울특별시 성동구 독서당로 218,37.54262944,127.0155544
2022_00074,서울특별시 성북구 동소문로34길 24,37.59899275,127.0231395
2022_00075,서울특별시 성북구 정릉로 262,37.60368603,127.0121869
2022_00076,서울특별시 송파구 중대로 24,37.48812575,127.1110591
2022_00077,서울특별시 성북구 정릉로 262,37.60368603,127.0121869
2022_00078,서울특별시 강서구 공항대로2길 61,37.55870622,126.808901
2022_00079,서울특별시 용산구 보광로5길 40,37.52406939,127.0012827
2022_00080,서울특별시 성북구 정릉로 262,37.60368603,127.0121869
2022_00081,서울특별시 강서구 강서로 266,37.54826258,126.8409806
2022_00082,서울특별시 금천구 독산로58나길 56,37.4655208,126.9066755
2022_00083,서울특별시 강동구 아리수로93가길 110,37.57378021,127.1731798
2022_00084,서울특별시 송파구 올림픽로45길 26,37.52764501,127.1156221
2022_00085,서울특별시 영등포구 버드나루로 130,37.5305725,126.9080121
2022_00086,서울특별시 강남구 언주로103길 16,37.50666001,127.0386458
2022_00087,서울특별시 송파구 올림픽로 435,37.5213593,127.1049717
2022_00088,서울특별시 강동구 상일로 74,37.55136837,127.1747855
2022_00089,서울특별시 강동구 아리수로93길 40,37.56551714,127.1751066
2022_00090,서울특별시 강남구 삼성로 212,37.49961577,127.0659154
2022_00091,서울특별시 마포구 마포대로11길 50,37.55158802,126.9511914
2022_00092,서울특별시 중랑구 중랑천로 20,37.58648311,127.0758051
2022_00093,서울특별시 서초구 서초중앙로 200,37.50045322,127.0156476
2022_00094,서울특별시 구로구 경인로 248-14,37.49755995,126.8478786
2022_00095,서울특별시 강남구 테헤란로44길 26,37.50120577,127.0457171
2022_00096,서울특별시 종로구 난계로29가길 17,37.5737207,127.0227235
2022_00097,서울특별시 마포구 효창원로95길 35,37.5484887,126.9617667
2022_00098,서울특별시 강동구 상암로51길 54,37.54936336,127.1465279
2022_00099,서울특별시 도봉구 마들로 646,37.66761985,127.0468178
2022_00100,서울특별시 노원구 동일로215길 48,37.65082219,127.0561606
2022_00101,서울특별시 강동구 아리수로93길 40,37.56551714,127.1751066
2022_00102,서울특별시 동작구 사당로 90,37.49233562,126.9624478
2022_00103,서울특별시 중구 칠패로 27,37.5602669,126.9720353
2022_00104,서울특별시 강서구 마곡중앙1로 71,37.55690832,126.8178746
2022_00105,서울특별시 중구 퇴계로 217,37.56242271,126.9959312
2022_00106,서울특별시 은평구 은평터널로2길 21,37.5830187,126.8996663
2022_00107,서울특별시 금천구 디지털로 207,37.47906481,126.8890973
2022_00108,서울특별시 성북구 동소문로46길 18,37.60685831,127.0299382
2022_00109,서울특별시 송파구 송파대로32길 15,37.49658241,127.1157571
2022_00110,서울특별시 강서구 마곡중앙1로 71,37.55690832,126.8178746
2022_00111,서울특별시 노원구 동일로195길 39,37.6268026,127.0697857
2022_00112,서울특별시 송파구 양재대로 1218,37.51669099,127.1377124
2022_00113,서울특별시 중구 왕십리로39길 30,37.56370985,127.0257085
2022_00114,서울특별시 노원구 동일로 1390,37.65271807,127.0615199
2022_00115,서울특별시 강동구 고덕로 427,37.55879729,127.1731822
2022_00116,서울특별시 노원구 노원로34길 34,37.6603301,127.0658717
2022_00117,서울특별시 양천구 목동동로 430,37.53520568,126.8843932
2022_00118,서울특별시 서대문구 연희로32길 48,37.57586005,126.937263
2022_00119,서울특별시 관악구 신림로66길 42,37.48557684,126.9320471
2022_00120,서울특별시 강서구 양천로 507,37.5603957,126.8573626
2022_00121,서울특별시 강북구 오패산로 176,37.61742842,127.0333929
2022_00122,서울특별시 마포구 백범로31길 7,37.54525459,126.9487508
2022_00123,서울특별시 서초구 남부순환로289길 16,,
2022_00124,서울특별시 영등포구 여의대방로35가길 19,37.50373534,126.9174406
2022_00125,서울특별시 강동구 고덕로 333,37.55617709,127.1591765
2022_00126,서울특별시 송파구 올림픽로 435,37.5213593,127.1049717
2022_00127,서울특별시 송파구 올림픽로 99,37.51512525,127.07813
2022_00128,서울특별시 송파구 송파대로 567,37.51313818,127.0930487
2022_00129,서울특별시 송파구 송파대로 345,37.49761457,127.1025318
2022_00130,서울특별시 송파구 송파대로 345,37.49761457,127.1025318
2022_00131,서울특별시 중랑구 면목로 489,37.59550573,127.085324
2022_00132,서울특별시 강남구 봉은사로 474,37.51236724,127.0520266
2022_00133,서울특별시 강남구 도산대로 454,37.52368479,127.0460563
2022_00134,서울특별시 강서구 금낭화로 287-19,37.57680385,126.8102869
2022_00135,서울특별시 강서구 양천로10길 37,37.57107844,126.8091413
2022_00136,서울특별시 광진구 아차산로 262,37.53700164,127.0729628
2022_00137,서울특별시 마포구 마포대로 173-15,37.55119072,126.9521743
2022_00138,서울특별시 강남구 삼성로 212,37.49961577,127.0659154
2022_00139,서울특별시 서초구 반포대로 275,37.50239027,126.9959653
2022_00140,서울특별시 서초구 신반포로 270,37.50786022,127.011582
2022_00141,서울특별시 강서구 공항대로39길 74,37.56121729,126.8446357
2022_00142,서울특별시 강동구 천중로42길 70,37.53795207,127.1382752
2022_00143,서울특별시 동작구 현충로 151,37.50677865,126.9689342
2022_00144,서울특별시 강동구 양재대로 1650,37.55437885,127.1459442
2022_00145,서울특별시 강서구 곰달래로20길 31,37.52892091,126.8429998
2022_00146,서울특별시 관악구 은천로 93,37.48735272,126.9454289
2022_00147,서울특별시 양천구 은행정로7길 39-1,37.52183358,126.855084
2022_00148,서울특별시 성북구 장월로 160,37.61792081,127.0522544
2022_00149,서울특별시 영등포구 선유로25길 5,37.52361047,126.8895151
2022_00150,서울특별시 노원구 공릉로 351,37.63812512,127.06791
2022_00151,서울특별시 강남구 압구정로 201,37.53153417,127.0292731
2022_00152,서울특별시 중구 청계천로 400,37.57081055,127.0214639
2022_00153,서울특별시 노원구 수락산로 174,37.67044183,127.0597306
2022_00154,서울특별시 강동구 천호대로175길 10,37.53510852,127.1369564
2022_00155,서울특별시 마포구 성암로 91,37.57131634,126.9066164
2022_00156,서울특별시 동작구 흑석한강로 12,37.50517984,126.9645125
2022_00157,서울특별시 금천구 시흥대로 291,37.45995605,126.8966992
2022_00158,서울특별시 강서구 우현로 67,37.54754619,126.8372075
2022_00159,서울특별시 성동구 독서당로 441,37.55410505,127.0319539
2022_00160,서울특별시 마포구 도화길 28,37.53960372,126.9496292
2022_00161,서울특별시 서대문구 수색로 100,37.57473348,126.9079161
2022_00162,서울특별시 관악구 관악로30길 27,37.48896635,126.9606433
2022_00163,서울특별시 서초구 반포대로 275,37.50239027,126.9959653
2022_00164,서울특별시 중랑구 상봉로 131,37.59740662,127.0921776
2022_00165,서울특별시 동대문구 사가정로 65,37.57550604,127.0496959
2022_00166,서울특별시 송파구 올림픽로 435,37.5213593,127.1049717
2022_00167,서울특별시 성동구 한림말길 50,37.53993979,127.0168229
2022_00168,서울특별시 노원구 한글비석로5길 62,37.64637161,127.0749598
2022_00169,서울특별시 광진구 용마산로 174,37.56856841,127.0863818
2022_00170,서울특별시 노원구 공릉로46길 32,37.6263561,127.0821837
2022_00171,서울특별시 광진구 광나루로56길 29,37.53695769,127.0965367
2022_00172,서울특별시 도봉구 마들로 684-19,37.67521459,127.048765
2022_00173,서울특별시 성북구 솔샘로 120,37.61662482,127.0097831
2022_00174,서울특별시 양천구 남부순환로83길 18,37.51561814,126.8419047
2022_00175,서울특별시 양천구 목동서로2길 22,37.54162782,126.8826427
2022_00176,서울특별시 강북구 오현로 45,37.61693703,127.0346104
2022_00177,서울특별시 강남구 삼성로 212,37.49961577,127.0659154
2022_00178,서울특별시 서대문구 가재울로 45,37.57566143,126.9208517
2022_00179,서울특별시 서초구 동광로1길 112,37.49699665,126.9847253
2022_00180,서울특별시 송파구 송파대로 345,37.49761457,127.1025318
2022_00181,서울특별시 금천구 가산로 147,37.47837546,126.890453
2022_00182,서울특별시 서대문구 가재울미래로 2,37.57440199,126.9179078
2022_00183,서울특별시 서대문구 증가로 191,37.57849683,126.9173923
2022_00184,서울특별시 은평구 은평로 164,37.60102459,126.9259145
2022_00185,서울특별시 송파구 송파대로 345,37.49761457,127.1025318
2022_00186,서울특별시 마포구 월드컵북로 235,37.56970041,126.9014174
2022_00187,서울특별시 강동구 고덕로 333,37.55617709,127.1591765
2022_00188,서울특별시 서대문구 이화여대8길 62,37.55972348,126.9507324
2022_00189,서울특별시 강동구 천호대로 1089,37.53660488,127.1331156
2022_00190,서울특별시 성북구 길음로9길 50,37.60269651,127.020948
2022_00191,서울특별시 동작구 노량진로 140,37.51275688,126.9417006
2022_00192,서울특별시 동작구 동작대로35사길 2,37.49250008,126.979379
2022_00193,서울특별시 성동구 행당로 82,37.55480888,127.0273997
2022_00194,서울특별시 강동구 상암로 251,37.54859381,127.1506883
2022_00195,서울특별시 송파구 송파대로32길 15,37.49658241,127.1157571
2022_00196,서울특별시 송파구 위례광장로 163,37.4796684,127.1393228
2022_00197,서울특별시 성북구 성북로4길 52,37.59447253,127.012706
2022_00198,서울특별시 송파구 위례광장로 121,37.47686504,127.1382163
2022_00199,서울특별시 중구 청계천로 400,37.57081055,127.0214639
2022_00200,서울특별시 강서구 양천로18길 27,37.57242037,126.8135318
2022_00201,서울특별시 광진구 동일로 174,37.54752699,127.0674139
2022_00202,서울특별시 송파구 잠실로 88,37.50753416,127.0932143
2022_00203,서울특별시 송파구 잠실로 62,37.50801505,127.0902835
2022_00204,서울특별시 광진구 동일로 174,37.54752699,127.0674139
2022_00205,서울특별시 강남구 삼성로 212,37.49961577,127.0659154
2022_00206,서울특별시 송파구 송파대로 345,37.49761457,127.1025318
2022_00207,서울특별시 도봉구 마들로 646,37.66761985,127.0468178
2022_00208,서울특별시 송파구 송파대로 345,37.49761457,127.1025318
2022_00209,서울특별시 송파구 송파대로 345,37.49761457,127.1025318
2022_00210,서울특별시 강남구 언주로 427,37.50147648,127.0426905
2022_00211,서울특별시 광진구 동일로 174,37.54752699,127.0674139
2022_00212,서울특별시 동작구 노량진로23가길 23,37.51330347,126.9517825
2022_00213,서울특별시 광진구 동일로 174,37.54752699,127.0674139
2022_00214,서울특별시 서초구 신반포로 32,,
2022_00215,서울특별시 광진구 동일로 174,37.54752699,127.0674139
2022_00216,서울특별시 광진구 동일로 174,37.54752699,127.0674139
2022_00217,서울특별시 광진구 동일로 174,37.54752699,127.0674139
2022_00218,서울특별시 강서구 강서로 266,37.54826258,126.8409806
2022_00219,서울특별시 서대문구 세검정로1길 35,37.59363936,126.9439082
2022_00220,서울특별시 서초구 효령로 391,37.48932255,127.024591
2022_00221,서울특별시 노원구 동일로193길 7,37.62566341,127.0719953
2022_00222,서울특별시 성북구 종암로 167,37.60505876,127.0309904
2022_00223,서울특별시 도봉구 덕릉로60바길 21,37.63901231,127.0409746
2022_00224,서울특별시 동대문구 한천로63길 10,37.6049031,127.0637064
2022_00225,서울특별시 광진구 동일로 174,37.54752699,127.0674139
2022_00226,서울특별시 노원구 마들로 31,37.61872537,127.0670846
2022_00227,서울특별시 노원구 마들로 31,37.61872537,127.0670846
2022_00228,서울특별시 광진구 동일로 174,37.54752699,127.0674139
2022_00229,서울특별시 광진구 동일로 174,37.54752699,127.0674139
2022_00230,서울특별시 광진구 동일로 174,37.54752699,127.0674139
2022_00231,서울특별시 중구 다산로36길 109,37.56050413,127.0229704
2022_00232,서울특별시 은평구 통일로 796,37.6163432,126.9257576
2022_00233,서울특별시 성북구 길음로13길 39,37.61004419,127.0162235
2022_00234,서울특별시 광진구 능동로19길 35,37.54706801,127.0718499
2022_00235,서울특별시 동대문구 정릉천동로 36,37.57547229,127.0371123
2022_00236,서울특별시 광진구 동일로 174,37.54752699,127.0674139
2022_00237,서울특별시 광진구 동일로 174,37.54752699,127.0674139
2022_00238,서울특별시 광진구 동일로 174,37.54752699,127.0674139
2022_00239,서울특별시 강남구 개포로109길 9,37.49575182,127.0751013
2022_00240,서울특별시 강남구 개포로109길 9,37.49575182,127.0751013
2022_00241,서울특별시 동대문구 답십리로56길 105,37.56777026,127.0584014
2022_00242,서울특별시 동대문구 답십리로 141,37.57334306,127.0552818
2022_00243,서울특별시 노원구 수락산로 12,37.66438374,127.074879
2022_00244,서울특별시 송파구 송파대로32길 8,37.49685709,127.1177114
2022_00245,서울특별시 광진구 동일로 174,37.54752699,127.0674139
2022_00246,서울특별시 광진구 동일로 174,37.54752699,127.0674139
2022_00247,서울특별시 광진구 동일로 174,37.54752699,127.0674139
2022_00248,서울특별시 광진구 동일로 174,37.54752699,127.0674139
2022_00249,서울특별시 광진구 동일로 174,37.54752699,127.0674139
2022_00250,서울특별시 광진구 동일로 174,37.54752699,127.0674139
2022_00251,서울특별시 광진구 동일로 174,37.54752699,127.0674139
2022_00252,서울특별시 광진구 동일로 174,37.54752699,127.0674139
2022_00253,서울특별시 광진구 동일로 174,37.54752699,127.0674139
2022_00254,서울특별시 광진구 동일로 174,37.54752699,127.0674139
2022_00255,서울특별시 광진구 동일로 174,37.54752699,127.0674139
2022_00256,서울특별시 광진구 동일로 174,37.54752699,127.0674139
2022_00257,서울특별시 광진구 동일로 174,37.54752699,127.0674139
2022_00258,서울특별시 광진구 동일로 174,37.54752699,127.0674139
2022_00259,서울특별시 광진구 동일로 174,37.54752699,127.0674139
2022_00260,서울특별시 광진구 동일로 174,37.54752699,127.0674139
2022_00261,서울특별시 광진구 동일로 174,37.54752699,127.0674139
2022_00262,서울특별시 광진구 동일로 174,37.54752699,127.0674139
2022_00263,서울특별시 광진구 동일로 174,37.54752699,127.0674139
2022_00264,서울특별시 광진구 동일로 174,37.54752699,127.0674139
2022_00265,서울특별시 광진구 동일로 174,37.54752699,127.0674139
2022_00266,서울특별시 광진구 동일로 174,37.54752699,127.0674139
2022_00267,서울특별시 광진구 동일로 174,37.54752699,127.0674139
2022_00268,서울특별시 광진구 동일로 174,37.54752699,127.0674139
2022_00269,서울특별시 광진구 동일로 174,37.54752699,127.0674139
2022_00270,서울특별시 광진구 동일로 174,37.54752699,127.0674139
2022_00271,서울특별시 광진구 동일로 174,37.54752699,127.0674139
2022_00272,서울특별시 광진구 동일로 174,37.54752699,127.0674139
2022_00273,서울특별시 광진구 동일로 174,37.54752699,127.0674139
2022_00274,서울특별시 송파구 올림픽로 435,37.5213593,127.1049717
2022_00275,서울특별시 금천구 벚꽃로 40,37.46005964,126.8930206
2022_00276,서울특별시 광진구 동일로 174,37.54752699,127.0674139
2022_00277,서울특별시 강서구 양천로18길 27,37.57242037,126.8135318
2022_00278,서울특별시 금천구 시흥대로22길 52,37.44082801,126.9072713
2022_00279,서울특별시 강서구 양천로23길 8,37.57414888,126.8159156
2022_00280,서울특별시 성동구 고산자로2길 65,37.55619853,127.0388365
2022_00281,서울특별시 강남구 삼성로 212,37.49961577,127.0659154
2022_00282,서울특별시 구로구 구로중앙로28다길 16,37.50127439,126.8890219
2022_00283,서울특별시 영등포구 영신로 237,37.5287757,126.9028077
2022_00284,서울특별시 관악구 관천로 38,37.4833434,126.9274775
2022_00285,서울특별시 성동구 금호로 173,37.55627884,127.0181523
2022_00286,서울특별시 영등포구 양평로17길 9,37.53567059,126.8962148
2022_00287,서울특별시 노원구 노해로85길 10-55,37.65643619,127.0661237
2022_00288,서울특별시 용산구 한강대로 205,37.53668353,126.9728087
2022_00289,서울특별시 양천구 지양로 101,37.52349568,126.831465
2022_00290,서울특별시 노원구 동일로227길 25,37.66689676,127.0560392
2022_00291,서울특별시 구로구 개봉로15길 91,37.48964491,126.8510807
2022_00292,서울특별시 송파구 송파대로 345,37.49761457,127.1025318
2022_00293,서울특별시 동대문구 장안벚꽃로 107,37.57105683,127.0751137
2022_00294,서울특별시 노원구 동일로215길 23,37.6504273,127.059109
2022_00295,서울특별시 은평구 연서로2길 8-4,37.60054476,126.9171631
2022_00296,서울특별시 성북구 길음로 119,37.61049908,127.0163726
2022_00297,서울특별시 강남구 삼성로 11,37.48444021,127.0679602
2022_00298,서울특별시 중랑구 동일로 476,37.57368905,127.0803696
2022_00299,서울특별시 광진구 광나루로20길 17,37.54618158,127.0746642
2022_00300,서울특별시 강남구 삼성로133길 20,37.51945424,127.0478328
2022_00301,서울특별시 서대문구 통일로39길 25,37.58760688,126.9433911
2022_00302,서울특별시 양천구 목동동로 100,37.51498201,126.8651323
2022_00303,서울특별시 송파구 잠실로 62,37.50801505,127.0902835
2022_00304,서울특별시 강동구 고덕로 333,37.55617709,127.1591765
2022_00305,서울특별시 중랑구 면목로 487,37.59538382,127.0854532
2022_00306,서울특별시 노원구 동일로191가길 59,37.62766279,127.0696059
2022_00307,서울특별시 영등포구 영등포로 390,37.5132492,126.9213645
2022_00308,서울특별시 동대문구 장안벚꽃로 107,37.57105683,127.0751137
2022_00309,서울특별시 광진구 아차산로 262,37.53700164,127.0729628
2022_00310,서울특별시 강동구 고덕로 333,37.55617709,127.1591765
2022_00311,서울특별시 종로구 숭인동길 21,37.57578476,127.0209594
2022_00312,서울특별시 강서구 강서로 266,37.54826258,126.8409806
2022_00313,서울특별시 강서구 우현로 67,37.54754619,126.8372075
2022_00314,서울특별시 강북구 한천로148길 12-13,37.64217922,127.0254937
2022_00315,서울특별시 성동구 왕십리로 410,37.56660293,127.0240825
2022_00316,서울특별시 양천구 목동동로 100,37.51498201,126.8651323
2022_00317,서울특별시 양천구 목동동로 130,37.514999,126.8712369
2022_00318,서울특별시 강북구 한천로148길 12-13,37.64217922,127.0254937
2022_00319,서울특별시 강북구 한천로148길 12-13,37.64217922,127.0254937
2022_00320,서울특별시 강북구 한천로148길 12-13,37.64217922,127.0254937
2022_00321,서울특별시 강북구 한천로148길 12-13,37.64217922,127.0254937
2022_00322,서울특별시 강북구 한천로148길 12-13,37.64217922,127.0254937
2022_00323,서울특별시 강북구 한천로148길 12-13,37.64217922,127.0254937
2022_00324,서울특별시 강북구 한천로148길 12-13,37.64217922,127.0254937
2022_00325,서울특별시 강북구 한천로148길 12-13,37.64217922,127.0254937
2022_00326,서울특별시 강북구 한천로148길 12-13,37.64217922,127.0254937
2022_00327,서울특별시 강북구 한천로148길 12-13,37.64217922,127.0254937
2022_00328,서울특별시 강북구 한천로148길 12-13,37.64217922,127.0254937
2022_00329,서울특별시 강북구 한천로148길 12-13,37.64217922,127.0254937
2022_00330,서울특별시 강북구 한천로148길 12-13,37.64217922,127.0254937
2022_00331,서울특별시 강북구 한천로148길 12-13,37.64217922,127.0254937
2022_00332,서울특별시 강북구 한천로148길 12-13,37.64217922,127.0254937
2022_00333,서울특별시 강북구 한천로148길 12-13,37.64217922,127.0254937
2022_00334,서울특별시 강동구 고덕로 131,37.55516675,127.1438388
2022_00335,서울특별시 강북구 한천로148길 12-13,37.64217922,127.0254937
2022_00336,서울특별시 서초구 남부순환로317길 18-16,37.48030784,127.0110692
2022_00337,서울특별시 강북구 한천로148길 12-13,37.64217922,127.0254937
2022_00338,서울특별시 강북구 한천로148길 12-13,37.64217922,127.0254937
2022_00339,서울특별시 강북구 한천로148길 12-13,37.64217922,127.0254937
2022_00340,서울특별시 강북구 한천로148길 12-13,37.64217922,127.0254937
2022_00341,서울특별시 강북구 한천로148길 12-13,37.64217922,127.0254937
2022_00342,서울특별시 강북구 한천로148길 12-13,37.64217922,127.0254937
2022_00343,서울특별시 강북구 한천로148길 12-13,37.64217922,127.0254937
2022_00344,서울특별시 강북구 한천로148길 12-13,37.64217922,127.0254937
2022_00345,서울특별시 강북구 한천로148길 12-13,37.64217922,127.0254937
2022_00346,서울특별시 강북구 한천로148길 12-13,37.64217922,127.0254937
2022_00347,서울특별시 강북구 한천로148길 12-13,37.64217922,127.0254937
2022_00348,서울특별시 강북구 한천로148길 12-13,37.64217922,127.0254937
2022_00349,서울특별시 강북구 한천로148길 12-13,37.64217922,127.0254937
2022_00350,서울특별시 강북구 한천로148길 12-13,37.64217922,127.0254937
2022_00351,서울특별시 강북구 한천로148길 12-13,37.64217922,127.0254937
2022_00352,서울특별시 강북구 한천로148길 12-13,37.64217922,127.0254937
2022_00353,서울특별시 강북구 한천로148길 12-13,37.64217922,127.0254937
2022_00354,서울특별시 강북구 한천로148길 12-13,37.64217922,127.0254937
2022_00355,서울특별시 강북구 한천로148길 12-13,37.64217922,127.0254937
2022_00356,서울특별시 강북구 한천로148길 12-13,37.64217922,127.0254937
2022_00357,서울특별시 강북구 한천로148길 12-13,37.64217922,127.0254937
2022_00358,서울특별시 강북구 한천로148길 12-13,37.64217922,127.0254937
2022_00359,서울특별시 강북구 한천로148길 12-13,37.64217922,127.0254937
2022_00360,서울특별시 강북구 한천로148길 12-13,37.64217922,127.0254937
2022_00361,서울특별시 강북구 한천로148길 12-13,37.64217922,127.0254937
2022_00362,서울특별시 강북구 한천로148길 12-13,37.64217922,127.0254937
2022_00363,서울특별시 강북구 한천로148길 12-13,37.64217922,127.0254937
2022_00364,서울특별시 강북구 한천로148길 12-13,37.64217922,127.0254937
2022_00365,서울특별시 강북구 한천로148길 12-13,37.64217922,127.0254937
2022_00366,서울특별시 강북구 한천로148길 12-13,37.64217922,127.0254937
2022_00367,서울특별시 강북구 한천로148길 12-13,37.64217922,127.0254937
2022_00368,서울특별시 강북구 한천로148길 12-13,37.64217922,127.0254937
2022_00369,서울특별시 강북구 한천로148길 12-13,37.64217922,127.0254937
2022_00370,서울특별시 강북구 한천로148길 12-13,37.64217922,127.0254937
2022_00371,서울특별시 강북구 한천로148길 12-13,37.64217922,127.0254937
2022_00372,서울특별시 강북구 한천로148길 12-13,37.64217922,127.0254937
2022_00373,서울특별시 강북구 한천로148길 12-13,37.64217922,127.0254937
2022_00374,서울특별시 강북구 한천로148길 12-13,37.64217922,127.0254937
2022_00375,서울특별시 강북구 한천로148길 12-13,37.64217922,127.0254937
2022_00376,서울특별시 강북구 한천로148길 12-13,37.64217922,127.0254937
2022_00377,서울특별시 강북구 한천로148길 12-13,37.64217922,127.0254937
2022_00378,서울특별시 강북구 한천로148길 12-13,37.64217922,127.0254937
2022_00379,서울특별시 강북구 한천로148길 12-13,37.64217922,127.0254937
2022_00380,서울특별시 강북구 한천로148길 12-13,37.64217922,127.0254937
2022_00381,서울특별시 강북구 한천로148길 12-13,37.64217922,127.0254937
2022_00382,서울특별시 강북구 한천로148길 12-13,37.64217922,127.0254937
2022_00383,서울특별시 강북구 한천로148길 12-13,37.64217922,127.0254937
2022_00384,서울특별시 강북구 한천로148길 12-13,37.64217922,127.0254937
2022_00385,서울특별시 강북구 한천로148길 12-13,37.64217922,127.0254937
2022_00386,서울특별시 강북구 한천로148길 12-13,37.64217922,127.0254937
2022_00387,서울특별시 강북구 한천로148길 12-13,37.64217922,127.0254937
2022_00388,서울특별시 강북구 한천로148길 12-13,37.64217922,127.0254937
2022_00389,서울특별시 강북구 한천로148길 12-13,37.64217922,127.0254937
2022_00390,서울특별시 강북구 한천로148길 12-13,37.64217922,127.0254937
2022_00391,서울특별시 은평구 은평터널로 178,37.59451169,126.9084631
2022_00392,서울특별시 송파구 송파대로 567,37.51313818,127.0930487
2022_00393,서울특별시 서대문구 독립문공원길 17,37.57238119,126.9551984
2022_00394,서울특별시 강동구 고덕로 333,37.55617709,127.1591765
2022_00395,서울특별시 강동구 고덕로 333,37.55617709,127.1591765
2022_00396,서울특별시 송파구 올림픽로 435,37.5213593,127.1049717
2022_00397,서울특별시 동대문구 망우로12길 61,37.58713907,127.0573823
2022_00398,서울특별시 강동구 양재대로 1650,37.55437885,127.1459442
2022_00399,서울특별시 송파구 오금로 551,37.49318241,127.1503678
2022_00400,서울특별시 서대문구 거북골로 84,37.57822963,126.9184813
2022_00401,서울특별시 송파구 송파대로 345,37.49761457,127.1025318
2022_00402,서울특별시 영등포구 양평로24길 9,37.54028033,126.8917458
2022_00403,서울특별시 성북구 정릉로 262,37.60368603,127.0121869
2022_00404,서울특별시 영등포구 가마산로 468,37.50563105,126.9083858
2022_00405,서울특별시 강동구 고덕로 333,37.55617709,127.1591765
2022_00406,서울특별시 중구 청계천로 400,37.57081055,127.0214639
2022_00407,서울특별시 강남구 언주로 427,37.50147648,127.0426905
2022_00408,서울특별시 영등포구 도림로 187,37.49556574,126.9005922
2022_00409,서울특별시 성동구 고산자로2길 65,37.55619853,127.0388365
2022_00410,서울특별시 송파구 송파대로32길 15,37.49658241,127.1157571
2022_00411,서울특별시 동대문구 장안벚꽃로 167,37.5750721,127.0742821
2022_00412,서울특별시 노원구 섬밭로 265,37.63828783,127.0627161
2022_00413,서울특별시 영등포구 63로 7,37.51897627,126.9347086
2022_00414,서울특별시 강서구 강서로7길 107,37.52884106,126.8417698
2022_00415,서울특별시 강동구 천중로42길 70,37.53795207,127.1382752
2022_00416,서울특별시 강동구 고덕로80길 134,37.55171846,127.164857
2022_00417,서울특별시 강서구 강서로7길 70,37.5294116,126.8438159
2022_00418,서울특별시 마포구 도화길 28,37.53960372,126.9496292
2022_00419,서울특별시 영등포구 경인로114가길 14,37.51724645,126.9135461
2022_00420,서울특별시 은평구 증산로15길 67-7,37.59019404,126.9056969
2022_00421,서울특별시 송파구 중대로 24,37.48812575,127.1110591
2022_00422,서울특별시 동대문구 장한로14길 81,37.56681812,127.0721804
2022_00423,서울특별시 영등포구 시흥대로 589-8,37.48599451,126.9022031
2022_00424,서울특별시 강남구 압구정로 113,37.5244043,127.0184456
2022_00425,서울특별시 송파구 중대로 121,37.49435206,127.1214124
2022_00426,서울특별시 종로구 옥인3길 7,37.58069585,126.9663493
2022_00427,서울특별시 관악구 봉천로 387,37.48376028,126.9427012
2022_00428,서울특별시 송파구 양재대로 1109,37.50817175,127.1250575
2022_00429,서울특별시 양천구 목동동로 190,37.52250985,126.8713167
2022_00430,서울특별시 구로구 구로동로18길 61-5,37.48739501,126.8878674
2022_00431,서울특별시 구로구 가마산로 271,37.4963996,126.890291
2022_00432,서울특별시 양천구 신정로 170,37.50864654,126.8423769
2022_00433,서울특별시 도봉구 도당로 32,37.66086175,127.0352315
2022_00434,서울특별시 노원구 화랑로 443,37.61828027,127.0765852
2022_00435,서울특별시 도봉구 덕릉로63가길 43,37.64292288,127.0387776
2022_00436,서울특별시 강동구 천중로49가길 56,37.54118369,127.1459866
2022_00437,서울특별시 노원구 노해로 508,37.65470356,127.066191
2022_00438,서울특별시 노원구 노해로 508,37.65470356,127.066191
2022_00439,서울특별시 강서구 개화동로27가길 33,37.56272098,126.8075227
2022_00440,서울특별시 동작구 서달로 123,37.50421186,126.9596731
2022_00441,서울특별시 송파구 동남로 193,37.49469823,127.1292231
2022_00442,서울특별시 성북구 화랑로48길 16,37.61376289,127.0689946
2022_00443,서울특별시 성북구 정릉로 262,37.60368603,127.0121869
2022_00444,서울특별시 강서구 양천로30길 123-9,37.56875643,126.823405
2022_00445,서울특별시 노원구 화랑로 443,37.61828027,127.0765852
2022_00446,서울특별시 강동구 고덕로 360,37.55668291,127.1695273
2022_00447,서울특별시 강남구 도곡로6길 18,37.4890736,127.0343575
2022_00448,서울특별시 강남구 개포로 516,37.48914068,127.0708715
2022_00449,서울특별시 은평구 응암로 295,37.59813233,126.9202659
2022_00450,서울특별시 도봉구 노해로70길 19,37.65079022,127.0528256
2022_00451,서울특별시 강남구 테헤란로48길 10,37.50265245,127.0458729
2022_00452,서울특별시 강서구 강서로45길 18,37.54828272,126.8351687
2022_00453,서울특별시 구로구 신도림로 16,37.50512282,126.882191
2022_00454,서울특별시 송파구 송파대로 567,37.51313818,127.0930487
2022_00455,서울특별시 구로구 항동로 8,37.47744551,126.8210054
2022_00456,서울특별시 강남구 남부순환로373길 3,37.48634897,127.0435784
2022_00457,서울특별시 성북구 한천로 713,37.62129906,127.0518475
2022_00458,서울특별시 광진구 광나루로56길 29,37.53695769,127.0965367
2022_00459,서울특별시 노원구 노원로22길 34,37.64636938,127.0727769
2022_00460,서울특별시 성북구 장월로 160,37.61792081,127.0522544
2022_00461,서울특별시 성북구 숭인로 50,37.61198667,127.028784
2022_00462,서울특별시 종로구 대학로 33,37.57404525,127.0018679
2022_00463,서울특별시 성동구 고산자로 177,37.55573045,127.0335776
2022_00464,서울특별시 서초구 잠원로 37-48,37.51007746,127.00618
2022_00465,서울특별시 동작구 만양로8길 50,37.51030426,126.9468658
2022_00466,서울특별시 강북구 솔샘로 159,37.62182327,127.0124075
2022_00467,서울특별시 마포구 홍익로 10,37.55376198,126.9236938
2022_00468,서울특별시 양천구 목동동로 430,37.53520568,126.8843932
2022_00469,서울특별시 영등포구 버드나루로17길 2,37.52761184,126.9080488
2022_00470,서울특별시 은평구 불광로1길 6,37.61022483,126.927742
2022_00471,서울특별시 영등포구 선유로33길 22,37.52720953,126.8883743
2022_00472,서울특별시 동대문구 정릉천동로 16,37.57346786,127.0353065
2022_00473,서울특별시 관악구 성현로 80,37.48984744,126.9529855
2022_00474,서울특별시 강북구 솔샘로 174,37.61763836,127.0105997
2022_00475,서울특별시 서대문구 통일로 510,37.59457019,126.9411674
2022_00476,서울특별시 영등포구 국회대로50길 20,37.5238208,126.9056687
2022_00477,서울특별시 은평구 통일로 660,37.60590087,126.9361429
2022_00478,서울특별시 성북구 장월로1길 28,37.60877249,127.045612
2022_00479,서울특별시 구로구 도림로 59,37.4898994,126.8889619
2022_00480,서울특별시 성북구 오패산로16가길 40,37.60990552,127.0386975
2022_00481,서울특별시 구로구 도림로 59,37.4898994,126.8889619
2022_00482,서울특별시 송파구 오금로 306,37.50287434,127.1261141
2022_00483,서울특별시 서대문구 세검정로3길 63,37.59374513,126.9468287
2022_00484,서울특별시 마포구 마포대로 195,37.55243392,126.9542238
2022_00485,서울특별시 강동구 고덕로80길 99,37.55079267,127.1664048
2022_00486,서울특별시 강동구 고덕로 360,37.55668291,127.1695273
2022_00487,서울특별시 영등포구 가마산로 468,37.50563105,126.9083858
2022_00488,서울특별시 노원구 동일로227길 86,37.67041003,127.05273
2022_00489,서울특별시 강남구 개포로109길 21,37.49562649,127.077191
2022_00490,서울특별시 동작구 여의대방로54길 39,37.51270395,126.9289548
2022_00491,서울특별시 양천구 목동동로 10,37.50775811,126.86131
2022_00492,서울특별시 마포구 백범로 205,37.5441056,126.9541301
2022_00493,서울특별시 성북구 월곡로14길 26,37.60023402,127.0426519
2022_00494,서울특별시 양천구 목동동로 190,37.52250985,126.8713167
2022_00495,서울특별시 강남구 삼성로 212,37.49961577,127.0659154
2022_00496,서울특별시 노원구 화랑로 421,37.61749956,127.0743294
2022_00497,서울특별시 강동구 고덕로 399,37.55744052,127.1696789
2022_00498,서울특별시 마포구 마포대로 183-16,37.55112212,126.9543634
2022_00499,서울특별시 노원구 섬밭로 139,37.63028158,127.0657021
2022_00500,서울특별시 서초구 강남대로 375,37.4963477,127.027853
2022_00501,서울특별시 양천구 화곡로3길 34,37.54219059,126.8280077
2022_00502,서울특별시 송파구 동남로 193,37.49469823,127.1292231
2022_00503,서울특별시 광진구 아차산로76길 31,37.54743466,127.1087986
2022_00504,서울특별시 동대문구 전농로 16,37.56627264,127.0563302
2022_00505,서울특별시 성북구 서경로 28,37.60615015,127.0159232
2022_00506,서울특별시 성동구 독서당로 441,37.55410505,127.0319539
2022_00507,서울특별시 송파구 백제고분로18길 30,37.50269143,127.0821835
2022_00508,서울특별시 송파구 동남로 193,37.49469823,127.1292231
2022_00509,서울특별시 동대문구 사가정로 245-3,37.57985517,127.0723098
2022_00510,서울특별시 양천구 목동중앙북로 68,37.5465746,126.8706841
2022_00511,서울특별시 광진구 자양로 109,37.5374067,127.0830999
2022_00512,서울특별시 금천구 시흥대로 291,37.45995605,126.8966992
2022_00513,서울특별시 강서구 강서로 43-6,37.53156083,126.8462054
2022_00514,서울특별시 노원구 동일로227길 86,37.67041003,127.05273
2022_00515,서울특별시 중랑구 동일로92길 40,37.58189295,127.0803759
2022_00516,서울특별시 강동구 천중로42길 70,37.53795207,127.1382752
2022_00517,서울특별시 강동구 천중로42길 70,37.53795207,127.1382752
2022_00518,서울특별시 동작구 사당로 158,37.48738002,126.9667674
2022_00519,서울특별시 강남구 언주로30길 13,37.48812761,127.0506867
2022_00520,서울특별시 송파구 올림픽로 435,37.5213593,127.1049717
2022_00521,서울특별시 송파구 백제고분로32길 6-24,37.50229906,127.0937762
2022_00522,서울특별시 금천구 금하로 793,37.45221259,126.9182453
2022_00523,서울특별시 금천구 시흥대로 291,37.45995605,126.8966992
2022_00524,서울특별시 노원구 동일로 1456,37.66067691,127.0614956
2022_00525,서울특별시 금천구 시흥대로 291,37.45995605,126.8966992
2022_00526,서울특별시 강북구 솔샘로 174,37.61763836,127.0105997
2022_00527,서울특별시 영등포구 국회대로53길 30,37.52821102,126.9066894
2022_00528,서울특별시 관악구 성현로 80,37.48984744,126.9529855
2022_00529,서울특별시 금천구 디지털로12길 37,37.47724512,126.8903306
2022_00530,서울특별시 서대문구 세검정로1길 95,37.59591997,126.9456918
2022_00531,서울특별시 노원구 마들로 111,37.62383436,127.0647781
2022_00532,서울특별시 은평구 서오릉로 258,37.61767853,126.9068072
2022_00533,서울특별시 종로구 통일로 246-20,37.5769322,126.9618517
2022_00534,서울특별시 구로구 구로중앙로18길 23,37.49535736,126.8904305
2022_00535,서울특별시 양천구 목동중앙북로16길 71,37.54279785,126.8741576
2022_00536,서울특별시 성북구 종암로24가길 53,37.60084117,127.0379642
2022_00537,서울특별시 용산구 우사단로10길 39-96,37.53415105,126.9980907
2022_00538,서울특별시 성동구 행당로 79,37.55820535,127.027507
2022_00539,서울특별시 노원구 한글비석로8길 42,37.64702362,127.0799492
2022_00540,서울특별시 송파구 송파대로 567,37.51313818,127.0930487
2022_00541,서울특별시 강서구 방화동로 126,37.57197863,126.8118953
2022_00542,서울특별시 송파구 송파대로 567,37.51313818,127.0930487
2022_00543,서울특별시 동대문구 한천로58길 107,37.6012567,127.0697682
2022_00544,서울특별시 영등포구 가마산로 468,37.50563105,126.9083858
2022_00545,서울특별시 서대문구 연희로5길 54-11,37.56583973,126.9264991
2022_00546,서울특별시 노원구 노해로 508,37.65470356,127.066191
2022_00547,서울특별시 송파구 잠실로 62,37.50801505,127.0902835
2022_00548,서울특별시 동대문구 천호대로55길 11,37.57153553,127.046159
2022_00549,서울특별시 마포구 마포대로11길 50,37.55158802,126.9511914
2022_00550,서울특별시 성동구 난계로 84,37.55913142,127.0240799
2022_00551,서울특별시 송파구 올림픽로 135,37.51673328,127.0898891
2022_00552,서울특별시 성북구 장월로 160,37.61792081,127.0522544
2022_00553,서울특별시 강북구 솔샘로 174,37.61763836,127.0105997
2022_00554,서울특별시 도봉구 마들로 859-19,37.68604183,127.0467647
2022_00555,서울특별시 강서구 수명로1길 16,37.55204782,126.8225609
2022_00556,서울특별시 송파구 올림픽로 135,37.51673328,127.0898891
2022_00557,서울특별시 중구 만리재로 175,37.55479085,126.9644544
2022_00558,서울특별시 은평구 응암로30길 15,37.59597757,126.9216903
2022_00559,서울특별시 송파구 송파대로 345,37.49761457,127.1025318
2022_00560,서울특별시 서대문구 통일로 395,37.58461475,126.9444913
2022_00561,서울특별시 강서구 화곡로68길 33,37.5592643,126.8557917
2022_00562,서울특별시 송파구 올림픽로 135,37.51673328,127.0898891
2022_00563,서울특별시 서대문구 북아현로 29,37.56020672,126.956061
2022_00564,서울특별시 서초구 서초중앙로2길 21,37.48390599,127.0185158
2022_00565,서울특별시 성북구 북악산로29길 67,37.59503244,127.0336436
2022_00566,서울특별시 양천구 목동동로 401,37.53637527,126.8811263
2022_00567,서울특별시 구로구 도림로 59,37.4898994,126.8889619
2022_00568,서울특별시 성동구 무학로 33,37.56916416,127.0263479
2022_00569,서울특별시 용산구 이촌로 174,37.52111314,126.9668044
2022_00570,서울특별시 서대문구 가재울미래로 2,37.57440199,126.9179078
2022_00571,서울특별시 구로구 중앙로12길 7,37.50604755,126.8613085
2022_00572,서울특별시 강서구 방화대로 319,37.56915814,126.8162862
2022_00573,서울특별시 강동구 아리수로50길 50,37.55768646,127.1485777
2022_00574,서울특별시 송파구 올림픽로 435,37.5213593,127.1049717
2022_00575,서울특별시 서초구 신반포로 9,,
2022_00576,서울특별시 영등포구 경인로114가길 14,37.51724645,126.9135461
2022_00577,서울특별시 도봉구 해등로 113,37.65359643,127.0391795
2022_00578,서울특별시 성동구 독서당로 242,37.54501005,127.0175883
2022_00579,서울특별시 영등포구 국회대로54길 65,37.5203931,126.9112306
2022_00580,서울특별시 영등포구 국회대로50길 20,37.5238208,126.9056687
2022_00581,서울특별시 성동구 금호로 17,37.54688262,127.0240727
2022_00582,서울특별시 노원구 섬밭로 196,37.63399762,127.0672779
2022_00583,서울특별시 용산구 한강대로 95,37.52881739,126.9666538
2022_00584,서울특별시 노원구 동일로227길 86,37.67041003,127.05273
2022_00585,서울특별시 영등포구 당산로54길 11,37.53485259,126.9051267
2022_00586,서울특별시 강서구 마곡중앙3로 74,37.56469676,126.8184329
2022_00587,서울특별시 영등포구 가마산로 468,37.50563105,126.9083858
2022_00588,서울특별시 성북구 정릉로 262,37.60368603,127.0121869
2022_00589,서울특별시 성북구 정릉로 262,37.60368603,127.0121869
2022_00590,서울특별시 송파구 동남로17길 15,37.4963769,127.1307733
2022_00591,서울특별시 송파구 송파대로 345,37.49761457,127.1025318
2022_00592,서울특별시 송파구 송파대로 345,37.49761457,127.1025318
2022_00593,서울특별시 강남구 삼성로 629,37.51578641,127.0513192
2022_00594,서울특별시 송파구 위례광장로 170,37.47989602,127.1423248
2022_00595,서울특별시 송파구 위례광장로 121,37.47686504,127.1382163
2022_00596,서울특별시 광진구 용마산로 174,37.56856841,127.0863818
2022_00597,서울특별시 서초구 남부순환로289길 16,,
2022_00598,서울특별시 동작구 사당로26길 130-6,37.47802934,126.9778556
2022_00599,서울특별시 강서구 공항대로59길 64,37.55462322,126.8641847
2022_00600,서울특별시 성북구 정릉로 262,37.60368603,127.0121869
2022_00601,서울특별시 송파구 동남로 193,37.49469823,127.1292231
2022_00602,서울특별시 송파구 송파대로 345,37.49761457,127.1025318
2022_00603,서울특별시 성북구 솔샘로25길 28,37.61857737,127.0069619
2022_00604,서울특별시 성북구 보국문로30길 34,37.61799302,127.0045896
2022_00605,서울특별시 구로구 경인로 343,37.4983033,126.8574325
2022_00606,서울특별시 은평구 불광로 90,37.61506867,126.9330007
2022_00607,서울특별시 마포구 백범로 10,37.55355555,126.9367996
2022_00608,서울특별시 영등포구 가마산로 575,37.50484135,126.9195738
2022_00609,서울특별시 노원구 공릉로46길 19,37.6279055,127.0801308
2022_00610,서울특별시 서초구 방배중앙로 158,37.4932095,126.986644
2022_00611,서울특별시 도봉구 덕릉로60바길 21,37.63901231,127.0409746
2022_00612,서울특별시 구로구 구로동로28길 42,37.49067477,126.8868376
2022_00613,서울특별시 구로구 도림로 59,37.4898994,126.8889619
2022_00614,서울특별시 양천구 목동동로 130,37.514999,126.8712369
2022_00615,서울특별시 노원구 광운로2나길 30,37.61615154,127.0607264
2022_00616,서울특별시 강남구 광평로19길 15,37.48553054,127.0847979
2022_00617,서울특별시 강서구 마곡중앙1로 71,37.55690832,126.8178746
2022_00618,서울특별시 강동구 양재대로 1650,37.55437885,127.1459442
2022_00619,서울특별시 양천구 남부순환로83길 48,37.51729907,126.8453916
2022_00620,서울특별시 양천구 지양로 101,37.52349568,126.831465
2022_00621,서울특별시 동작구 여의대방로54길 39,37.51270395,126.9289548
2022_00622,서울특별시 은평구 은평로 240,37.60042147,126.9349481
2022_00623,서울특별시 강서구 초록마을로 121,37.53744785,126.8506789
2022_00624,서울특별시 강서구 수명로1길 16,37.55204782,126.8225609
2022_00625,서울특별시 광진구 구천면로 29,37.54642275,127.1092845
2022_00626,서울특별시 영등포구 63로 45,37.52135273,126.9373261
2022_00627,서울특별시 동대문구 천호대로55길 11,37.57153553,127.046159
2022_00628,서울특별시 마포구 월드컵북로 235,37.56970041,126.9014174
2022_00629,서울특별시 송파구 동남로 193,37.49469823,127.1292231
2022_00630,서울특별시 강서구 양천로 489,37.56224357,126.8542071
2022_00631,서울특별시 동대문구 장한로14길 81,37.56681812,127.0721804
2022_00632,서울특별시 서초구 서초중앙로 188,37.49735041,127.013538
2022_00633,서울특별시 관악구 은천로15길 16,37.4873923,126.9443226
2022_00634,서울특별시 성동구 금호로 107,37.55227227,127.0242376
2022_00635,서울특별시 양천구 목동중앙남로 100,37.54278062,126.8637411
2022_00636,서울특별시 강동구 상암로 11,37.55344749,127.12566
2022_00637,서울특별시 도봉구 해등로12길 44,37.65302339,127.0423286
2022_00638,서울특별시 중구 청계천로 400,37.57081055,127.0214639
2022_00639,서울특별시 용산구 후암로 71-1,37.55198817,126.975661
2022_00640,서울특별시 용산구 새창로8길 157,37.53568702,126.9497224
2022_00641,서울특별시 마포구 마포대로 173-15,37.55119072,126.9521743
2022_00642,서울특별시 마포구 마포대로11길 50,37.55158802,126.9511914
2022_00643,서울특별시 강동구 고덕로 333,37.55617709,127.1591765
2022_00644,서울특별시 강동구 아리수로50길 50,37.55768646,127.1485777
2022_00645,서울특별시 마포구 마포대로11길 50,37.55158802,126.9511914
2022_00646,서울특별시 성북구 한천로 713,37.62129906,127.0518475
2022_00647,서울특별시 성북구 돌곶이로 220,37.61901822,127.0464327
2022_00648,서울특별시 마포구 마포대로 195,37.55243392,126.9542238
2022_00649,서울특별시 성북구 숭인로2길 61,37.60935341,127.0249739
2022_00650,서울특별시 성북구 숭인로2길 61,37.60935341,127.0249739
2022_00651,서울특별시 강서구 우현로 67,37.54754619,126.8372075
2022_00652,서울특별시 성동구 행당로 82,37.55480888,127.0273997
2022_00653,서울특별시 노원구 노원로1가길 10,37.62365045,127.0859584
2022_00654,서울특별시 강서구 강서로47길 108,37.55356537,126.8305342
2022_00655,서울특별시 강서구 수명로2가길 22,37.54766287,126.8219177
2022_00656,서울특별시 서대문구 세무서2길 64,37.58876464,126.9499344
2022_00657,서울특별시 송파구 토성로 37,37.53109771,127.1155537
2022_00658,서울특별시 영등포구 경인로114가길 14,37.51724645,126.9135461
2022_00659,서울특별시 송파구 올림픽로 435,37.5213593,127.1049717
2022_00660,서울특별시 송파구 올림픽로 99,37.51512525,127.07813
2022_00661,서울특별시 서초구 잠원로3길 20,37.51017637,127.0047725
2022_00662,서울특별시 서초구 신반포로 270,37.50786022,127.011582
2022_00663,서울특별시 노원구 한글비석로 479,37.66449773,127.0644832
2022_00664,서울특별시 강남구 광평로47길 17,37.48790865,127.0981863
2022_00665,서울특별시 동대문구 답십리로 130,37.57285496,127.0524012
2022_00666,서울특별시 은평구 은평터널로 65,37.58689948,126.8991669
2022_00667,서울특별시 구로구 경인로19가길 40,37.49701754,126.8447569
2022_00668,서울특별시 노원구 동일로215길 48,37.65082219,127.0561606
2022_00669,서울특별시 송파구 송파대로 567,37.51313818,127.0930487
2022_00670,서울특별시 강남구 언주로30길 13,37.48812761,127.0506867
2022_00671,서울특별시 은평구 증산로 291,37.5834678,126.908609
2022_00672,서울특별시 광진구 뚝섬로36길 19,37.53377882,127.0722798
2022_00673,서울특별시 강동구 고덕로 333,37.55617709,127.1591765
2022_00674,서울특별시 서초구 신반포로 32,,
2022_00675,서울특별시 은평구 연서로 47-2,37.60354739,126.9152477
2022_00676,서울특별시 마포구 숭문길 106,37.55092488,126.9467959
2022_00677,서울특별시 송파구 송파대로 345,37.49761457,127.1025318
2022_00678,서울특별시 강남구 광평로19길 15,37.48553054,127.0847979
2022_00679,서울특별시 성동구 고산자로 164,37.55506876,127.0354241
2022_00680,서울특별시 영등포구 영등포로 106,37.52088603,126.8928591
2022_00681,서울특별시 성북구 돌곶이로8길 22,37.60652448,127.0622612
2022_00682,서울특별시 은평구 통일로 610,37.60198245,126.9359478
2022_00683,서울특별시 동작구 동작대로29길 119,37.49088863,126.9760567
2022_00684,서울특별시 강서구 공항대로46길 28,37.5547234,126.8528968
2022_00685,서울특별시 금천구 범안로17길 12,37.46715359,126.8945478
2022_00686,서울특별시 성북구 오패산로 46,37.60747384,127.0387095
2022_00687,서울특별시 구로구 개봉로20길 158,37.49204228,126.8607374
2022_00688,서울특별시 성북구 정릉로 262,37.60368603,127.0121869
2022_00689,서울특별시 성북구 서경로 28,37.60615015,127.0159232
2022_00690,서울특별시 서초구 신반포로33길 15,37.50904433,127.0095245
2022_00691,서울특별시 영등포구 영중로 120,37.52697504,126.9059022
2022_00692,서울특별시 중랑구 동일로126나길 38,37.59719537,127.0840532
2022_00693,서울특별시 은평구 증산로 291,37.5834678,126.908609
2022_00694,서울특별시 은평구 증산로 291,37.5834678,126.908609
2022_00695,서울특별시 서초구 명달로 97-14,37.48620074,127.0028582
2022_00696,서울특별시 영등포구 당산로 222,37.53324478,126.9022911
2022_00697,서울특별시 강북구 삼양로27길 19,37.61612381,127.0217414
2022_00698,서울특별시 강서구 화곡로13길 107,37.54724497,126.8322439
2022_00699,서울특별시 동대문구 사가정로 65,37.57550604,127.0496959
2022_00700,서울특별시 구로구 새말로 31,37.50438037,126.8848254
2022_00701,서울특별시 성북구 숭인로2길 61,37.60935341,127.0249739
2022_00702,서울특별시 중랑구 공릉로2라길 15,37.61286594,127.0813332
2022_00703,서울특별시 서대문구 수색로 100,37.57473348,126.9079161
2022_00704,서울특별시 노원구 섬밭로 123,37.62805406,127.0685738
2022_00705,서울특별시 서초구 서초중앙로 26,37.48468721,127.0169918
2022_00706,서울특별시 광진구 광나루로 458,37.54467275,127.0804446
2022_00707,서울특별시 송파구 올림픽로 135,37.51673328,127.0898891
2022_00708,서울특별시 영등포구 도림천로19길 11,37.48658697,126.9002077
2022_00709,서울특별시 은평구 은평로 220,37.60053438,126.9320989
2022_00710,서울특별시 은평구 백련산로 6,37.58614561,126.9232295
2022_00711,서울특별시 동작구 상도로15길 131,37.5049676,126.9379704
2022_00712,서울특별시 영등포구 버드나루로 97,37.52691647,126.9083063
2022_00713,서울특별시 서초구 서초중앙로 26,37.48468721,127.0169918
2022_00714,서울특별시 종로구 대학로 33,37.57404525,127.0018679
2022_00715,서울특별시 노원구 한글비석로54길 92,37.66858528,127.0611197
2022_00716,서울특별시 도봉구 덕릉로 349,37.64503774,127.0460993
2022_00717,서울특별시 마포구 방울내로11길 73,37.56207004,126.9020405
2022_00718,서울특별시 금천구 디지털로12길 15,37.47816855,126.8898396
2022_00719,서울특별시 양천구 목동중앙북로 108,37.54613199,126.8752477
2022_00720,서울특별시 구로구 도림로22길 8,37.49014861,126.8932544
2022_00721,서울특별시 강남구 일원로14길 25,37.48476112,127.0808748
2022_00722,서울특별시 관악구 청룡10길 45,37.47723093,126.9430557
2022_00723,서울특별시 동대문구 겸재로 24,37.58449258,127.0709746
2022_00724,서울특별시 송파구 송파대로 567,37.51313818,127.0930487
2022_00725,서울특별시 양천구 목동서로 400,37.51500787,126.8578385
2022_00726,서울특별시 양천구 목동서로 400,37.51500787,126.8578385
2022_00727,서울특별시 송파구 송파대로 567,37.51313818,127.0930487
2022_00728,서울특별시 금천구 시흥대로 291,37.45995605,126.8966992
2022_00729,서울특별시 서대문구 이화여대8길 62,37.55972348,126.9507324
2022_00730,서울특별시 송파구 올림픽로 99,37.51512525,127.07813
2022_00731,서울특별시 도봉구 마들로 616,37.66510797,127.0469105
2022_00732,서울특별시 구로구 개봉로20길 6,37.49288023,126.8593081
2022_00733,서울특별시 구로구 남부순환로95길 88,37.49532522,126.8517306
2022_00734,서울특별시 영등포구 대림로29길 13,37.49530067,126.8980583
2022_00735,서울특별시 동작구 상도로 346-1,37.49678998,126.9516675
2022_00736,서울특별시 강서구 강서로7길 107,37.52884106,126.8417698
2022_00737,서울특별시 동작구 여의대방로44길 10,37.50736122,126.9260908
2022_00738,서울특별시 마포구 숭문길 98,37.55027896,126.9466157
2022_00739,서울특별시 송파구 송이로15길 31,37.50217165,127.1221681
2022_00740,서울특별시 은평구 응암로30길 16,37.59522857,126.9193946
2022_00741,서울특별시 서초구 강남대로61길 17,37.49867887,127.0250419
2022_00742,서울특별시 서초구 효령로77길 30,37.49170973,127.0291088
2022_00743,서울특별시 송파구 올림픽로4길 15,37.50867434,127.0747773
2022_00744,서울특별시 광진구 뚝섬로34길 32,37.53399812,127.0689661
2022_00745,서울특별시 강북구 삼양로19길 113,37.61705556,127.0177233
2022_00746,서울특별시 마포구 마포대로 115-8,37.54591501,126.9506223
2022_00747,서울특별시 송파구 올림픽로 99,37.51512525,127.07813
2022_00748,서울특별시 성북구 솔샘로25길 28,37.61857737,127.0069619
2022_00749,서울특별시 은평구 은평로 220,37.60053438,126.9320989
2022_00750,서울특별시 영등포구 의사당대로 127,37.52024054,126.9264067
2022_00751,서울특별시 노원구 동일로214길 21,37.65043289,127.0627594
2022_00752,서울특별시 강동구 강동대로 143-48,37.52765548,127.1209083
2022_00753,서울특별시 송파구 송파대로 567,37.51313818,127.0930487
2022_00754,서울특별시 관악구 관악로 195,37.48256382,126.9530987
2022_00755,서울특별시 용산구 백범로90다길 12,37.53635234,126.9692127
2022_00756,서울특별시 은평구 통일로82가길 4-4,37.62057478,126.9209083
2022_00757,서울특별시 강동구 고덕로 360,37.55668291,127.1695273
2022_00758,서울특별시 성북구 오패산로 46,37.60747384,127.0387095
2022_00759,서울특별시 노원구 노원로 532,37.66462073,127.0598242
2022_00760,서울특별시 동대문구 사가정로 65,37.57550604,127.0496959
2022_00761,서울특별시 강동구 고덕로 131,37.55516675,127.1438388
2022_00762,서울특별시 서대문구 통일로25길 30,37.58327722,126.9472325
2022_00763,서울특별시 강남구 삼성로 212,37.49961577,127.0659154
2022_00764,서울특별시 영등포구 대림로 181,37.49708138,126.8986422
2022_00765,서울특별시 구로구 서해안로 2281,37.49074712,126.8387372
2022_00766,서울특별시 영등포구 대림로 181,37.49708138,126.8986422
2022_00767,서울특별시 영등포구 대림로 181,37.49708138,126.8986422
2022_00768,서울특별시 영등포구 대림로 181,37.49708138,126.8986422
2022_00769,서울특별시 영등포구 대림로 181,37.49708138,126.8986422
2022_00770,서울특별시 송파구 올림픽로 99,37.51512525,127.07813
2022_00771,서울특별시 영등포구 대림로 181,37.49708138,126.8986422
2022_00772,서울특별시 영등포구 경인로114가길 14,37.51724645,126.9135461
2022_00773,서울특별시 영등포구 대림로 181,37.49708138,126.8986422
2022_00774,서울특별시 영등포구 대림로 181,37.49708138,126.8986422
2022_00775,서울특별시 영등포구 대림로 181,37.49708138,126.8986422
2022_00776,서울특별시 노원구 노원로22길 71,37.64855942,127.0758816
2022_00777,서울특별시 영등포구 대림로 181,37.49708138,126.8986422
2022_00778,서울특별시 강남구 삼성로 212,37.49961577,127.0659154
2022_00779,서울특별시 영등포구 대림로 181,37.49708138,126.8986422
2022_00780,서울특별시 영등포구 대림로 181,37.49708138,126.8986422
2022_00781,서울특별시 영등포구 대림로 181,37.49708138,126.8986422
2022_00782,서울특별시 은평구 은평로 220,37.60053438,126.9320989
2022_00783,서울특별시 영등포구 대림로 181,37.49708138,126.8986422
2022_00784,서울특별시 영등포구 대림로 181,37.49708138,126.8986422
2022_00785,서울특별시 영등포구 대림로 181,37.49708138,126.8986422
2022_00786,서울특별시 영등포구 대림로 181,37.49708138,126.8986422
2022_00787,서울특별시 서초구 잠원로14길 3,37.52039006,127.0159762
2022_00788,서울특별시 노원구 마들로 111,37.62383436,127.0647781
2022_00789,서울특별시 강남구 압구정로14길 16,37.52333644,127.0230108
2022_00790,서울특별시 영등포구 대림로 181,37.49708138,126.8986422
2022_00791,서울특별시 서초구 서초대로 12,37.48510068,126.9836621
2022_00792,서울특별시 노원구 마들로 59,37.62262082,127.0668819
2022_00793,서울특별시 영등포구 대림로 181,37.49708138,126.8986422
2022_00794,서울특별시 영등포구 대림로 181,37.49708138,126.8986422
2022_00795,서울특별시 영등포구 대림로 181,37.49708138,126.8986422
2022_00796,서울특별시 강남구 선릉로 8,37.48005758,127.0641534
2022_00797,서울특별시 영등포구 대림로 181,37.49708138,126.8986422
2022_00798,서울특별시 서대문구 거북골로 100,37.57572568,126.9183536
2022_00799,서울특별시 영등포구 대림로 181,37.49708138,126.8986422
2022_00800,서울특별시 영등포구 대림로 181,37.49708138,126.8986422
2022_00801,서울특별시 강서구 우현로 26,37.54834265,126.8429131
2022_00802,서울특별시 영등포구 대림로 181,37.49708138,126.8986422
2022_00803,서울특별시 영등포구 대림로 181,37.49708138,126.8986422
2022_00804,서울특별시 송파구 올림픽로 135,37.51673328,127.0898891
2022_00805,서울특별시 영등포구 대림로 181,37.49708138,126.8986422
2022_00806,서울특별시 영등포구 대림로 181,37.49708138,126.8986422
2022_00807,서울특별시 영등포구 대림로 181,37.49708138,126.8986422
2022_00808,서울특별시 마포구 독막로20나길 22,37.54609361,126.924865
2022_00809,서울특별시 동작구 노량진로23가길 23,37.51330347,126.9517825
2022_00810,서울특별시 성북구 정릉로 262,37.60368603,127.0121869
2022_00811,서울특별시 강동구 고덕로80길 99,37.55079267,127.1664048
2022_00812,서울특별시 서대문구 신촌로 163,37.5570398,126.9441188
2022_00813,서울특별시 동대문구 답십리로 130,37.57285496,127.0524012
2022_00814,서울특별시 성북구 정릉로 262,37.60368603,127.0121869
2022_00815,서울특별시 성북구 장월로 160,37.61792081,127.0522544
2022_00816,서울특별시 송파구 위례광장로 163,37.4796684,127.1393228
2022_00817,서울특별시 노원구 공릉로 430,37.64529403,127.0679726
2022_00818,서울특별시 도봉구 해등로 231,37.65772508,127.0320475
2022_00819,서울특별시 구로구 경인로8길 75,37.4928695,126.8395728
2022_00820,서울특별시 양천구 목동동로 100,37.51498201,126.8651323
2022_00821,서울특별시 은평구 수색로 300,37.58509035,126.8904419
2022_00822,서울특별시 송파구 충민로 151,37.48351714,127.1313064
2022_00823,서울특별시 강서구 허준로 121,37.56709401,126.8547358
2022_00824,서울특별시 강남구 압구정로2길 46,37.51876726,127.0206916
2022_00825,서울특별시 동작구 매봉로 134,37.51014704,126.9514909
2022_00826,서울특별시 강동구 올림픽로98가길 47,37.5509092,127.131611
2022_00827,서울특별시 강동구 올림픽로98가길 47,37.5509092,127.131611
2022_00828,서울특별시 서초구 강남대로 321,37.49155734,127.0299709
2022_00829,서울특별시 성동구 금호로 140,37.55371603,127.021929
2022_00830,서울특별시 마포구 월드컵로3길 14,37.55100797,126.911649
2022_00831,서울특별시 동작구 여의대방로10길 14,37.49632776,126.9139635
2022_00832,서울특별시 노원구 한글비석로 479,37.66449773,127.0644832
2022_00833,서울특별시 노원구 한글비석로54길 92,37.66858528,127.0611197
2022_00834,서울특별시 노원구 한글비석로 530,37.66693298,127.0591649
2022_00835,서울특별시 강남구 삼성로 212,37.49961577,127.0659154
2022_00836,서울특별시 노원구 동일로207길 186,37.63795562,127.0598022
2022_00837,서울특별시 강동구 상일로 74,37.55136837,127.1747855
2022_00838,서울특별시 강서구 강서로46길 78,37.55185967,126.8398774
2022_00839,서울특별시 강서구 수명로2길 105,37.55158665,126.8275827
2022_00840,서울특별시 도봉구 덕릉로66길 17,37.64371212,127.0539524
2022_00841,서울특별시 도봉구 노해로63길 75,37.65370677,127.0457652
2022_00842,서울특별시 중랑구 봉우재로33길 85,37.59585148,127.0896383
2022_00843,서울특별시 마포구 마포대로7길 22,37.54919304,126.9515251
2022_00844,서울특별시 성북구 성북로4길 52,37.59447253,127.012706
2022_00845,서울특별시 강동구 고덕로 333,37.55617709,127.1591765
2022_00846,서울특별시 도봉구 마들로 684-19,37.67521459,127.048765
2022_00847,서울특별시 영등포구 도신로 31,37.50623471,126.8951535
2022_00848,서울특별시 강서구 강서로45다길 30-27,37.54531541,126.8330781
2022_00849,서울특별시 서대문구 신촌로35길 10,37.5586217,126.9558604
2022_00850,서울특별시 중랑구 봉우재로57길 47,37.59659512,127.0947687
2022_00851,서울특별시 강북구 솔샘로 174,37.61763836,127.0105997
2022_00852,서울특별시 송파구 올림픽로 99,37.51512525,127.07813
2022_00853,서울특별시 송파구 송파대로 567,37.51313818,127.0930487
2022_00854,서울특별시 강서구 공항대로45길 68-6,37.55796271,126.8569695
2022_00855,서울특별시 노원구 화랑로 421,37.61749956,127.0743294
2022_00856,서울특별시 동작구 사당로13길 40,37.48609883,126.9721489
2022_00857,서울특별시 양천구 월정로 21,37.52153516,126.8432218
2022_00858,서울특별시 강동구 상일로 55,37.55331821,127.1687882
2022_00859,서울특별시 마포구 신촌로 150,37.55626353,126.9421217
2022_00860,서울특별시 구로구 경인로20길 6,37.49540382,126.8433766
2022_00861,서울특별시 강동구 고덕로 360,37.55668291,127.1695273
2022_00862,서울특별시 노원구 노해로 508,37.65470356,127.066191
2022_00863,서울특별시 동작구 국사봉길 178,37.49374752,126.9340893
2022_00864,서울특별시 구로구 도림로 59,37.4898994,126.8889619
2022_00865,서울특별시 강서구 마곡중앙1로 71,37.55690832,126.8178746
2022_00866,서울특별시 중랑구 망우로 304,37.59614433,127.0863473
2022_00867,서울특별시 강서구 강서로7길 107,37.52884106,126.8417698
2022_00868,서울특별시 노원구 섬밭로 232,37.63661517,127.0656682
2022_00869,서울특별시 동대문구 답십리로 130,37.57285496,127.0524012
2022_00870,서울특별시 노원구 한글비석로 530,37.66693298,127.0591649
2022_00871,서울특별시 강동구 상암로 11,37.55344749,127.12566
2022_00872,서울특별시 은평구 진흥로1길 11,37.60132702,126.9184934
2022_00873,서울특별시 송파구 올림픽로 99,37.51512525,127.07813
2022_00874,서울특별시 동대문구 답십리로 130,37.57285496,127.0524012
2022_00875,서울특별시 서대문구 가재울로 45,37.57566143,126.9208517
2022_00876,서울특별시 노원구 덕릉로94길 21,37.66355722,127.0766339
2022_00877,서울특별시 관악구 봉천로 387,37.48376028,126.9427012
2022_00878,서울특별시 강남구 자곡로 260,37.47656344,127.1117521
2022_00879,서울특별시 영등포구 도림천로19길 12,37.48689875,126.9005633
2022_00880,서울특별시 구로구 가마산로 268,37.49561647,126.8903189
2022_00881,서울특별시 송파구 풍성로6길 15,37.53379984,127.1143254
2022_00882,서울특별시 은평구 통일로 1034,37.63528107,126.9176562
2022_00883,서울특별시 노원구 동일로180길 48-9,37.62250358,127.0775136
2022_00884,서울특별시 동대문구 이문로 37,37.59080113,127.0561174
2022_00885,서울특별시 강동구 아리수로50길 50,37.55768646,127.1485777
2022_00886,서울특별시 영등포구 가마산로 442,37.50498194,126.9095271
2022_00887,서울특별시 중랑구 망우로 304,37.59614433,127.0863473
2022_00888,서울특별시 성북구 오패산로3길 17,37.60459386,127.0345453
2022_00889,서울특별시 도봉구 덕릉로66길 17,37.64371212,127.0539524
2022_00890,서울특별시 송파구 오금로 307,37.5034739,127.1266739
2022_00891,서울특별시 송파구 올림픽로 135,37.51673328,127.0898891
2022_00892,서울특별시 도봉구 방학로11길 36,37.66037012,127.0319369
2022_00893,서울특별시 영등포구 경인로114가길 14,37.51724645,126.9135461
2022_00894,서울특별시 송파구 올림픽로 435,37.5213593,127.1049717
2022_00895,서울특별시 중구 난계로 169,37.56657481,127.0232614
2022_00896,서울특별시 관악구 성현로 80,37.48984744,126.9529855
2022_00897,서울특별시 송파구 송파대로 345,37.49761457,127.1025318
2022_00898,서울특별시 성동구 무학로 50,37.5691096,127.0326727
2022_00899,서울특별시 성북구 월곡로14길 26,37.60023402,127.0426519
2022_00900,서울특별시 성동구 무학로 50,37.5691096,127.0326727
2022_00901,서울특별시 성북구 돌곶이로8길 22,37.60652448,127.0622612
2022_00902,서울특별시 마포구 토정로18길 11,37.54384804,126.9348545
2022_00903,서울특별시 성동구 무학로 33,37.56916416,127.0263479
2022_00904,서울특별시 성북구 화랑로 299,37.6136536,127.0608101
2022_00905,서울특별시 마포구 월드컵북로47길 46,37.57488209,126.8907326
2022_00906,서울특별시 중랑구 면목로 489,37.59550573,127.085324
2022_00907,서울특별시 강서구 강서로 266,37.54826258,126.8409806
2022_00908,서울특별시 송파구 올림픽로 99,37.51512525,127.07813
2022_00909,서울특별시 관악구 남부순환로218길 1,37.48107915,126.9506892
2022_00910,서울특별시 마포구 마포대로 115-8,37.54591501,126.9506223
2022_00911,서울특별시 성동구 무학로 33,37.56916416,127.0263479
2022_00912,서울특별시 송파구 성내천로6길 1-13,,
2022_00913,서울특별시 송파구 오금로 407,37.4986414,127.1365867
2022_00914,서울특별시 은평구 연서로19길 9,,
2022_00915,서울특별시 은평구 연서로17길 12,,
2022_00916,서울특별시 은평구 은평로 220,37.60053438,126.9320989
2022_00917,서울특별시 은평구 은평터널로 65,37.58689948,126.8991669
2022_00918,서울특별시 은평구 연서로17길 12,,
2022_00919,서울특별시 은평구 연서로17길 12,,
2022_00920,서울특별시 은평구 연서로17길 12,,
2022_00921,서울특별시 마포구 숭문길 106,37.55092488,126.9467959
2022_00922,서울특별시 은평구 연서로19길 9,,
2022_00923,서울특별시 노원구 동일로227길 25,37.66689676,127.0560392
2022_00924,서울특별시 은평구 연서로19길 9,,
2022_00925,서울특별시 성북구 한천로 713,37.62129906,127.0518475
2022_00926,서울특별시 송파구 중대로 24,37.48812575,127.1110591
2022_00927,서울특별시 노원구 중계로8길 106,37.64865335,127.0848081
2022_00928,서울특별시 서초구 신반포로 270,37.50786022,127.011582
2022_00929,서울특별시 송파구 올림픽로 435,37.5213593,127.1049717
2022_00930,서울특별시 노원구 동일로241길 53,37.67801899,127.0529134
2022_00931,서울특별시 동대문구 천호대로55길 11,37.57153553,127.046159
2022_00932,서울특별시 영등포구 도림로54길 14,37.49542065,126.9023929
2022_00933,서울특별시 강동구 상암로51길 61,37.5486615,127.1461524
2022_00934,서울특별시 성북구 개운사길 83-15,37.59044759,127.0287636
2022_00935,서울특별시 노원구 덕릉로76길 29,37.65581993,127.0761141
2022_00936,서울특별시 강동구 상일로 55,37.55331821,127.1687882
2022_00937,서울특별시 성북구 개운사길 83-15,37.59044759,127.0287636
2022_00938,서울특별시 강남구 언주로30길 56,37.48806952,127.0534832
2022_00939,서울특별시 동작구 동작대로29길 110,37.48982442,126.9777452
2022_00940,서울특별시 강서구 화곡로13길 107,37.54724497,126.8322439
2022_00941,서울특별시 성북구 정릉로 262,37.60368603,127.0121869
2022_00942,서울특별시 성북구 정릉로 262,37.60368603,127.0121869
2022_00943,서울특별시 광진구 아차산로78길 7,37.5503756,127.1092971
2022_00944,서울특별시 강남구 압구정로 401,37.52938789,127.0421076
2022_00945,서울특별시 중랑구 동일로157길 41,37.60939478,127.0755161
2022_00946,서울특별시 구로구 공원로 26,37.49990331,126.892109
2022_00947,서울특별시 강동구 상암로 11,37.55344749,127.12566
2022_00948,서울특별시 동작구 동작대로29길 115,37.49041718,126.9758253
2022_00949,서울특별시 마포구 대흥로24길 27,37.55456191,126.9475434
2022_00950,서울특별시 마포구 마포대로 195,37.55243392,126.9542238
2022_00951,서울특별시 강서구 등촌로 163,37.54472977,126.8615933
2022_00952,서울특별시 송파구 백제고분로 348,37.50408278,127.1052197
2022_00953,서울특별시 강동구 고덕로 360,37.55668291,127.1695273
2022_00954,서울특별시 강동구 고덕로 360,37.55668291,127.1695273
2022_00955,서울특별시 구로구 중앙로 121,37.50887105,126.8579863
2022_00956,서울특별시 구로구 중앙로1길 18-19,37.49857739,126.8631491
2022_00957,서울특별시 은평구 연서로19길 9,,
2022_00958,서울특별시 중랑구 상봉중앙로8길 76,37.60270473,127.0914659
2022_00959,서울특별시 중랑구 봉우재로37길 17,37.59362566,127.0877347
2022_00960,서울특별시 은평구 연서로19길 9,,
2022_00961,서울특별시 은평구 연서로17길 12,,
2022_00962,서울특별시 노원구 동일로215길 48,37.65082219,127.0561606
2022_00963,서울특별시 은평구 연서로17길 12,,
2022_00964,서울특별시 강남구 남부순환로 2803,,
2022_00965,서울특별시 은평구 연서로17길 12,,
2022_00966,서울특별시 도봉구 도봉로150길 42,37.66572626,127.0458918
2022_00967,서울특별시 중랑구 신내로21길 16,37.61680164,127.0868849
2022_00968,서울특별시 강남구 개포로 264,37.47975035,127.0522282
2022_00969,서울특별시 송파구 올림픽로 99,37.51512525,127.07813
2022_00970,서울특별시 중랑구 망우로26길 43,37.59121306,127.0722004
2022_00971,서울특별시 성북구 길음로9길 40,37.60584942,127.0209852
2022_00972,서울특별시 노원구 동일로192다길 51,37.62876504,127.0743597
2022_00973,서울특별시 양천구 목동동로 10,37.50775811,126.86131
2022_00974,서울특별시 금천구 디지털로 207,37.47906481,126.8890973
2022_00975,서울특별시 금천구 디지털로 207,37.47906481,126.8890973
2022_00976,서울특별시 용산구 보광로 40,37.52798461,126.9995615
2022_00977,서울특별시 강서구 마곡중앙로 36,37.55741872,126.8270293
2022_00978,서울특별시 은평구 은평로 96,37.59943033,126.9184641
2022_00979,서울특별시 광진구 뚝섬로 576,37.53379964,127.0731493
2022_00980,서울특별시 영등포구 경인로114길 62,37.5171864,126.9127497
2022_00981,서울특별시 성북구 성북로4길 52,37.59447253,127.012706
2022_00982,서울특별시 성북구 한천로 713,37.62129906,127.0518475
2022_00983,서울특별시 중랑구 면목로 491,37.59581313,127.0853434
2022_00984,서울특별시 영등포구 의사당대로 127,37.52024054,126.9264067
2022_00985,서울특별시 성북구 개운사길 83-15,37.59044759,127.0287636
2022_00986,서울특별시 성북구 개운사길 83-15,37.59044759,127.0287636
2022_00987,서울특별시 성북구 개운사길 83-15,37.59044759,127.0287636
2022_00988,서울특별시 마포구 월드컵북로 235,37.56970041,126.9014174
2022_00989,서울특별시 금천구 범안로17길 41,37.46837715,126.8931347
2022_00990,서울특별시 중구 퇴계로2길 15-6,37.55676242,126.9776906
2022_00991,서울특별시 구로구 천왕로 9,37.47902076,126.8422575
2022_00992,서울특별시 동대문구 망우로12길 61,37.58713907,127.0573823
2022_00993,서울특별시 서초구 바우뫼로7길 51,37.47330076,127.0230163
2022_00994,서울특별시 성북구 개운사길 83-15,37.59044759,127.0287636
2022_00995,서울특별시 노원구 광운로 132,37.62925329,127.0586842
2022_00996,서울특별시 동작구 사당로 90,37.49233562,126.9624478
2022_00997,서울특별시 성북구 개운사길 83-15,37.59044759,127.0287636
2022_00998,서울특별시 종로구 난계로29가길 19,37.57356204,127.0227367
2022_00999,서울특별시 영등포구 신풍로 77,37.50041961,126.9115445
2022_01000,서울특별시 마포구 양화로 45,37.5515008,126.9139502
2022_01001,서울특별시 마포구 대흥로24길 27,37.55456191,126.9475434
2022_01002,서울특별시 서초구 반포대로 275,37.50239027,126.9959653
2022_01003,서울특별시 동대문구 정릉천동로 36,37.57547229,127.0371123
2022_01004,서울특별시 송파구 올림픽로 99,37.51512525,127.07813
2022_01005,서울특별시 송파구 잠실로 62,37.50801505,127.0902835
2022_01006,서울특별시 도봉구 시루봉로 71,37.65716057,127.0275933
2022_01007,서울특별시 도봉구 마들로 616,37.66510797,127.0469105
2022_01008,서울특별시 마포구 독막로28길 10,37.54695507,126.9362273
2022_01009,서울특별시 성북구 숭인로2길 61,37.60935341,127.0249739
2022_01010,서울특별시 노원구 한글비석로14길 8,37.65747634,127.0774342
2022_01011,서울특별시 강서구 등촌로 163,37.54472977,126.8615933
2022_01012,서울특별시 금천구 독산로80가길 29,37.47096289,126.9064341
2022_01013,서울특별시 도봉구 노해로69길 103,37.65778635,127.0492757
2022_01014,서울특별시 송파구 충민로 152,37.48344222,127.131834
2022_01015,서울특별시 노원구 섬밭로 265,37.63828783,127.0627161
2022_01016,서울특별시 광진구 능동로 69,37.53784123,127.0689943
2022_01017,서울특별시 동작구 사당로 90,37.49233562,126.9624478
2022_01018,서울특별시 용산구 한강대로43길 13,37.53156323,126.9691466
2022_01019,서울특별시 강동구 명일로 172,37.53413819,127.1450708
2022_01020,서울특별시 동대문구 천호대로97길 9,37.56136855,127.0699154
2022_01021,서울특별시 마포구 대흥로 175,37.55577128,126.9433549
2022_01022,서울특별시 영등포구 도영로 2-5,37.50714272,126.894325
2022_01023,서울특별시 동대문구 왕산로 86,37.57775047,127.0324772
2022_01024,서울특별시 도봉구 해등로 113,37.65359643,127.0391795
2022_01025,서울특별시 강남구 삼성로 11,37.48444021,127.0679602
2022_01026,서울특별시 종로구 율곡로20길 24,37.57514099,127.0040497
2022_01027,서울특별시 마포구 연남로5길 44,37.5612967,126.9196833
2022_01028,서울특별시 양천구 목동서로 400,37.51500787,126.8578385
2022_01029,서울특별시 노원구 마들로 31,37.61872537,127.0670846
2022_01030,서울특별시 관악구 신림로65길 27,37.48481872,126.9280816
2022_01031,서울특별시 구로구 도림로 59,37.4898994,126.8889619
2022_01032,서울특별시 성북구 숭인로2길 61,37.60935341,127.0249739
2022_01033,서울특별시 영등포구 도영로 2-5,37.50714272,126.894325
2022_01034,서울특별시 서대문구 북아현로1가길 20,37.55806808,126.9513991
2022_01035,서울특별시 도봉구 도봉로180길 50,37.68223505,127.0489127
2022_01036,서울특별시 금천구 독산로50길 89,37.46375636,126.9091263
2022_01037,서울특별시 용산구 백범로90길 38,37.5366912,126.9695466
2022_01038,서울특별시 서대문구 응암로 33,37.57672076,126.908207
2022_01039,서울특별시 송파구 위례성대로8길 28,37.51273157,127.1183997
2022_01040,서울특별시 영등포구 신풍로 77,37.50041961,126.9115445
2022_01041,서울특별시 영등포구 당산로42길 16,37.53059009,126.899629
2022_01042,서울특별시 동작구 대방동27길 4,37.50495671,126.924395
2022_01043,서울특별시 송파구 올림픽로 435,37.5213593,127.1049717
2022_01044,서울특별시 영등포구 경인로 882,37.5175214,126.9107121
2022_01045,서울특별시 영등포구 경인로114가길 14,37.51724645,126.9135461
2022_01046,서울특별시 송파구 송파대로 567,37.51313818,127.0930487
2022_01047,서울특별시 송파구 올림픽로 99,37.51512525,127.07813
2022_01048,서울특별시 송파구 잠실로 88,37.50753416,127.0932143
2022_01049,서울특별시 은평구 증산로 291,37.5834678,126.908609
2022_01050,서울특별시 광진구 광나루로20길 17,37.54618158,127.0746642
2022_01051,서울특별시 도봉구 우이천로20길 7,37.64173321,127.0347716
2022_01052,서울특별시 도봉구 마들로 579-19,37.66180588,127.0452835
2022_01053,서울특별시 구로구 가마산로 284,37.49642492,126.8919528
2022_01054,서울특별시 중구 퇴계로2길 15-6,37.55676242,126.9776906
2022_01055,서울특별시 강남구 압구정로 151,37.52678582,127.024455
2022_01056,서울특별시 강남구 개포로 264,37.47975035,127.0522282
2022_01057,서울특별시 동대문구 천호대로 257,37.56895705,127.0505799
2022_01058,서울특별시 노원구 공릉로 206,37.62842693,127.0779323
2022_01059,서울특별시 성북구 서경로 60,37.60992599,127.0154584
2022_01060,서울특별시 노원구 공릉로 206,37.62842693,127.0779323
2022_01061,서울특별시 용산구 신흥로2길 58,37.54237928,126.9879185
2022_01062,서울특별시 양천구 남부순환로83길 17,37.51653419,126.8408947
2022_01063,서울특별시 강동구 상암로 11,37.55344749,127.12566
2022_01064,서울특별시 송파구 송파대로 345,37.49761457,127.1025318
2022_01065,서울특별시 서초구 양재대로2길 100-11,37.45644775,127.0162547
2022_01066,서울특별시 서초구 서운로 62,37.48943855,127.0284204
2022_01067,서울특별시 서초구 효령로77길 30,37.49170973,127.0291088
2022_01068,서울특별시 송파구 송파대로 345,37.49761457,127.1025318
2022_01069,서울특별시 도봉구 해등로 50,37.64999808,127.0433017
2022_01070,서울특별시 강북구 오현로 207,37.63089359,127.0386803
2022_01071,서울특별시 강서구 수명로1길 16,37.55204782,126.8225609
2022_01072,서울특별시 중구 동호로10길 30,37.5551916,127.0163594
2022_01073,서울특별시 송파구 올림픽로 135,37.51673328,127.0898891
2022_01074,서울특별시 강동구 상암로79길 88,37.55020472,127.1660592
2022_01075,서울특별시 관악구 청룡길 78,37.47831252,126.9453738
2022_01076,서울특별시 동대문구 답십리로 130,37.57285496,127.0524012
2022_01077,서울특별시 성북구 성북로4길 52,37.59447253,127.012706
2022_01078,서울특별시 강서구 강서로7길 38-6,37.52975476,126.8456408
2022_01079,서울특별시 도봉구 방학로 193,37.66093246,127.0278928
2022_01080,서울특별시 성북구 정릉로52길 46,37.60232918,127.0282416
2022_01081,서울특별시 양천구 목동동로 10,37.50775811,126.86131
2022_01082,서울특별시 노원구 노원로22길 71,37.64855942,127.0758816
2022_01083,서울특별시 노원구 한글비석로8길 20,37.64783908,127.0783683
2022_01084,서울특별시 중구 난계로 169,37.56657481,127.0232614
2022_01085,서울특별시 노원구 중계로 233,37.64989957,127.0757054
2022_01086,서울특별시 금천구 독산로 293,37.47302437,126.9028245
2022_01087,서울특별시 금천구 독산로 293,37.47302437,126.9028245
2022_01088,서울특별시 금천구 독산로 293,37.47302437,126.9028245
2022_01089,서울특별시 금천구 독산로 293,37.47302437,126.9028245
2022_01090,서울특별시 금천구 독산로 293,37.47302437,126.9028245
2022_01091,서울특별시 금천구 독산로 293,37.47302437,126.9028245
2022_01092,서울특별시 금천구 독산로 293,37.47302437,126.9028245
2022_01093,서울특별시 서초구 태봉로2길 60,37.4656521,127.0271812
2022_01094,서울특별시 금천구 독산로 293,37.47302437,126.9028245
2022_01095,서울특별시 금천구 독산로 293,37.47302437,126.9028245
2022_01096,서울특별시 금천구 독산로 293,37.47302437,126.9028245
2022_01097,서울특별시 금천구 독산로 293,37.47302437,126.9028245
2022_01098,서울특별시 금천구 독산로 293,37.47302437,126.9028245
2022_01099,서울특별시 금천구 독산로 293,37.47302437,126.9028245
2022_01100,서울특별시 금천구 독산로 293,37.47302437,126.9028245
2022_01101,서울특별시 금천구 독산로 293,37.47302437,126.9028245
2022_01102,서울특별시 금천구 독산로 293,37.47302437,126.9028245
2022_01103,서울특별시 금천구 독산로 293,37.47302437,126.9028245
2022_01104,서울특별시 금천구 독산로 293,37.47302437,126.9028245
2022_01105,서울특별시 금천구 독산로 293,37.47302437,126.9028245
2022_01106,서울특별시 금천구 독산로 293,37.47302437,126.9028245
2022_01107,서울특별시 금천구 독산로 293,37.47302437,126.9028245
2022_01108,서울특별시 금천구 독산로 293,37.47302437,126.9028245
2022_01109,서울특별시 금천구 독산로 293,37.47302437,126.9028245
2022_01110,서울특별시 금천구 독산로 293,37.47302437,126.9028245
2022_01111,서울특별시 금천구 독산로 293,37.47302437,126.9028245
2022_01112,서울특별시 금천구 독산로 293,37.47302437,126.9028245
2022_01113,서울특별시 강서구 화곡로13길 107,37.54724497,126.8322439
2022_01114,서울특별시 금천구 독산로 293,37.47302437,126.9028245
2022_01115,서울특별시 금천구 독산로 293,37.47302437,126.9028245
2022_01116,서울특별시 금천구 독산로 293,37.47302437,126.9028245
2022_01117,서울특별시 금천구 독산로 293,37.47302437,126.9028245
2022_01118,서울특별시 금천구 독산로 293,37.47302437,126.9028245
2022_01119,서울특별시 금천구 독산로 293,37.47302437,126.9028245
2022_01120,서울특별시 금천구 독산로 293,37.47302437,126.9028245
2022_01121,서울특별시 금천구 독산로 293,37.47302437,126.9028245
2022_01122,서울특별시 금천구 독산로 293,37.47302437,126.9028245
2022_01123,서울특별시 금천구 독산로 293,37.47302437,126.9028245
2022_01124,서울특별시 금천구 독산로 293,37.47302437,126.9028245
2022_01125,서울특별시 금천구 독산로 293,37.47302437,126.9028245
2022_01126,서울특별시 금천구 독산로 293,37.47302437,126.9028245
2022_01127,서울특별시 금천구 독산로 293,37.47302437,126.9028245
2022_01128,서울특별시 금천구 독산로 293,37.47302437,126.9028245
2022_01129,서울특별시 금천구 독산로 293,37.47302437,126.9028245
2022_01130,서울특별시 금천구 독산로 293,37.47302437,126.9028245
2022_01131,서울특별시 금천구 독산로 293,37.47302437,126.9028245
2022_01132,서울특별시 금천구 독산로 293,37.47302437,126.9028245
2022_01133,서울특별시 금천구 독산로 293,37.47302437,126.9028245
2022_01134,서울특별시 도봉구 마들로 616,37.66510797,127.0469105
2022_01135,서울특별시 영등포구 선유로 33,37.51704132,126.8881514
2022_01136,서울특별시 서대문구 모래내로 151,37.56990129,126.9178357
2022_01137,서울특별시 송파구 위례성대로8길 28,37.51273157,127.1183997
2022_01138,서울특별시 용산구 이촌로88길 30,37.51687955,126.975899
2022_01139,서울특별시 노원구 노해로 508,37.65470356,127.066191
2022_01140,서울특별시 금천구 독산로 293,37.47302437,126.9028245
2022_01141,서울특별시 금천구 독산로 293,37.47302437,126.9028245
2022_01142,서울특별시 금천구 독산로 293,37.47302437,126.9028245
2022_01143,서울특별시 금천구 독산로 293,37.47302437,126.9028245
2022_01144,서울특별시 금천구 독산로 293,37.47302437,126.9028245
2022_01145,서울특별시 금천구 독산로 293,37.47302437,126.9028245
2022_01146,서울특별시 중랑구 신내로7가길 31,37.60207313,127.0934243
2022_01147,서울특별시 금천구 독산로 293,37.47302437,126.9028245
2022_01148,서울특별시 금천구 독산로 293,37.47302437,126.9028245
2022_01149,서울특별시 금천구 독산로 293,37.47302437,126.9028245
2022_01150,서울특별시 금천구 독산로 293,37.47302437,126.9028245
2022_01151,서울특별시 금천구 독산로 293,37.47302437,126.9028245
2022_01152,서울특별시 금천구 독산로 293,37.47302437,126.9028245
2022_01153,서울특별시 금천구 독산로 293,37.47302437,126.9028245
2022_01154,서울특별시 금천구 독산로 293,37.47302437,126.9028245
2022_01155,서울특별시 금천구 독산로 293,37.47302437,126.9028245
2022_01156,서울특별시 금천구 독산로 293,37.47302437,126.9028245
2022_01157,서울특별시 은평구 갈현로11길 46,37.60479886,126.9054022
2022_01158,서울특별시 서대문구 신촌로 149,37.55695178,126.9424587
2022_01159,서울특별시 동작구 여의대방로44길 47,37.50992351,126.9304186
2022_01160,서울특별시 금천구 독산로 293,37.47302437,126.9028245
2022_01161,서울특별시 금천구 독산로 293,37.47302437,126.9028245
2022_01162,서울특별시 금천구 독산로 293,37.47302437,126.9028245
2022_01163,서울특별시 금천구 독산로 293,37.47302437,126.9028245
2022_01164,서울특별시 금천구 독산로 293,37.47302437,126.9028245
2022_01165,서울특별시 금천구 독산로 293,37.47302437,126.9028245
2022_01166,서울특별시 금천구 독산로 293,37.47302437,126.9028245
2022_01167,서울특별시 금천구 독산로 293,37.47302437,126.9028245
2022_01168,서울특별시 금천구 독산로 293,37.47302437,126.9028245
2022_01169,서울특별시 금천구 독산로 293,37.47302437,126.9028245
2022_01170,서울특별시 중랑구 신내로7나길 24,37.6013558,127.0928005
2022_01171,서울특별시 금천구 독산로 293,37.47302437,126.9028245
2022_01172,서울특별시 금천구 독산로 293,37.47302437,126.9028245
2022_01173,서울특별시 금천구 독산로 293,37.47302437,126.9028245
2022_01174,서울특별시 금천구 독산로 293,37.47302437,126.9028245
2022_01175,서울특별시 금천구 독산로 293,37.47302437,126.9028245
2022_01176,서울특별시 금천구 독산로 293,37.47302437,126.9028245
2022_01177,서울특별시 금천구 독산로 293,37.47302437,126.9028245
2022_01178,서울특별시 금천구 독산로 293,37.47302437,126.9028245
2022_01179,서울특별시 금천구 독산로 293,37.47302437,126.9028245
2022_01180,서울특별시 금천구 독산로 293,37.47302437,126.9028245
2022_01181,서울특별시 은평구 서오릉로 80,37.60751055,126.9221382
2022_01182,서울특별시 금천구 독산로 293,37.47302437,126.9028245
2022_01183,서울특별시 금천구 독산로 293,37.47302437,126.9028245
2022_01184,서울특별시 금천구 독산로 293,37.47302437,126.9028245
2022_01185,서울특별시 강서구 양천로62길 41,37.5558425,126.85999
2022_01186,서울특별시 금천구 독산로 293,37.47302437,126.9028245
2022_01187,서울특별시 금천구 독산로 293,37.47302437,126.9028245
2022_01188,서울특별시 금천구 독산로 293,37.47302437,126.9028245
2022_01189,서울특별시 송파구 송파대로 345,37.49761457,127.1025318
2022_01190,서울특별시 강동구 고덕로 131,37.55516675,127.1438388
2022_01191,서울특별시 금천구 독산로 293,37.47302437,126.9028245
2022_01192,서울특별시 금천구 독산로 293,37.47302437,126.9028245
2022_01193,서울특별시 금천구 독산로 293,37.47302437,126.9028245
2022_01194,서울특별시 금천구 독산로 293,37.47302437,126.9028245
2022_01195,서울특별시 구로구 공원로6길 25,37.50218704,126.8916637
2022_01196,서울특별시 금천구 독산로 293,37.47302437,126.9028245
2022_01197,서울특별시 금천구 독산로 293,37.47302437,126.9028245
2022_01198,서울특별시 금천구 독산로 293,37.47302437,126.9028245
2022_01199,서울특별시 금천구 독산로 293,37.47302437,126.9028245
2022_01200,서울특별시 금천구 독산로 293,37.47302437,126.9028245
2022_01201,서울특별시 금천구 독산로 293,37.47302437,126.9028245
2022_01202,서울특별시 금천구 독산로 293,37.47302437,126.9028245
2022_01203,서울특별시 금천구 독산로 293,37.47302437,126.9028245
2022_01204,서울특별시 금천구 독산로 293,37.47302437,126.9028245
2022_01205,서울특별시 금천구 독산로 293,37.47302437,126.9028245
2022_01206,서울특별시 금천구 독산로 293,37.47302437,126.9028245
2022_01207,서울특별시 금천구 독산로 293,37.47302437,126.9028245
2022_01208,서울특별시 구로구 도림로 59,37.4898994,126.8889619
2022_01209,서울특별시 금천구 독산로 293,37.47302437,126.9028245
2022_01210,서울특별시 금천구 독산로 293,37.47302437,126.9028245
2022_01211,서울특별시 금천구 독산로 293,37.47302437,126.9028245
2022_01212,서울특별시 금천구 독산로 293,37.47302437,126.9028245
2022_01213,서울특별시 금천구 독산로 293,37.47302437,126.9028245
2022_01214,서울특별시 금천구 독산로 293,37.47302437,126.9028245
2022_01215,서울특별시 금천구 독산로 293,37.47302437,126.9028245
2022_01216,서울특별시 금천구 독산로 293,37.47302437,126.9028245
2022_01217,서울특별시 금천구 독산로 293,37.47302437,126.9028245
2022_01218,서울특별시 금천구 독산로 293,37.47302437,126.9028245
2022_01219,서울특별시 금천구 독산로 293,37.47302437,126.9028245
2022_01220,서울특별시 금천구 독산로 293,37.47302437,126.9028245
2022_01221,서울특별시 금천구 독산로 293,37.47302437,126.9028245
2022_01222,서울특별시 금천구 독산로 293,37.47302437,126.9028245
2022_01223,서울특별시 금천구 독산로 293,37.47302437,126.9028245
2022_01224,서울특별시 금천구 독산로 293,37.47302437,126.9028245
2022_01225,서울특별시 금천구 독산로 293,37.47302437,126.9028245
2022_01226,서울특별시 금천구 독산로 293,37.47302437,126.9028245
2022_01227,서울특별시 금천구 독산로 293,37.47302437,126.9028245
2022_01228,서울특별시 금천구 독산로 293,37.47302437,126.9028245
2022_01229,서울특별시 금천구 독산로 293,37.47302437,126.9028245
2022_01230,서울특별시 금천구 독산로 293,37.47302437,126.9028245
2022_01231,서울특별시 금천구 독산로 293,37.47302437,126.9028245
2022_01232,서울특별시 금천구 독산로 293,37.47302437,126.9028245
2022_01233,서울특별시 금천구 독산로 293,37.47302437,126.9028245
2022_01234,서울특별시 금천구 독산로 293,37.47302437,126.9028245
2022_01235,서울특별시 금천구 독산로 293,37.47302437,126.9028245
2022_01236,서울특별시 금천구 독산로 293,37.47302437,126.9028245
2022_01237,서울특별시 금천구 독산로 293,37.47302437,126.9028245
2022_01238,서울특별시 금천구 독산로 293,37.47302437,126.9028245
2022_01239,서울특별시 금천구 독산로 293,37.47302437,126.9028245
2022_01240,서울특별시 동대문구 이문로 37,37.59080113,127.0561174
2022_01241,서울특별시 서초구 헌릉로8길 22,37.45526904,127.0591797
2022_01242,서울특별시 송파구 송파대로 345,37.49761457,127.1025318
2022_01243,서울특별시 영등포구 신길로28길 25,37.50236306,126.9134659
2022_01244,서울특별시 은평구 연서로17길 12,,
2022_01245,서울특별시 양천구 남부순환로 569,37.51812772,126.8395142
2022_01246,서울특별시 서초구 명달로9길 57,37.47934362,127.0024889
2022_01247,서울특별시 은평구 연서로19길 9,,
2022_01248,서울특별시 서대문구 포방터10길 33,37.60245509,126.9513927
2022_01249,서울특별시 송파구 위례광장로 121,37.47686504,127.1382163
2022_01250,서울특별시 강서구 방화대로45길 32,37.57488098,126.8143291
2022_01251,서울특별시 성동구 독서당로 441,37.55410505,127.0319539
2022_01252,서울특별시 노원구 초안산로1길 18,37.62915542,127.0516038
2022_01253,서울특별시 성북구 숭인로8길 80,37.60947628,127.02711
2022_01254,서울특별시 강남구 삼성로 212,37.49961577,127.0659154
2022_01255,서울특별시 노원구 월계로42길 97,37.62200512,127.0531737
2022_01256,서울특별시 성북구 정릉로 262,37.60368603,127.0121869
2022_01257,서울특별시 강서구 초원로 20,37.56762116,126.8075965
2022_01258,서울특별시 영등포구 도영로 2-5,37.50714272,126.894325
2022_01259,서울특별시 강남구 영동대로 230,37.50096015,127.0684712
2022_01260,서울특별시 강동구 고덕로 333,37.55617709,127.1591765
2022_01261,서울특별시 강동구 동남로79길 26,37.55918388,127.1537442
2022_01262,서울특별시 은평구 진관1로 21-9,37.63292446,126.919503
2022_01263,서울특별시 양천구 남부순환로67길 15,37.52479945,126.8376552
2022_01264,서울특별시 구로구 가마산로26길 5,37.49600819,126.891051
2022_01265,서울특별시 양천구 중앙로57길 35,37.52645322,126.8451593
2022_01266,서울특별시 강남구 삼성로 212,37.49961577,127.0659154
2022_01267,서울특별시 중랑구 망우로 353,37.59833282,127.0916241
2022_01268,서울특별시 서대문구 수색로 100,37.57473348,126.9079161
2022_01269,서울특별시 송파구 송파대로36길 37,37.50174336,127.1157683
2022_01270,서울특별시 노원구 동일로214길 21,37.65043289,127.0627594
2022_01271,서울특별시 강북구 솔샘로 159,37.62182327,127.0124075
2022_01272,서울특별시 중랑구 봉화산로 216,37.60688845,127.0970278
2022_01273,서울특별시 구로구 개봉로20길 158,37.49204228,126.8607374
2022_01274,서울특별시 노원구 동일로215길 48,37.65082219,127.0561606
2022_01275,서울특별시 은평구 통일로 1080,37.63923423,126.9175304
2022_01276,서울특별시 강서구 곰달래로56길 39,37.53026303,126.8611874
2022_01277,서울특별시 강서구 수명로1길 16,37.55204782,126.8225609
2022_01278,서울특별시 강북구 솔샘로 174,37.61763836,127.0105997
2022_01279,서울특별시 동작구 상도로30길 40,37.50431826,126.942467
2022_01280,서울특별시 도봉구 해등로 50,37.64999808,127.0433017
2022_01281,서울특별시 동대문구 회기로26길 15,37.58997355,127.0542271
2022_01282,서울특별시 동대문구 장안벚꽃로 107,37.57105683,127.0751137
2022_01283,서울특별시 중랑구 중랑역로49길 10,37.61634817,127.0771657
2022_01284,서울특별시 구로구 가마산로27길 11-15,37.49696053,126.8910237
2022_01285,서울특별시 서초구 신반포로 32,,
2022_01286,서울특별시 양천구 신정로7길 60-7,37.51344815,126.8384272
2022_01287,서울특별시 강동구 고덕로 333,37.55617709,127.1591765
2022_01288,서울특별시 서대문구 연희로5길 14,37.56406366,126.928065
2022_01289,서울특별시 송파구 동남로 225,37.49800473,127.1308682
2022_01290,서울특별시 강동구 고덕로 333,37.55617709,127.1591765
2022_01291,서울특별시 은평구 진관4로 107,37.64975198,126.9308871
2022_01292,서울특별시 양천구 남부순환로83길 18,37.51561814,126.8419047
2022_01293,서울특별시 성북구 정릉로 262,37.60368603,127.0121869
2022_01294,서울특별시 강동구 고덕로 399,37.55744052,127.1696789
2022_01295,서울특별시 관악구 남부순환로220길 29,37.47990741,126.9518255
2022_01296,서울특별시 서대문구 거북골로 84,37.57822963,126.9184813
2022_01297,서울특별시 은평구 진관3로 77,37.64470829,126.9208769
2022_01298,서울특별시 종로구 낙산길 198,37.58039622,127.0110117
2022_01299,서울특별시 성동구 살곶이길 146,37.56341953,127.0482109
2022_01300,서울특별시 송파구 송파대로 345,37.49761457,127.1025318
2022_01301,서울특별시 노원구 마들로 111,37.62383436,127.0647781
2022_01302,서울특별시 강동구 상암로 11,37.55344749,127.12566
2022_01303,서울특별시 서초구 효령로 84,37.47982045,126.9933557
2022_01304,서울특별시 성동구 동일로 143,37.54542846,127.0653398
2022_01305,서울특별시 동대문구 한천로11길 10-1,37.56989001,127.061632
2022_01306,서울특별시 양천구 남부순환로83길 47,37.51884602,126.8445769
2022_01307,서울특별시 서초구 반포대로18길 36,37.48720953,127.0114685
2022_01308,서울특별시 영등포구 가마산로 442,37.50498194,126.9095271
2022_01309,서울특별시 영등포구 양산로25길 16,37.52505739,126.8994008
2022_01310,서울특별시 성북구 숭인로 50,37.61198667,127.028784
2022_01311,서울특별시 송파구 송파대로 345,37.49761457,127.1025318
2022_01312,서울특별시 강동구 상암로 11,37.55344749,127.12566
2022_01313,서울특별시 마포구 숭문길 106,37.55092488,126.9467959
2022_01314,서울특별시 용산구 백범로90길 38,37.5366912,126.9695466
2022_01315,서울특별시 동대문구 한천로58길 47,37.60075075,127.0687695
2022_01316,서울특별시 동대문구 정릉천동로 16,37.57346786,127.0353065
2022_01317,서울특별시 강동구 상암로79길 88,37.55020472,127.1660592
2022_01318,서울특별시 동대문구 답십리로 130,37.57285496,127.0524012
2022_01319,서울특별시 동대문구 천호대로55길 11,37.57153553,127.046159
2022_01320,서울특별시 금천구 금하로 816,37.44977863,126.9200208
2022_01321,서울특별시 도봉구 방학로11길 36,37.66037012,127.0319369
2022_01322,서울특별시 강동구 상일로 55,37.55331821,127.1687882
2022_01323,서울특별시 노원구 동일로207길 17,37.64273683,127.0641728
2022_01324,서울특별시 노원구 수락산로 174,37.67044183,127.0597306
2022_01325,서울특별시 동대문구 답십리로 130,37.57285496,127.0524012
2022_01326,서울특별시 동대문구 장한로28가길 114,37.57802481,127.0731615
2022_01327,서울특별시 강서구 까치산로12길 13,37.54473877,126.8476048
2022_01328,서울특별시 양천구 남부순환로83길 48,37.51729907,126.8453916
2022_01329,서울특별시 광진구 광나루로56길 32,37.53782408,127.0962194
2022_01330,서울특별시 은평구 갈현로 300,37.62360899,126.9174194
2022_01331,서울특별시 은평구 갈현로 300,37.62360899,126.9174194
2022_01332,서울특별시 마포구 월드컵로26길 13,37.55916956,126.9084534
2022_01333,서울특별시 강서구 강서로7길 107,37.52884106,126.8417698
2022_01334,서울특별시 서초구 남부순환로337가길 51-9,37.48449946,127.0236604
2022_01335,서울특별시 도봉구 덕릉로 349,37.64503774,127.0460993
2022_01336,서울특별시 도봉구 해등로 50,37.64999808,127.0433017
2022_01337,서울특별시 도봉구 해등로12길 44,37.65302339,127.0423286
2022_01338,서울특별시 서초구 서초중앙로 206,37.49977917,127.0127233
2022_01339,서울특별시 노원구 중계로 184,37.65110792,127.0795991
2022_01340,서울특별시 송파구 올림픽로 435,37.5213593,127.1049717
2022_01341,서울특별시 도봉구 해등로 295,37.65709893,127.0243731
2022_01342,서울특별시 강서구 강서로 348,37.55707841,126.8380811
2022_01343,서울특별시 강서구 수명로2길 105,37.55158665,126.8275827
2022_01344,서울특별시 마포구 토정로 136-11,37.54478165,126.9264053
2022_01345,서울특별시 양천구 목동서로 400,37.51500787,126.8578385
2022_01346,서울특별시 노원구 동일로227길 25,37.66689676,127.0560392
2022_01347,서울특별시 용산구 이촌로87길 21,37.52030091,126.9786385
2022_01348,서울특별시 강동구 고덕로 360,37.55668291,127.1695273
2022_01349,서울특별시 강동구 고덕로 360,37.55668291,127.1695273
2022_01350,서울특별시 양천구 목동서로 400,37.51500787,126.8578385
2022_01351,서울특별시 은평구 통일로82길 6-7,37.62035951,126.9211413
2022_01352,서울특별시 동대문구 답십리로 130,37.57285496,127.0524012
2022_01353,서울특별시 동대문구 장한로 105,37.5700853,127.069955
2022_01354,서울특별시 도봉구 해등로 295,37.65709893,127.0243731
2022_01355,서울특별시 서초구 명달로16길 17-5,37.48514226,127.0047206
2022_01356,서울특별시 성북구 길음로 119,37.61049908,127.0163726
2022_01357,서울특별시 성북구 길음로 119,37.61049908,127.0163726
2022_01358,서울특별시 도봉구 도봉로150가길 27,37.66734923,127.0439244
2022_01359,서울특별시 영등포구 경인로114길 62,37.5171864,126.9127497
2022_01360,서울특별시 은평구 연서로46길 7,37.63396525,126.9326829
2022_01361,서울특별시 중랑구 봉우재로28길 22,37.59189629,127.0851592
2022_01362,서울특별시 용산구 우사단로10길 39-96,37.53415105,126.9980907
2022_01363,서울특별시 노원구 월계로42길 97,37.62200512,127.0531737
2022_01364,서울특별시 용산구 우사단로10길 39-96,37.53415105,126.9980907
2022_01365,서울특별시 강남구 삼성로51길 35,37.49490423,127.0601787
2022_01366,서울특별시 은평구 은평로 240,37.60042147,126.9349481
2022_01367,서울특별시 중랑구 봉화산로 193,37.60683224,127.0944572
2022_01368,서울특별시 도봉구 도봉로180길 77,37.68262263,127.049159
2022_01369,서울특별시 강남구 삼성로 212,37.49961577,127.0659154
2022_01370,서울특별시 노원구 노해로 508,37.65470356,127.066191
2022_01371,서울특별시 광진구 능동로3길 53,37.53345339,127.0646455
2022_01372,서울특별시 강동구 고덕로 360,37.55668291,127.1695273
2022_01373,서울특별시 서대문구 성산로 394,37.5617962,126.9316849
2022_01374,서울특별시 송파구 송파대로 111,37.47968706,127.1249798
2022_01375,서울특별시 은평구 은평로 240,37.60042147,126.9349481
2022_01376,서울특별시 중구 서소문로 89-20,37.56325109,126.9720315
2022_01377,서울특별시 은평구 은평로 240,37.60042147,126.9349481
2022_01378,서울특별시 강남구 삼성로51길 37,37.49343619,127.0576977
2022_01379,서울특별시 서초구 서운로 200,37.50119604,127.0236217
2022_01380,서울특별시 서초구 강남대로61길 17,37.49867887,127.0250419
2022_01381,서울특별시 구로구 구일로4길 22,37.49116709,126.8756454
2022_01382,서울특별시 강동구 명일로 172,37.53413819,127.1450708
2022_01383,서울특별시 강남구 테헤란로44길 26,37.50120577,127.0457171
2022_01384,서울특별시 강남구 논현로64길 28,37.49362548,127.042672
2022_01385,서울특별시 강서구 허준로 47,37.57101357,126.8465852
2022_01386,서울특별시 강남구 개포로109길 9,37.49575182,127.0751013
2022_01387,서울특별시 노원구 덕릉로 718,37.66140328,127.0760251
2022_01388,서울특별시 강남구 도산대로99길 42,37.52677929,127.0498064
2022_01389,서울특별시 은평구 통일로 660,37.60590087,126.9361429
2022_01390,서울특별시 송파구 위례광장로 121,37.47686504,127.1382163
2022_01391,서울특별시 동대문구 장한로28가길 114,37.57802481,127.0731615
2022_01392,서울특별시 성북구 정릉로 262,37.60368603,127.0121869
2022_01393,서울특별시 노원구 덕릉로 459-18,37.64697866,127.0614643
2022_01394,서울특별시 중랑구 양원역로 18,37.60277431,127.108648
2022_01395,서울특별시 은평구 응암로30길 15,37.59597757,126.9216903
2022_01396,서울특별시 구로구 경인로 343,37.4983033,126.8574325
2022_01397,서울특별시 관악구 남부순환로 1802,37.48117007,126.9502849
2022_01398,서울특별시 강남구 자곡로 101,37.47265508,127.0958055
2022_01399,서울특별시 도봉구 마들로 859-19,37.68604183,127.0467647
2022_01400,서울특별시 성북구 아리랑로19길 60,37.60217383,127.0100332
2022_01401,서울특별시 강서구 방화대로34길 88,37.57038093,126.8211936
2022_01402,서울특별시 동대문구 답십리로 141,37.57334306,127.0552818
2022_01403,서울특별시 관악구 남현길 144,37.47113994,126.973033
2022_01404,서울특별시 용산구 백범로90길 38,37.5366912,126.9695466
2022_01405,서울특별시 마포구 월드컵북로9길 31,37.55844333,126.915668
2022_01406,서울특별시 성북구 성북로4길 52,37.59447253,127.012706
2022_01407,서울특별시 종로구 대학로 47,37.57546396,127.0018417
2022_01408,서울특별시 성북구 보문로27길 12,37.58710089,127.0175596
2022_01409,서울특별시 동작구 동작대로29길 77,37.48864862,126.9778247
2022_01410,서울특별시 강남구 개포로109길 9,37.49575182,127.0751013
2022_01411,서울특별시 양천구 목동동로12길 38,37.52239085,126.8753715
2022_01412,서울특별시 강동구 풍성로 127,37.53207383,127.1262281
2022_01413,서울특별시 동작구 사당로23길 112,37.48779573,126.9734721
2022_01414,서울특별시 송파구 잠실로 62,37.50801505,127.0902835
2022_01415,서울특별시 영등포구 영등포로 390,37.5132492,126.9213645
2022_01416,서울특별시 금천구 벚꽃로 60,37.4610962,126.8921716
2022_01417,서울특별시 구로구 가마산로26길 5,37.49600819,126.891051
2022_01418,서울특별시 강서구 화곡로 176-19,37.54137201,126.8417205
2022_01419,서울특별시 강남구 개포로109길 21,37.49562649,127.077191
2022_01420,서울특별시 종로구 혜화로3길 33,37.58615146,126.9986907
2022_01421,서울특별시 강서구 양천로10길 37,37.57107844,126.8091413
2022_01422,서울특별시 동작구 장승배기로4길 9,37.5014493,126.9438142
2022_01423,서울특별시 노원구 수락산로 12,37.66438374,127.074879
2022_01424,서울특별시 송파구 송파대로 345,37.49761457,127.1025318
2022_01425,서울특별시 종로구 혜화로3길 33,37.58615146,126.9986907
2022_01426,서울특별시 송파구 올림픽로 99,37.51512525,127.07813
2022_01427,서울특별시 송파구 올림픽로 135,37.51673328,127.0898891
2022_01428,서울특별시 강서구 월정로 160,37.53402085,126.8375371
2022_01429,서울특별시 송파구 송이로31길 56,37.49086162,127.1363837
2022_01430,서울특별시 도봉구 도봉로133길 14,37.65756643,127.0388835
2022_01431,서울특별시 동대문구 장안벚꽃로 107,37.57105683,127.0751137
2022_01432,서울특별시 강서구 까치산로 88-15,37.54574048,126.8482206
2022_01433,서울특별시 중구 난계로 169,37.56657481,127.0232614
2022_01434,서울특별시 종로구 혜화로3길 33,37.58615146,126.9986907
2022_01435,서울특별시 중구 난계로 151,37.56497427,127.0233193
2022_01436,서울특별시 성북구 보국문로 116,37.61514195,127.0077019
2022_01437,서울특별시 성북구 정릉로 262,37.60368603,127.0121869
2022_01438,서울특별시 성북구 정릉로 262,37.60368603,127.0121869
2022_01439,서울특별시 성북구 솔샘로25길 28,37.61857737,127.0069619
2022_01440,서울특별시 동작구 만양로 19,37.50707174,126.9457182
2022_01441,서울특별시 종로구 혜화로3길 33,37.58615146,126.9986907
2022_01442,서울특별시 노원구 동일로245길 162,37.68083846,127.0542199
2022_01443,서울특별시 강동구 고덕로 360,37.55668291,127.1695273
2022_01444,서울특별시 강서구 등촌로 163,37.54472977,126.8615933
2022_01445,서울특별시 서대문구 통일로34길 43,37.58833366,126.9488077
2022_01446,서울특별시 동작구 여의대방로54길 39,37.51270395,126.9289548
2022_01447,서울특별시 영등포구 가마산로 575,37.50484135,126.9195738
2022_01448,서울특별시 영등포구 가마산로 575,37.50484135,126.9195738
2022_01449,서울특별시 금천구 시흥대로 291,37.45995605,126.8966992
2022_01450,서울특별시 도봉구 도당로15길 36,37.66712084,127.0359213
2022_01451,서울특별시 중구 동호로10길 30,37.5551916,127.0163594
2022_01452,서울특별시 서초구 서초대로 17,37.48602729,126.9844082
2022_01453,서울특별시 마포구 신촌로 160,37.55630842,126.9432851
2022_01454,서울특별시 서대문구 통일로25길 30,37.58327722,126.9472325
2022_01455,서울특별시 강남구 광평로47길 17,37.48790865,127.0981863
2022_01456,서울특별시 구로구 신도림로11가길 36,37.50626346,126.8763484
2022_01457,서울특별시 노원구 중계로 230,37.65103585,127.075055
2022_01458,서울특별시 송파구 중대로 24,37.48812575,127.1110591
2022_01459,서울특별시 양천구 월정로9길 17,37.52459879,126.8392968
2022_01460,서울특별시 송파구 송파대로 345,37.49761457,127.1025318
2022_01461,서울특별시 송파구 송파대로32길 15,37.49658241,127.1157571
2022_01462,서울특별시 강서구 강서로7길 70,37.5294116,126.8438159
2022_01463,서울특별시 강남구 도산대로50길 43,37.51976762,127.0378687
2022_01464,서울특별시 강서구 금낭화로23길 8,37.5794087,126.8125928
2022_01465,서울특별시 영등포구 경인로114길 62,37.5171864,126.9127497
2022_01466,서울특별시 양천구 목동중앙본로1길 5,37.538501,126.87042
2022_01467,서울특별시 강서구 강서로7길 70,37.5294116,126.8438159
2022_01468,서울특별시 강서구 강서로7길 107,37.52884106,126.8417698
2022_01469,서울특별시 송파구 올림픽로 99,37.51512525,127.07813
2022_01470,서울특별시 강동구 고덕로 333,37.55617709,127.1591765
2022_01471,서울특별시 동작구 동작대로29길 91,37.48802893,126.9765166
2022_01472,서울특별시 송파구 올림픽로 99,37.51512525,127.07813
2022_01473,서울특별시 송파구 올림픽로 135,37.51673328,127.0898891
2022_01474,서울특별시 송파구 잠실로 62,37.50801505,127.0902835
2022_01475,서울특별시 강동구 고덕로 333,37.55617709,127.1591765
2022_01476,서울특별시 성동구 독서당로 218,37.54262944,127.0155544
2022_01477,서울특별시 강남구 자곡로 101,37.47265508,127.0958055
2022_01478,서울특별시 강북구 오현로 56,37.61841157,127.0364759
2022_01479,서울특별시 서초구 강남대로95길 56,37.51293159,127.0170247
2022_01480,서울특별시 강북구 솔샘로 174,37.61763836,127.0105997
2022_01481,서울특별시 영등포구 도신로 31,37.50623471,126.8951535
2022_01482,서울특별시 강남구 삼성로 151,37.49315498,127.063
2022_01483,서울특별시 관악구 남부순환로 1990,37.47499324,126.9698401
2022_01484,서울특별시 강서구 월정로20길 42,37.52966665,126.8409641
2022_01485,서울특별시 성동구 행당로 82,37.55480888,127.0273997
2022_01486,서울특별시 노원구 노원로38길 76,37.66488442,127.0619727
2022_01487,서울특별시 영등포구 문래로 82,37.51919147,126.8910328
2022_01488,서울특별시 서대문구 이화여대길 50-12,37.55945396,126.9465196
2022_01489,서울특별시 송파구 송파대로 345,37.49761457,127.1025318
2022_01490,서울특별시 서대문구 세검정로1길 95,37.59591997,126.9456918
2022_01491,서울특별시 송파구 송파대로 345,37.49761457,127.1025318
2022_01492,서울특별시 영등포구 신풍로 77,37.50041961,126.9115445
2022_01493,서울특별시 영등포구 경인로114가길 14,37.51724645,126.9135461
2022_01494,서울특별시 관악구 신림로3길 40,37.46678342,126.9418862
2022_01495,서울특별시 서대문구 북아현로22나길 67,37.56571019,126.9563141
2022_01496,서울특별시 종로구 동숭4라길 29,37.58338012,127.006263
2022_01497,서울특별시 강동구 상암로79길 88,37.55020472,127.1660592
2022_01498,서울특별시 강서구 공항대로 382,37.55639458,126.8495467
2022_01499,서울특별시 마포구 월드컵북로47길 46,37.57488209,126.8907326
2022_01500,서울특별시 관악구 관악로30길 27,37.48896635,126.9606433
2022_01501,서울특별시 관악구 청룡10길 45,37.47723093,126.9430557
2022_01502,서울특별시 중랑구 신내로 128,37.60894053,127.0978091
2022_01503,서울특별시 은평구 진관4로 78-7,37.64739227,126.930528
2022_01504,서울특별시 동작구 사당로2가길 102,37.48837303,126.9634174
2022_01505,서울특별시 강동구 상암로 11,37.55344749,127.12566
2022_01506,서울특별시 강남구 언주로136길 16,37.51718196,127.036877
2022_01507,서울특별시 동대문구 장안벚꽃로 107,37.57105683,127.0751137
2022_01508,서울특별시 송파구 양재대로72길 20,37.50885919,127.1288551
2022_01509,서울특별시 영등포구 버드나루로 97,37.52691647,126.9083063
2022_01510,서울특별시 성북구 서경로2길 48,37.6057709,127.0167441
2022_01511,서울특별시 광진구 동일로 190,37.54875653,127.0681257
2022_01512,서울특별시 송파구 올림픽로 99,37.51512525,127.07813
2022_01513,서울특별시 송파구 올림픽로 135,37.51673328,127.0898891
2022_01514,서울특별시 강동구 구천면로 144,37.5421795,127.120842
2022_01515,서울특별시 도봉구 도봉로136길 28,37.65657114,127.042729
2022_01516,서울특별시 노원구 섬밭로 139,37.63028158,127.0657021
2022_01517,서울특별시 금천구 시흥대로 165,37.44790332,126.9007227
2022_01518,서울특별시 구로구 개봉로20길 158,37.49204228,126.8607374
2022_01519,서울특별시 영등포구 양산로17길 22,37.52640037,126.8941794
2022_01520,서울특별시 서초구 효령로52길 63,37.48152468,127.0134065
2022_01521,서울특별시 구로구 가마산로 285,37.49710512,126.8916862
2022_01522,서울특별시 강동구 상암로79길 88,37.55020472,127.1660592
2022_01523,서울특별시 노원구 한글비석로 91,37.63982606,127.0711674
2022_01524,서울특별시 구로구 개봉로20길 6,37.49288023,126.8593081
2022_01525,서울특별시 마포구 월드컵북로 235,37.56970041,126.9014174
2022_01526,서울특별시 강남구 광평로10길 15,37.48289938,127.0834454
2022_01527,서울특별시 노원구 중계로 233,37.64989957,127.0757054
2022_01528,서울특별시 도봉구 해등로 118,37.65408273,127.0421874
2022_01529,서울특별시 동작구 사당로2가길 188,37.48644352,126.9655243
2022_01530,서울특별시 구로구 구로중앙로34길 17,37.50084786,126.8840533
2022_01531,서울특별시 강남구 남부순환로379길 14,37.48932756,127.0463116
2022_01532,서울특별시 구로구 도림로 59,37.4898994,126.8889619
2022_01533,서울특별시 송파구 송파대로 345,37.49761457,127.1025318
2022_01534,서울특별시 영등포구 여의동로 143,37.51753105,126.9325976
2022_01535,서울특별시 영등포구 도림로 313,37.50546963,126.901495
2022_01536,서울특별시 강서구 강서로 348,37.55707841,126.8380811
2022_01537,서울특별시 양천구 목동서로 400,37.51500787,126.8578385
2022_01538,서울특별시 서초구 잠원로14길 41,37.51649586,127.0143757
2022_01539,서울특별시 서초구 강남대로53길 11,37.49396164,127.0279164
2022_01540,서울특별시 강서구 양천로69길 58,37.55527197,126.8729604
2022_01541,서울특별시 강남구 삼성로 212,37.49961577,127.0659154
2022_01542,서울특별시 강서구 화곡로59길 37-16,37.55410453,126.8485711
2022_01543,서울특별시 영등포구 가마산로79길 37,37.50745348,126.9169991
2022_01544,서울특별시 영등포구 버드나루로 97,37.52691647,126.9083063
2022_01545,서울특별시 영등포구 버드나루로 97,37.52691647,126.9083063
2022_01546,서울특별시 송파구 성내천로 103,37.50053388,127.1407208
2022_01547,서울특별시 동대문구 한천로37길 33,37.57632455,127.0658133
2022_01548,서울특별시 동대문구 장안벚꽃로 167,37.5750721,127.0742821
2022_01549,서울특별시 강북구 삼각산로 143-1,37.64265579,127.019639
2022_01550,서울특별시 노원구 노원로 564,37.66165211,127.0561247
2022_01551,서울특별시 노원구 한글비석로 396,37.66230302,127.0735817
2022_01552,서울특별시 도봉구 해등로 307,37.65667471,127.022754
2022_01553,서울특별시 노원구 한글비석로 396,37.66230302,127.0735817
2022_01554,서울특별시 동작구 동작대로29길 119,37.49088863,126.9760567
2022_01555,서울특별시 서대문구 포방터10길 33,37.60245509,126.9513927
2022_01556,서울특별시 강서구 강서로56나길 37,37.56108007,126.8408477
2022_01557,서울특별시 강동구 상암로79길 88,37.55020472,127.1660592
2022_01558,서울특별시 구로구 도림로10길 18-4,37.48574867,126.8882266
2022_01559,서울특별시 도봉구 도봉로136길 28,37.65657114,127.042729
2022_01560,서울특별시 용산구 우사단로10길 39-96,37.53415105,126.9980907
2022_01561,서울특별시 도봉구 해등로 307,37.65667471,127.022754
2022_01562,서울특별시 용산구 이촌로 100-8,37.52448791,126.9579682
2022_01563,서울특별시 구로구 구로동로22길 78-12,37.48804414,126.8879204
2022_01564,서울특별시 동대문구 장안벚꽃로 107,37.57105683,127.0751137
2022_01565,서울특별시 노원구 한글비석로14길 8,37.65747634,127.0774342
2022_01566,서울특별시 금천구 벚꽃로 40,37.46005964,126.8930206
2022_01567,서울특별시 강동구 고덕로 333,37.55617709,127.1591765
2022_01568,서울특별시 성북구 삼선교로23길 23,37.59084601,127.0130175
2022_01569,서울특별시 용산구 한남대로 91,37.53656014,127.0021341
2022_01570,서울특별시 강서구 공항대로75길 42,37.54846255,126.8753729
2022_01571,서울특별시 강남구 도곡로6길 18,37.4890736,127.0343575
2022_01572,서울특별시 금천구 남부순환로 1266,37.47873975,126.8911554
2022_01573,서울특별시 은평구 응암로 290,37.59732061,126.9203735
2022_01574,서울특별시 관악구 은천로34길 20,37.48560503,126.9531736
2022_01575,서울특별시 강동구 천호대로176길 10-10,37.5341859,127.135788
2022_01576,서울특별시 용산구 서빙고로 17,37.52690561,126.9665662
2022_01577,서울특별시 송파구 중대로 24,37.48812575,127.1110591
2022_01578,서울특별시 노원구 노해로 508,37.65470356,127.066191
2022_01579,서울특별시 은평구 갈현로2가길 1-1,37.60006239,126.9113661
2022_01580,서울특별시 강북구 솔샘로 174,37.61763836,127.0105997
2022_01581,서울특별시 서초구 양재대로2길 100-11,37.45644775,127.0162547
2022_01582,서울특별시 용산구 한강대로 205,37.53668353,126.9728087
2022_01583,서울특별시 마포구 와우산로30길 135,37.54982093,126.9275618
2022_01584,서울특별시 은평구 통일로 1034,37.63528107,126.9176562
2022_01585,서울특별시 노원구 노원로 564,37.66165211,127.0561247
2022_01586,서울특별시 노원구 노원로 564,37.66165211,127.0561247
2022_01587,서울특별시 강동구 고덕로 333,37.55617709,127.1591765
2022_01588,서울특별시 강남구 자곡로 101,37.47265508,127.0958055
2022_01589,서울특별시 서초구 남부순환로287길 7,37.47607572,126.9872556
2022_01590,서울특별시 성북구 월곡로14길 26,37.60023402,127.0426519
2022_01591,서울특별시 종로구 종로66길 28,37.57353124,127.0217078
2022_01592,서울특별시 노원구 마들로 31,37.61872537,127.0670846
2022_01593,서울특별시 성동구 금호로 173,37.55627884,127.0181523
2022_01594,서울특별시 강서구 화곡로68길 115,37.55732857,126.860338
2022_01595,서울특별시 영등포구 신풍로 77,37.50041961,126.9115445
2022_01596,서울특별시 강동구 아리수로50길 50,37.55768646,127.1485777
2022_01597,서울특별시 강남구 삼성로 212,37.49961577,127.0659154
2022_01598,서울특별시 양천구 목동서로 38,37.54129134,126.8785038
2022_01599,서울특별시 강남구 테헤란로 428,37.50569199,127.0541832
2022_01600,서울특별시 중랑구 동일로 483,37.57356279,127.0797524
2022_01601,서울특별시 서대문구 북아현로1길 17,37.55866771,126.9534505
2022_01602,서울특별시 마포구 대흥로 175,37.55577128,126.9433549
2022_01603,서울특별시 노원구 동일로190길 7,37.62538919,127.0736881
2022_01604,서울특별시 동대문구 이문로 37,37.59080113,127.0561174
2022_01605,서울특별시 용산구 보광로 40,37.52798461,126.9995615
2022_01606,서울특별시 동대문구 휘경로 60,37.59370125,127.0648977
2022_01607,서울특별시 동대문구 휘경로 60,37.59370125,127.0648977
2022_01608,서울특별시 강남구 도곡로78길 22,37.49663573,127.0588476
2022_01609,서울특별시 서초구 효령로77길 30,37.49170973,127.0291088
2022_01610,서울특별시 동대문구 고미술로 71,37.56609582,127.0550847
2022_01611,서울특별시 은평구 수색로 300,37.58509035,126.8904419
2022_01612,서울특별시 성동구 독서당로62길 43,37.55190095,127.0335265
2022_01613,서울특별시 광진구 광나루로20길 17,37.54618158,127.0746642
2022_01614,서울특별시 영등포구 가마산로 442,37.50498194,126.9095271
2022_01615,서울특별시 노원구 덕릉로127길 25,37.67224368,127.081579
2022_01616,서울특별시 성동구 독서당로62길 43,37.55190095,127.0335265
2022_01617,서울특별시 구로구 공원로 15-12,37.49867333,126.8911162
2022_01618,서울특별시 성북구 정릉로 262,37.60368603,127.0121869
2022_01619,서울특별시 양천구 월정로11길 9,37.52553769,126.8398691
2022_01620,서울특별시 강북구 삼양로80길 55,37.63161049,127.0208792
2022_01621,서울특별시 송파구 송파대로 345,37.49761457,127.1025318
2022_01622,서울특별시 성동구 독서당로40길 25,37.5433496,127.0193024
2022_01623,서울특별시 강동구 고덕로 360,37.55668291,127.1695273
2022_01624,서울특별시 강서구 공항대로45길 15,37.55629256,126.8545567
2022_01625,서울특별시 영등포구 경인로 900,37.51769214,126.9126477
2022_01626,서울특별시 성동구 무학봉28길 5,37.56231163,127.0328532
2022_01627,서울특별시 서초구 방배선행길 1,37.4741084,126.9825981
2022_01628,서울특별시 금천구 남부순환로 1266,37.47873975,126.8911554
2022_01629,서울특별시 관악구 남부순환로220길 29,37.47990741,126.9518255
2022_01630,서울특별시 중랑구 면목로 491,37.59581313,127.0853434
2022_01631,서울특별시 서초구 신반포로33길 15,37.50904433,127.0095245
2022_01632,서울특별시 노원구 동일로 1456,37.66067691,127.0614956
2022_01633,서울특별시 서대문구 가재울미래로 2,37.57440199,126.9179078
2022_01634,서울특별시 동대문구 천호대로 289,37.56689889,127.0532845
2022_01635,서울특별시 영등포구 대림로29길 13,37.49530067,126.8980583
2022_01636,서울특별시 서초구 잠원로8길 35,37.5150997,127.0116617
2022_01637,서울특별시 도봉구 해등로 231,37.65772508,127.0320475
2022_01638,서울특별시 마포구 월드컵북로 235,37.56970041,126.9014174
2022_01639,서울특별시 송파구 올림픽로 99,37.51512525,127.07813
2022_01640,서울특별시 관악구 신림로11길 151,37.46436158,126.9405999
2022_01641,서울특별시 관악구 신림로 175,37.47448544,126.9344865
2022_01642,서울특별시 관악구 호암로 519,37.46417716,126.9313185
2022_01643,서울특별시 양천구 가로공원로64길 13,37.53470864,126.8283418
2022_01644,서울특별시 송파구 송파대로30길 16,37.49458891,127.1191311
2022_01645,서울특별시 강남구 남부순환로395길 10,37.49417971,127.0609096
2022_01646,서울특별시 강남구 양재대로55길 12,37.49362958,127.0897076
2022_01647,서울특별시 구로구 가마산로 271,37.4963996,126.890291
2022_01648,서울특별시 서초구 신반포로 270,37.50786022,127.011582
2022_01649,서울특별시 강남구 일원로14길 25,37.48476112,127.0808748
2022_01650,서울특별시 영등포구 도림로 187,37.49556574,126.9005922
2022_01651,서울특별시 중구 난계로 173,37.56710449,127.0232955
2022_01652,서울특별시 강서구 양천로69길 58,37.55527197,126.8729604
2022_01653,서울특별시 강남구 봉은사로29길 35,37.50959848,127.0335666
2022_01654,서울특별시 송파구 송파대로 345,37.49761457,127.1025318
2022_01655,서울특별시 서초구 반포대로 275,37.50239027,126.9959653
2022_01656,서울특별시 강동구 고덕로 360,37.55668291,127.1695273
2022_01657,서울특별시 종로구 삼일대로32길 36,37.57524976,126.989103
2022_01658,서울특별시 송파구 위례광장로 163,37.4796684,127.1393228
2022_01659,서울특별시 성북구 오패산로 46,37.60747384,127.0387095
2022_01660,서울특별시 서대문구 북아현로1가길 20,37.55806808,126.9513991
2022_01661,서울특별시 영등포구 대림로29길 13,37.49530067,126.8980583
2022_01662,서울특별시 노원구 월계로45가길 89,37.63181387,127.0505446
2022_01663,서울특별시 강서구 곰달래로24길 4,37.53026491,126.8466134
2022_01664,서울특별시 강서구 수명로2길 105,37.55158665,126.8275827
2022_01665,서울특별시 마포구 월드컵북로47길 46,37.57488209,126.8907326
2022_01666,서울특별시 강서구 강서로 532,37.57127504,126.8422775
2022_01667,서울특별시 강남구 삼성로 212,37.49961577,127.0659154
2022_01668,서울특별시 송파구 올림픽로 435,37.5213593,127.1049717
2022_01669,서울특별시 영등포구 버드나루로22길 7,37.5310777,126.9080247
2022_01670,서울특별시 강동구 천호대로193길 37,37.53753608,127.1435606
2022_01671,서울특별시 강동구 천중로40길 12,37.54052453,127.138338
2022_01672,서울특별시 동대문구 고미술로 57,37.56699212,127.0539285
2022_01673,서울특별시 동대문구 정릉천동로 16,37.57346786,127.0353065
2022_01674,서울특별시 구로구 개봉로20길 6,37.49288023,126.8593081
2022_01675,서울특별시 서초구 반포대로 275,37.50239027,126.9959653
2022_01676,서울특별시 강동구 상암로81길 7,37.54607178,127.1674419
2022_01677,서울특별시 도봉구 도봉로150다길 28,37.66728272,127.0446898
2022_01678,서울특별시 강서구 우현로 67,37.54754619,126.8372075
2022_01679,서울특별시 강서구 공항대로 583,37.54859226,126.8702426
2022_01680,서울특별시 구로구 도림로 59,37.4898994,126.8889619
2022_01681,서울특별시 서대문구 성산로 394,37.5617962,126.9316849
2022_01682,서울특별시 서초구 남부순환로289길 16,,
2022_01683,서울특별시 구로구 서해안로34가길 22,37.49387187,126.8490807
2022_01684,서울특별시 구로구 가마산로26길 5,37.49600819,126.891051
2022_01685,서울특별시 구로구 경인로20나길 63,37.49398476,126.8407719
2022_01686,서울특별시 노원구 섬밭로 134,37.62838373,127.0693349
2022_01687,서울특별시 영등포구 버드나루로 85,37.52574731,126.9088578
2022_01688,서울특별시 강서구 양천로14길 61,37.5702774,126.8096653
2022_01689,서울특별시 영등포구 문래로 191,37.51847608,126.9032512
2022_01690,서울특별시 노원구 마들로 111,37.62383436,127.0647781
2022_01691,서울특별시 중랑구 용마산로 616,37.60493329,127.1012262
2022_01692,서울특별시 은평구 불광로 90,37.61506867,126.9330007
2022_01693,서울특별시 송파구 송파대로 345,37.49761457,127.1025318
2022_01694,서울특별시 중랑구 용마산로115길 72,37.5984755,127.0963071
2022_01695,서울특별시 서초구 강남대로53길 11,37.49396164,127.0279164
2022_01696,서울특별시 영등포구 도신로29길 28,37.51175428,126.9023257
2022_01697,서울특별시 서초구 잠원로 37-48,37.51007746,127.00618
2022_01698,서울특별시 용산구 한강대로 205,37.53668353,126.9728087
2022_01699,서울특별시 강서구 강서로 266,37.54826258,126.8409806
2022_01700,서울특별시 관악구 청룡10길 45,37.47723093,126.9430557
2022_01701,서울특별시 서대문구 통일로 553,37.5972184,126.938208
2022_01702,서울특별시 강동구 상일로 55,37.55331821,127.1687882
2022_01703,서울특별시 성북구 한천로 713,37.62129906,127.0518475
2022_01704,서울특별시 동대문구 한천로11길 10-1,37.56989001,127.061632
2022_01705,서울특별시 동대문구 왕산로16길 47,37.57578279,127.0314714
2022_01706,서울특별시 강서구 강서로56나길 110,37.56351515,126.8428388
2022_01707,서울특별시 송파구 송파대로 345,37.49761457,127.1025318
2022_01708,서울특별시 양천구 목동중앙본로 15,37.53793651,126.8714755
2022_01709,서울특별시 마포구 연남로 52,37.56482028,126.9201571
2022_01710,서울특별시 강동구 상암로 11,37.55344749,127.12566
2022_01711,서울특별시 양천구 오목로7길 35,37.52469614,126.8406616
2022_01712,서울특별시 마포구 독막로 289,37.54509749,126.9452115
2022_01713,서울특별시 강동구 고덕로 399,37.55744052,127.1696789
2022_01714,서울특별시 강동구 고덕로 333,37.55617709,127.1591765
2022_01715,서울특별시 강동구 상암로51길 61,37.5486615,127.1461524
2022_01716,서울특별시 송파구 오금로35길 17,37.5063971,127.1273634
2022_01717,서울특별시 용산구 이촌로65가길 3,37.52232623,126.9719669
2022_01718,서울특별시 서대문구 수색로 100,37.57473348,126.9079161
2022_01719,서울특별시 성동구 금호로 100,37.55453147,127.0261866
2022_01720,서울특별시 서대문구 북아현로 29,37.56020672,126.956061
2022_01721,서울특별시 송파구 송파대로 567,37.51313818,127.0930487
2022_01722,서울특별시 강남구 강남대로 256,37.48648686,127.0335376
2022_01723,서울특별시 은평구 은평로 220,37.60053438,126.9320989
2022_01724,서울특별시 은평구 통일로 745-4,37.61176786,126.928177
2022_01725,서울특별시 구로구 개봉로20길 158,37.49204228,126.8607374
2022_01726,서울특별시 구로구 항동로 8,37.47744551,126.8210054
2022_01727,서울특별시 중랑구 면목로 489,37.59550573,127.085324
2022_01728,서울특별시 노원구 덕릉로94가길 20,37.66250643,127.0781111
2022_01729,서울특별시 영등포구 당산로 222,37.53324478,126.9022911
2022_01730,서울특별시 관악구 성현로 80,37.48984744,126.9529855
2022_01731,서울특별시 성북구 길음로 33,37.60508329,127.0220786
2022_01732,서울특별시 영등포구 도신로4길 14,37.50166309,126.8938289
2022_01733,서울특별시 동작구 상도로34길 42,37.50301195,126.944659
2022_01734,서울특별시 구로구 개봉로20길 6,37.49288023,126.8593081
2022_01735,서울특별시 서대문구 세검정로 106-8,37.59638673,126.9500912
2022_01736,서울특별시 송파구 올림픽로 435,37.5213593,127.1049717
2022_01737,서울특별시 강남구 테헤란로63길 12,37.50611474,127.0509476
2022_01738,서울특별시 강동구 고덕로 240,37.55382442,127.151914
2022_01739,서울특별시 양천구 신월로 99,37.5184159,126.8351572
2022_01740,서울특별시 노원구 초안산로2라길 26,37.63000993,127.0566717
2022_01741,서울특별시 강남구 언주로 604,37.50953032,127.0384212
2022_01742,서울특별시 영등포구 대림로29길 13,37.49530067,126.8980583
2022_01743,서울특별시 송파구 잠실로 62,37.50801505,127.0902835
2022_01744,서울특별시 노원구 한글비석로14길 8,37.65747634,127.0774342
2022_01745,서울특별시 성북구 보문사길 111,37.58287311,127.0178911
2022_01746,서울특별시 송파구 잠실로 62,37.50801505,127.0902835
2022_01747,서울특별시 동대문구 한천로58길 47,37.60075075,127.0687695
2022_01748,서울특별시 송파구 잠실로 62,37.50801505,127.0902835
2022_01749,서울특별시 노원구 동일로245길 162,37.68083846,127.0542199
2022_01750,서울특별시 금천구 벚꽃로 73,37.46291004,126.8904233
2022_01751,서울특별시 관악구 남부순환로220길 29,37.47990741,126.9518255
2022_01752,서울특별시 광진구 광장로7길 31,37.5492223,127.1051527
2022_01753,서울특별시 양천구 목동서로 340,37.51942468,126.8640382
2022_01754,서울특별시 서초구 강남대로53길 11,37.49396164,127.0279164
2022_01755,서울특별시 노원구 동일로248길 16,37.67899694,127.0567341
2022_01756,서울특별시 노원구 덕릉로 459-18,37.64697866,127.0614643
2022_01757,서울특별시 동대문구 이문로 190,37.60350619,127.0622201
2022_01758,서울특별시 도봉구 해등로 231,37.65772508,127.0320475
2022_01759,서울특별시 성북구 월곡로14길 26,37.60023402,127.0426519
2022_01760,서울특별시 성북구 보문로38길 11,37.59166254,127.0148182
2022_01761,서울특별시 구로구 개봉로20길 158,37.49204228,126.8607374
2022_01762,서울특별시 광진구 능동로19길 35,37.54706801,127.0718499
2022_01763,서울특별시 은평구 가좌로 341,37.59691577,126.9076027
2022_01764,서울특별시 광진구 아차산로 637,37.55132113,127.1076048
2022_01765,서울특별시 구로구 디지털로31길 120,37.48847002,126.890773
2022_01766,서울특별시 노원구 한글비석로14길 8,37.65747634,127.0774342
2022_01767,서울특별시 강동구 고덕로 399,37.55744052,127.1696789
2022_01768,서울특별시 구로구 디지털로31길 90,37.48873032,126.8920535
2022_01769,서울특별시 송파구 올림픽로 135,37.51673328,127.0898891
2022_01770,서울특별시 동대문구 한천로58길 47,37.60075075,127.0687695
2022_01771,서울특별시 동대문구 사가정로 65,37.57550604,127.0496959
2022_01772,서울특별시 성동구 왕십리로31길 15,37.56341866,127.0276427
2022_01773,서울특별시 노원구 동일로230가길 15,37.67218253,127.0571883
2022_01774,서울특별시 서대문구 수색로6길 43,37.57256563,126.9124567
2022_01775,서울특별시 중구 청구로17길 24-5,37.56013512,127.0116214
2022_01776,서울특별시 중구 다산로36길 109,37.56050413,127.0229704
2022_01777,서울특별시 강동구 천호대로 1092,37.53524776,127.1326638
2022_01778,서울특별시 강동구 구천면로 189,37.54159201,127.1255364
2022_01779,서울특별시 강서구 양천로66길 6,37.55514578,126.8639372
2022_01780,서울특별시 동대문구 장한로26가길 90,37.56804054,127.0697286
2022_01781,서울특별시 마포구 신촌로 150,37.55626353,126.9421217
2022_01782,서울특별시 도봉구 덕릉로66길 17,37.64371212,127.0539524
2022_01783,서울특별시 송파구 잠실로 88,37.50753416,127.0932143
2022_01784,서울특별시 마포구 성미산로23길 54,37.56588247,126.9201628
2022_01785,서울특별시 강서구 양천로71길 38,37.55296017,126.8721838
2022_01786,서울특별시 송파구 거마로15길 12,37.49830566,127.1451417
2022_01787,서울특별시 강서구 공항대로 382,37.55639458,126.8495467
2022_01788,서울특별시 성북구 숭인로2길 61,37.60935341,127.0249739
2022_01789,서울특별시 강동구 천중로44길 75,37.53765357,127.1393471
2022_01790,서울특별시 영등포구 가마산로 315,37.49852058,126.8945593
2022_01791,서울특별시 중랑구 봉화산로48길 62,37.60347534,127.0936543
2022_01792,서울특별시 성북구 종암로 132,37.60191974,127.0335179
2022_01793,서울특별시 중구 동호로11마길 40,37.55070365,127.0055496
2022_01794,서울특별시 구로구 구로중앙로 68,37.49586031,126.8888073
2022_01795,서울특별시 강남구 테헤란로64길 9,37.50449545,127.0515852
2022_01796,서울특별시 서대문구 모래내로 455,37.58560891,126.9452799
2022_01797,서울특별시 서대문구 통일로 395,37.58461475,126.9444913
2022_01798,서울특별시 관악구 남부순환로218길 37,37.47964366,126.9504648
2022_01799,서울특별시 노원구 노원로 532,37.66462073,127.0598242
2022_01800,서울특별시 은평구 응암로30길 15,37.59597757,126.9216903
2022_01801,서울특별시 강남구 삼성로 517,37.50798547,127.0552236
2022_01802,서울특별시 영등포구 도림천로19길 11,37.48658697,126.9002077
2022_01803,서울특별시 서대문구 신촌로 163,37.5570398,126.9441188
2022_01804,서울특별시 마포구 월드컵북로30길 9-22,37.5691137,126.9079073
2022_01805,서울특별시 강동구 고덕로 360,37.55668291,127.1695273
2022_01806,서울특별시 금천구 시흥대로47길 43,37.45065531,126.8989553
2022_01807,서울특별시 송파구 동남로 193,37.49469823,127.1292231
2022_01808,서울특별시 도봉구 도봉로150가길 27,37.66734923,127.0439244
2022_01809,서울특별시 강남구 광평로47길 17,37.48790865,127.0981863
2022_01810,서울특별시 강동구 상일로 55,37.55331821,127.1687882
2022_01811,서울특별시 강동구 천중로42길 70,37.53795207,127.1382752
2022_01812,서울특별시 중구 난계로 151,37.56497427,127.0233193
2022_01813,서울특별시 강동구 천호대로176길 10-10,37.5341859,127.135788
2022_01814,서울특별시 영등포구 도림천로19길 11,37.48658697,126.9002077
2022_01815,서울특별시 금천구 남부순환로120길 23,37.47806807,126.9014441
2022_01816,서울특별시 성동구 왕십리로 410,37.56660293,127.0240825
2022_01817,서울특별시 은평구 진관4로 100,37.64980599,126.9331512
2022_01818,서울특별시 마포구 방울내로 37,37.55899722,126.8991892
2022_01819,서울특별시 구로구 구로중앙로 68,37.49586031,126.8888073
2022_01820,서울특별시 동작구 사당로 158,37.48738002,126.9667674
2022_01821,서울특별시 구로구 경인로20나길 30,37.49482952,126.8420242
2022_01822,서울특별시 도봉구 마들로 859-19,37.68604183,127.0467647
2022_01823,서울특별시 송파구 송파대로 345,37.49761457,127.1025318
2022_01824,서울특별시 강동구 고덕로 333,37.55617709,127.1591765
2022_01825,서울특별시 동작구 상도로15길 131,37.5049676,126.9379704
2022_01826,서울특별시 동작구 상도로15길 131,37.5049676,126.9379704
2022_01827,서울특별시 성동구 마조로 57,37.56298737,127.0398903
2022_01828,서울특별시 구로구 신도림로 16,37.50512282,126.882191
2022_01829,서울특별시 서초구 방배로33길 29,37.49124224,126.9892705
2022_01830,서울특별시 마포구 도화길 28,37.53960372,126.9496292
2022_01831,서울특별시 노원구 노해로85길 10-55,37.65643619,127.0661237
2022_01832,서울특별시 중랑구 봉화산로 193,37.60683224,127.0944572
2022_01833,서울특별시 강서구 우현로 67,37.54754619,126.8372075
2022_01834,서울특별시 은평구 응암로 293,37.59792492,126.9201252
2022_01835,서울특별시 은평구 은평로 116,37.59987422,126.9206759
2022_01836,서울특별시 은평구 통일로 610,37.60198245,126.9359478
2022_01837,서울특별시 성북구 장월로1길 28,37.60877249,127.045612
2022_01838,서울특별시 양천구 남부순환로83길 48,37.51729907,126.8453916
2022_01839,서울특별시 노원구 섬밭로 229,37.63661786,127.0645392
2022_01840,서울특별시 광진구 광나루로 458,37.54467275,127.0804446
2022_01841,서울특별시 성북구 보문로29다길 31,37.58417735,127.0126186
2022_01842,서울특별시 강서구 허준로 76,37.56841417,126.8486573
2022_01843,서울특별시 성북구 한천로 713,37.62129906,127.0518475
2022_01844,서울특별시 용산구 후암로 71-1,37.55198817,126.975661
2022_01845,서울특별시 송파구 중대로 24,37.48812575,127.1110591
2022_01846,서울특별시 강북구 도봉로 290,37.63420343,127.0237738
2022_01847,서울특별시 강북구 솔샘로 174,37.61763836,127.0105997
2022_01848,서울특별시 강동구 고덕로 399,37.55744052,127.1696789
2022_01849,서울특별시 영등포구 신길로29길 17,37.50372029,126.9082776
2022_01850,서울특별시 송파구 중대로 24,37.48812575,127.1110591
